[{"nom":"Abjat-sur-Bandiat","code":"24001","codesPostaux":["24300"],"centre":{"type":"Point","coordinates":[0.7655,45.5825]},"surface":2877.66,"population":631,"departement":{"code":"24","nom":"Dordogne"},"region":{"code":"75","nom":"Nouvelle-Aquitaine"}},{"nom":"Agonac","code":"24002","codesPostaux":["24460"],"centre":{"type":"Point","coordinates":[0.7415,45.2786]},"surface":3816.29,"population":1796,"departement":{"code":"24","nom":"Dordogne"},"region":{"code":"75","nom":"Nouvelle-Aquitaine"}},{"nom":"Ajat","code":"24004","codesPostaux":["24210"],"centre":{"type":"Point","coordinates":[1.0289,45.1603]},"surface":2246.66,"population":292,"departement":{"code":"24","nom":"Dordogne"},"region":{"code":"75","nom":"Nouvelle-Aquitaine"}},{"nom":"Alles-sur-Dordogne","code":"24005","codesPostaux":["24480"],"centre":{"type":"Point","coordinates":[0.8724,44.8618]},"surface":946.54,"population":388,"departement":{"code":"24","nom":"Dordogne"},"region":{"code":"75","nom":"Nouvelle-Aquitaine"}},{"nom":"Allas-les-Mines","code":"24006","codesPostaux":["24220"],"centre":{"type":"Point","coordinates":[1.0748,44.8276]},"surface":719.65,"population":191,"departement":{"code":"24","nom":"Dordogne"},"region":{"code":"75","nom":"Nouvelle-Aquitaine"}},{"nom":"Allemans","code":"24007","codesPostaux":["24600"],"centre":{"type":"Point","coordinates":[0.2951,45.2886]},"surface":1884.8,"population":528,"departement":{"code":"24","nom":"Dordogne"},"region":{"code":"75","nom":"Nouvelle-Aquitaine"}},{"nom":"Angoisse","code":"24008","codesPostaux":["24270"],"centre":{"type":"Point","coordinates":[1.1528,45.4323]},"surface":2380.06,"population":591,"departement":{"code":"24","nom":"Dordogne"},"region":{"code":"75","nom":"Nouvelle-Aquitaine"}},{"nom":"Anlhiac","code":"24009","codesPostaux":["24160"],"centre":{"type":"Point","coordinates":[1.1194,45.3241]},"surface":1240.14,"population":265,"departement":{"code":"24","nom":"Dordogne"},"region":{"code":"75","nom":"Nouvelle-Aquitaine"}},{"nom":"Annesse-et-Beaulieu","code":"24010","codesPostaux":["24430"],"centre":{"type":"Point","coordinates":[0.5927,45.1813]},"surface":1290.01,"population":1445,"departement":{"code":"24","nom":"Dordogne"},"region":{"code":"75","nom":"Nouvelle-Aquitaine"}},{"nom":"Antonne-et-Trigonant","code":"24011","codesPostaux":["24420"],"centre":{"type":"Point","coordinates":[0.8289,45.2275]},"surface":2103.08,"population":1257,"departement":{"code":"24","nom":"Dordogne"},"region":{"code":"75","nom":"Nouvelle-Aquitaine"}},{"nom":"Archignac","code":"24012","codesPostaux":["24590"],"centre":{"type":"Point","coordinates":[1.2922,45.0162]},"surface":2336.68,"population":396,"departement":{"code":"24","nom":"Dordogne"},"region":{"code":"75","nom":"Nouvelle-Aquitaine"}},{"nom":"Aubas","code":"24014","codesPostaux":["24290"],"centre":{"type":"Point","coordinates":[1.1992,45.0804]},"surface":1717.18,"population":616,"departement":{"code":"24","nom":"Dordogne"},"region":{"code":"75","nom":"Nouvelle-Aquitaine"}},{"nom":"Audrix","code":"24015","codesPostaux":["24260"],"centre":{"type":"Point","coordinates":[0.9497,44.8841]},"surface":640.55,"population":258,"departement":{"code":"24","nom":"Dordogne"},"region":{"code":"75","nom":"Nouvelle-Aquitaine"}},{"nom":"Augignac","code":"24016","codesPostaux":["24300"],"centre":{"type":"Point","coordinates":[0.7031,45.5832]},"surface":2334.45,"population":822,"departement":{"code":"24","nom":"Dordogne"},"region":{"code":"75","nom":"Nouvelle-Aquitaine"}},{"nom":"Auriac-du-Périgord","code":"24018","codesPostaux":["24290"],"centre":{"type":"Point","coordinates":[1.1286,45.1116]},"surface":1836.47,"population":401,"departement":{"code":"24","nom":"Dordogne"},"region":{"code":"75","nom":"Nouvelle-Aquitaine"}},{"nom":"Azerat","code":"24019","codesPostaux":["24210"],"centre":{"type":"Point","coordinates":[1.1008,45.1585]},"surface":2068.18,"population":434,"departement":{"code":"24","nom":"Dordogne"},"region":{"code":"75","nom":"Nouvelle-Aquitaine"}},{"nom":"La Bachellerie","code":"24020","codesPostaux":["24210"],"centre":{"type":"Point","coordinates":[1.1612,45.1313]},"surface":1775.54,"population":895,"departement":{"code":"24","nom":"Dordogne"},"region":{"code":"75","nom":"Nouvelle-Aquitaine"}},{"nom":"Badefols-d'Ans","code":"24021","codesPostaux":["24390"],"centre":{"type":"Point","coordinates":[1.2047,45.2306]},"surface":1877.57,"population":398,"departement":{"code":"24","nom":"Dordogne"},"region":{"code":"75","nom":"Nouvelle-Aquitaine"}},{"nom":"Badefols-sur-Dordogne","code":"24022","codesPostaux":["24150"],"centre":{"type":"Point","coordinates":[0.7991,44.8393]},"surface":609.5,"population":207,"departement":{"code":"24","nom":"Dordogne"},"region":{"code":"75","nom":"Nouvelle-Aquitaine"}},{"nom":"Baneuil","code":"24023","codesPostaux":["24150"],"centre":{"type":"Point","coordinates":[0.6924,44.854]},"surface":902.59,"population":319,"departement":{"code":"24","nom":"Dordogne"},"region":{"code":"75","nom":"Nouvelle-Aquitaine"}},{"nom":"Bardou","code":"24024","codesPostaux":["24560"],"centre":{"type":"Point","coordinates":[0.6849,44.7418]},"surface":483.16,"population":45,"departement":{"code":"24","nom":"Dordogne"},"region":{"code":"75","nom":"Nouvelle-Aquitaine"}},{"nom":"Bars","code":"24025","codesPostaux":["24210"],"centre":{"type":"Point","coordinates":[1.0492,45.0949]},"surface":2343.56,"population":240,"departement":{"code":"24","nom":"Dordogne"},"region":{"code":"75","nom":"Nouvelle-Aquitaine"}},{"nom":"Bassillac et Auberoche","code":"24026","codesPostaux":["24330","24640"],"centre":{"type":"Point","coordinates":[0.88,45.1577]},"surface":10531.6,"population":4363,"departement":{"code":"24","nom":"Dordogne"},"region":{"code":"75","nom":"Nouvelle-Aquitaine"}},{"nom":"Bayac","code":"24027","codesPostaux":["24150"],"centre":{"type":"Point","coordinates":[0.7232,44.8016]},"surface":1025.85,"population":357,"departement":{"code":"24","nom":"Dordogne"},"region":{"code":"75","nom":"Nouvelle-Aquitaine"}},{"nom":"Beaumontois en Périgord","code":"24028","codesPostaux":["24440"],"centre":{"type":"Point","coordinates":[0.7552,44.7387]},"surface":7304.31,"population":1767,"departement":{"code":"24","nom":"Dordogne"},"region":{"code":"75","nom":"Nouvelle-Aquitaine"}},{"nom":"Beaupouyet","code":"24029","codesPostaux":["24400"],"centre":{"type":"Point","coordinates":[0.2837,44.9963]},"surface":2304.16,"population":542,"departement":{"code":"24","nom":"Dordogne"},"region":{"code":"75","nom":"Nouvelle-Aquitaine"}},{"nom":"Beauregard-de-Terrasson","code":"24030","codesPostaux":["24120"],"centre":{"type":"Point","coordinates":[1.2293,45.1557]},"surface":833.72,"population":679,"departement":{"code":"24","nom":"Dordogne"},"region":{"code":"75","nom":"Nouvelle-Aquitaine"}},{"nom":"Beauregard-et-Bassac","code":"24031","codesPostaux":["24140"],"centre":{"type":"Point","coordinates":[0.6331,44.9952]},"surface":1217.8,"population":290,"departement":{"code":"24","nom":"Dordogne"},"region":{"code":"75","nom":"Nouvelle-Aquitaine"}},{"nom":"Beauronne","code":"24032","codesPostaux":["24400"],"centre":{"type":"Point","coordinates":[0.3583,45.101]},"surface":1938.98,"population":368,"departement":{"code":"24","nom":"Dordogne"},"region":{"code":"75","nom":"Nouvelle-Aquitaine"}},{"nom":"Beleymas","code":"24034","codesPostaux":["24140"],"centre":{"type":"Point","coordinates":[0.4959,44.9863]},"surface":1613.61,"population":273,"departement":{"code":"24","nom":"Dordogne"},"region":{"code":"75","nom":"Nouvelle-Aquitaine"}},{"nom":"Pays de Belvès","code":"24035","codesPostaux":["24170"],"centre":{"type":"Point","coordinates":[1.005,44.7492]},"surface":3166.93,"population":1322,"departement":{"code":"24","nom":"Dordogne"},"region":{"code":"75","nom":"Nouvelle-Aquitaine"}},{"nom":"Berbiguières","code":"24036","codesPostaux":["24220"],"centre":{"type":"Point","coordinates":[1.0411,44.8352]},"surface":545.26,"population":176,"departement":{"code":"24","nom":"Dordogne"},"region":{"code":"75","nom":"Nouvelle-Aquitaine"}},{"nom":"Bergerac","code":"24037","codesPostaux":["24100"],"centre":{"type":"Point","coordinates":[0.4883,44.8519]},"surface":5664.99,"population":26323,"departement":{"code":"24","nom":"Dordogne"},"region":{"code":"75","nom":"Nouvelle-Aquitaine"}},{"nom":"Bertric-Burée","code":"24038","codesPostaux":["24320"],"centre":{"type":"Point","coordinates":[0.354,45.3086]},"surface":1671.04,"population":425,"departement":{"code":"24","nom":"Dordogne"},"region":{"code":"75","nom":"Nouvelle-Aquitaine"}},{"nom":"Besse","code":"24039","codesPostaux":["24550"],"centre":{"type":"Point","coordinates":[1.112,44.6652]},"surface":1665.52,"population":158,"departement":{"code":"24","nom":"Dordogne"},"region":{"code":"75","nom":"Nouvelle-Aquitaine"}},{"nom":"Beynac-et-Cazenac","code":"24040","codesPostaux":["24220"],"centre":{"type":"Point","coordinates":[1.1289,44.8556]},"surface":1310.83,"population":497,"departement":{"code":"24","nom":"Dordogne"},"region":{"code":"75","nom":"Nouvelle-Aquitaine"}},{"nom":"Biras","code":"24042","codesPostaux":["24310"],"centre":{"type":"Point","coordinates":[0.6393,45.2825]},"surface":1989.11,"population":700,"departement":{"code":"24","nom":"Dordogne"},"region":{"code":"75","nom":"Nouvelle-Aquitaine"}},{"nom":"Biron","code":"24043","codesPostaux":["24540"],"centre":{"type":"Point","coordinates":[0.8755,44.6232]},"surface":1309.58,"population":140,"departement":{"code":"24","nom":"Dordogne"},"region":{"code":"75","nom":"Nouvelle-Aquitaine"}},{"nom":"Boisse","code":"24045","codesPostaux":["24560"],"centre":{"type":"Point","coordinates":[0.6558,44.713]},"surface":1680.47,"population":248,"departement":{"code":"24","nom":"Dordogne"},"region":{"code":"75","nom":"Nouvelle-Aquitaine"}},{"nom":"Boisseuilh","code":"24046","codesPostaux":["24390"],"centre":{"type":"Point","coordinates":[1.176,45.2821]},"surface":1219.7,"population":113,"departement":{"code":"24","nom":"Dordogne"},"region":{"code":"75","nom":"Nouvelle-Aquitaine"}},{"nom":"Bonneville-et-Saint-Avit-de-Fumadières","code":"24048","codesPostaux":["24230"],"centre":{"type":"Point","coordinates":[0.0805,44.885]},"surface":709.63,"population":309,"departement":{"code":"24","nom":"Dordogne"},"region":{"code":"75","nom":"Nouvelle-Aquitaine"}},{"nom":"Borrèze","code":"24050","codesPostaux":["24590"],"centre":{"type":"Point","coordinates":[1.3906,44.972]},"surface":2802.86,"population":348,"departement":{"code":"24","nom":"Dordogne"},"region":{"code":"75","nom":"Nouvelle-Aquitaine"}},{"nom":"Bosset","code":"24051","codesPostaux":["24130"],"centre":{"type":"Point","coordinates":[0.362,44.9535]},"surface":1467.52,"population":226,"departement":{"code":"24","nom":"Dordogne"},"region":{"code":"75","nom":"Nouvelle-Aquitaine"}},{"nom":"Bouillac","code":"24052","codesPostaux":["24480"],"centre":{"type":"Point","coordinates":[0.921,44.7664]},"surface":1238.97,"population":126,"departement":{"code":"24","nom":"Dordogne"},"region":{"code":"75","nom":"Nouvelle-Aquitaine"}},{"nom":"Boulazac Isle Manoire","code":"24053","codesPostaux":["24330","24750"],"centre":{"type":"Point","coordinates":[0.7878,45.1385]},"surface":5754.92,"population":10697,"departement":{"code":"24","nom":"Dordogne"},"region":{"code":"75","nom":"Nouvelle-Aquitaine"}},{"nom":"Bouniagues","code":"24054","codesPostaux":["24560"],"centre":{"type":"Point","coordinates":[0.528,44.756]},"surface":870.37,"population":600,"departement":{"code":"24","nom":"Dordogne"},"region":{"code":"75","nom":"Nouvelle-Aquitaine"}},{"nom":"Bourdeilles","code":"24055","codesPostaux":["24310"],"centre":{"type":"Point","coordinates":[0.5742,45.3239]},"surface":2281.7,"population":780,"departement":{"code":"24","nom":"Dordogne"},"region":{"code":"75","nom":"Nouvelle-Aquitaine"}},{"nom":"Le Bourdeix","code":"24056","codesPostaux":["24300"],"centre":{"type":"Point","coordinates":[0.6362,45.5814]},"surface":1159.74,"population":234,"departement":{"code":"24","nom":"Dordogne"},"region":{"code":"75","nom":"Nouvelle-Aquitaine"}},{"nom":"Bourg-des-Maisons","code":"24057","codesPostaux":["24320"],"centre":{"type":"Point","coordinates":[0.4356,45.3369]},"surface":909.78,"population":70,"departement":{"code":"24","nom":"Dordogne"},"region":{"code":"75","nom":"Nouvelle-Aquitaine"}},{"nom":"Bourg-du-Bost","code":"24058","codesPostaux":["24600"],"centre":{"type":"Point","coordinates":[0.2615,45.2667]},"surface":729.6,"population":226,"departement":{"code":"24","nom":"Dordogne"},"region":{"code":"75","nom":"Nouvelle-Aquitaine"}},{"nom":"Bourgnac","code":"24059","codesPostaux":["24400"],"centre":{"type":"Point","coordinates":[0.397,45.0148]},"surface":911.14,"population":351,"departement":{"code":"24","nom":"Dordogne"},"region":{"code":"75","nom":"Nouvelle-Aquitaine"}},{"nom":"Bourniquel","code":"24060","codesPostaux":["24150"],"centre":{"type":"Point","coordinates":[0.7704,44.8102]},"surface":895.89,"population":72,"departement":{"code":"24","nom":"Dordogne"},"region":{"code":"75","nom":"Nouvelle-Aquitaine"}},{"nom":"Bourrou","code":"24061","codesPostaux":["24110"],"centre":{"type":"Point","coordinates":[0.6028,45.0475]},"surface":951.61,"population":127,"departement":{"code":"24","nom":"Dordogne"},"region":{"code":"75","nom":"Nouvelle-Aquitaine"}},{"nom":"Bouteilles-Saint-Sébastien","code":"24062","codesPostaux":["24320"],"centre":{"type":"Point","coordinates":[0.2908,45.3505]},"surface":1405.64,"population":179,"departement":{"code":"24","nom":"Dordogne"},"region":{"code":"75","nom":"Nouvelle-Aquitaine"}},{"nom":"Bouzic","code":"24063","codesPostaux":["24250"],"centre":{"type":"Point","coordinates":[1.2255,44.7221]},"surface":1226.3,"population":149,"departement":{"code":"24","nom":"Dordogne"},"region":{"code":"75","nom":"Nouvelle-Aquitaine"}},{"nom":"Brantôme en Périgord","code":"24064","codesPostaux":["24310","24460","24530"],"centre":{"type":"Point","coordinates":[0.6596,45.3756]},"surface":13789.16,"population":3721,"departement":{"code":"24","nom":"Dordogne"},"region":{"code":"75","nom":"Nouvelle-Aquitaine"}},{"nom":"Brouchaud","code":"24066","codesPostaux":["24210"],"centre":{"type":"Point","coordinates":[0.9919,45.2048]},"surface":1234.26,"population":210,"departement":{"code":"24","nom":"Dordogne"},"region":{"code":"75","nom":"Nouvelle-Aquitaine"}},{"nom":"Le Bugue","code":"24067","codesPostaux":["24260"],"centre":{"type":"Point","coordinates":[0.9198,44.9249]},"surface":3031.27,"population":2613,"departement":{"code":"24","nom":"Dordogne"},"region":{"code":"75","nom":"Nouvelle-Aquitaine"}},{"nom":"Le Buisson-de-Cadouin","code":"24068","codesPostaux":["24480"],"centre":{"type":"Point","coordinates":[0.8885,44.8144]},"surface":5027.06,"population":1945,"departement":{"code":"24","nom":"Dordogne"},"region":{"code":"75","nom":"Nouvelle-Aquitaine"}},{"nom":"Bussac","code":"24069","codesPostaux":["24350"],"centre":{"type":"Point","coordinates":[0.606,45.2699]},"surface":1744.07,"population":391,"departement":{"code":"24","nom":"Dordogne"},"region":{"code":"75","nom":"Nouvelle-Aquitaine"}},{"nom":"Busserolles","code":"24070","codesPostaux":["24360"],"centre":{"type":"Point","coordinates":[0.645,45.6751]},"surface":3359.45,"population":505,"departement":{"code":"24","nom":"Dordogne"},"region":{"code":"75","nom":"Nouvelle-Aquitaine"}},{"nom":"Bussière-Badil","code":"24071","codesPostaux":["24360"],"centre":{"type":"Point","coordinates":[0.5984,45.6415]},"surface":2059.09,"population":373,"departement":{"code":"24","nom":"Dordogne"},"region":{"code":"75","nom":"Nouvelle-Aquitaine"}},{"nom":"Calès","code":"24073","codesPostaux":["24150"],"centre":{"type":"Point","coordinates":[0.8156,44.86]},"surface":805.64,"population":376,"departement":{"code":"24","nom":"Dordogne"},"region":{"code":"75","nom":"Nouvelle-Aquitaine"}},{"nom":"Calviac-en-Périgord","code":"24074","codesPostaux":["24370"],"centre":{"type":"Point","coordinates":[1.3232,44.8612]},"surface":1442.78,"population":531,"departement":{"code":"24","nom":"Dordogne"},"region":{"code":"75","nom":"Nouvelle-Aquitaine"}},{"nom":"Campagnac-lès-Quercy","code":"24075","codesPostaux":["24550"],"centre":{"type":"Point","coordinates":[1.1809,44.6979]},"surface":2014.43,"population":324,"departement":{"code":"24","nom":"Dordogne"},"region":{"code":"75","nom":"Nouvelle-Aquitaine"}},{"nom":"Campagne","code":"24076","codesPostaux":["24260"],"centre":{"type":"Point","coordinates":[0.9706,44.8999]},"surface":1516.75,"population":417,"departement":{"code":"24","nom":"Dordogne"},"region":{"code":"75","nom":"Nouvelle-Aquitaine"}},{"nom":"Campsegret","code":"24077","codesPostaux":["24140"],"centre":{"type":"Point","coordinates":[0.5631,44.9432]},"surface":1390.41,"population":390,"departement":{"code":"24","nom":"Dordogne"},"region":{"code":"75","nom":"Nouvelle-Aquitaine"}},{"nom":"Capdrot","code":"24080","codesPostaux":["24540"],"centre":{"type":"Point","coordinates":[0.9427,44.6802]},"surface":4403.26,"population":461,"departement":{"code":"24","nom":"Dordogne"},"region":{"code":"75","nom":"Nouvelle-Aquitaine"}},{"nom":"Carlux","code":"24081","codesPostaux":["24370"],"centre":{"type":"Point","coordinates":[1.3614,44.8867]},"surface":1324.87,"population":640,"departement":{"code":"24","nom":"Dordogne"},"region":{"code":"75","nom":"Nouvelle-Aquitaine"}},{"nom":"Carsac-Aillac","code":"24082","codesPostaux":["24200"],"centre":{"type":"Point","coordinates":[1.2798,44.8544]},"surface":1727.63,"population":1541,"departement":{"code":"24","nom":"Dordogne"},"region":{"code":"75","nom":"Nouvelle-Aquitaine"}},{"nom":"Carsac-de-Gurson","code":"24083","codesPostaux":["24610"],"centre":{"type":"Point","coordinates":[0.0982,44.9451]},"surface":711.68,"population":182,"departement":{"code":"24","nom":"Dordogne"},"region":{"code":"75","nom":"Nouvelle-Aquitaine"}},{"nom":"Carves","code":"24084","codesPostaux":["24170"],"centre":{"type":"Point","coordinates":[1.0609,44.7831]},"surface":1045.12,"population":103,"departement":{"code":"24","nom":"Dordogne"},"region":{"code":"75","nom":"Nouvelle-Aquitaine"}},{"nom":"La Cassagne","code":"24085","codesPostaux":["24120"],"centre":{"type":"Point","coordinates":[1.3065,45.0562]},"surface":1518.7,"population":153,"departement":{"code":"24","nom":"Dordogne"},"region":{"code":"75","nom":"Nouvelle-Aquitaine"}},{"nom":"Castelnaud-la-Chapelle","code":"24086","codesPostaux":["24250"],"centre":{"type":"Point","coordinates":[1.1292,44.802]},"surface":2102.93,"population":447,"departement":{"code":"24","nom":"Dordogne"},"region":{"code":"75","nom":"Nouvelle-Aquitaine"}},{"nom":"Castels et Bézenac","code":"24087","codesPostaux":["24220"],"centre":{"type":"Point","coordinates":[1.0841,44.8647]},"surface":2462.15,"population":808,"departement":{"code":"24","nom":"Dordogne"},"region":{"code":"75","nom":"Nouvelle-Aquitaine"}},{"nom":"Cause-de-Clérans","code":"24088","codesPostaux":["24150"],"centre":{"type":"Point","coordinates":[0.6699,44.8766]},"surface":1450.28,"population":341,"departement":{"code":"24","nom":"Dordogne"},"region":{"code":"75","nom":"Nouvelle-Aquitaine"}},{"nom":"Celles","code":"24090","codesPostaux":["24600"],"centre":{"type":"Point","coordinates":[0.4129,45.2896]},"surface":2798.12,"population":602,"departement":{"code":"24","nom":"Dordogne"},"region":{"code":"75","nom":"Nouvelle-Aquitaine"}},{"nom":"Cénac-et-Saint-Julien","code":"24091","codesPostaux":["24250"],"centre":{"type":"Point","coordinates":[1.2121,44.7904]},"surface":2061.46,"population":1194,"departement":{"code":"24","nom":"Dordogne"},"region":{"code":"75","nom":"Nouvelle-Aquitaine"}},{"nom":"Chalagnac","code":"24094","codesPostaux":["24380"],"centre":{"type":"Point","coordinates":[0.682,45.092]},"surface":1458.66,"population":442,"departement":{"code":"24","nom":"Dordogne"},"region":{"code":"75","nom":"Nouvelle-Aquitaine"}},{"nom":"Chalais","code":"24095","codesPostaux":["24800"],"centre":{"type":"Point","coordinates":[0.9379,45.5044]},"surface":1913.79,"population":404,"departement":{"code":"24","nom":"Dordogne"},"region":{"code":"75","nom":"Nouvelle-Aquitaine"}},{"nom":"Champagnac-de-Belair","code":"24096","codesPostaux":["24530"],"centre":{"type":"Point","coordinates":[0.6987,45.3982]},"surface":1923.67,"population":782,"departement":{"code":"24","nom":"Dordogne"},"region":{"code":"75","nom":"Nouvelle-Aquitaine"}},{"nom":"Champagne-et-Fontaine","code":"24097","codesPostaux":["24320"],"centre":{"type":"Point","coordinates":[0.3376,45.4279]},"surface":2493.57,"population":347,"departement":{"code":"24","nom":"Dordogne"},"region":{"code":"75","nom":"Nouvelle-Aquitaine"}},{"nom":"Champcevinel","code":"24098","codesPostaux":["24750"],"centre":{"type":"Point","coordinates":[0.7227,45.2198]},"surface":1834.94,"population":3029,"departement":{"code":"24","nom":"Dordogne"},"region":{"code":"75","nom":"Nouvelle-Aquitaine"}},{"nom":"Champniers-et-Reilhac","code":"24100","codesPostaux":["24360"],"centre":{"type":"Point","coordinates":[0.7275,45.6703]},"surface":2117.83,"population":482,"departement":{"code":"24","nom":"Dordogne"},"region":{"code":"75","nom":"Nouvelle-Aquitaine"}},{"nom":"Champs-Romain","code":"24101","codesPostaux":["24470"],"centre":{"type":"Point","coordinates":[0.7633,45.5434]},"surface":2090.46,"population":283,"departement":{"code":"24","nom":"Dordogne"},"region":{"code":"75","nom":"Nouvelle-Aquitaine"}},{"nom":"Chancelade","code":"24102","codesPostaux":["24650"],"centre":{"type":"Point","coordinates":[0.6539,45.2107]},"surface":1697.39,"population":4435,"departement":{"code":"24","nom":"Dordogne"},"region":{"code":"75","nom":"Nouvelle-Aquitaine"}},{"nom":"Chantérac","code":"24104","codesPostaux":["24190"],"centre":{"type":"Point","coordinates":[0.4349,45.1711]},"surface":1903.73,"population":627,"departement":{"code":"24","nom":"Dordogne"},"region":{"code":"75","nom":"Nouvelle-Aquitaine"}},{"nom":"Chapdeuil","code":"24105","codesPostaux":["24320"],"centre":{"type":"Point","coordinates":[0.4638,45.3406]},"surface":757.57,"population":138,"departement":{"code":"24","nom":"Dordogne"},"region":{"code":"75","nom":"Nouvelle-Aquitaine"}},{"nom":"La Chapelle-Aubareil","code":"24106","codesPostaux":["24290"],"centre":{"type":"Point","coordinates":[1.1897,45.0042]},"surface":2034.66,"population":538,"departement":{"code":"24","nom":"Dordogne"},"region":{"code":"75","nom":"Nouvelle-Aquitaine"}},{"nom":"La Chapelle-Faucher","code":"24107","codesPostaux":["24530"],"centre":{"type":"Point","coordinates":[0.7622,45.3759]},"surface":1924.96,"population":390,"departement":{"code":"24","nom":"Dordogne"},"region":{"code":"75","nom":"Nouvelle-Aquitaine"}},{"nom":"La Chapelle-Gonaguet","code":"24108","codesPostaux":["24350"],"centre":{"type":"Point","coordinates":[0.6187,45.2297]},"surface":1970.7,"population":1067,"departement":{"code":"24","nom":"Dordogne"},"region":{"code":"75","nom":"Nouvelle-Aquitaine"}},{"nom":"La Chapelle-Grésignac","code":"24109","codesPostaux":["24320"],"centre":{"type":"Point","coordinates":[0.3387,45.392]},"surface":702.52,"population":103,"departement":{"code":"24","nom":"Dordogne"},"region":{"code":"75","nom":"Nouvelle-Aquitaine"}},{"nom":"La Chapelle-Montabourlet","code":"24110","codesPostaux":["24320"],"centre":{"type":"Point","coordinates":[0.4587,45.3931]},"surface":580.2,"population":59,"departement":{"code":"24","nom":"Dordogne"},"region":{"code":"75","nom":"Nouvelle-Aquitaine"}},{"nom":"La Chapelle-Montmoreau","code":"24111","codesPostaux":["24300"],"centre":{"type":"Point","coordinates":[0.6411,45.4487]},"surface":833.72,"population":74,"departement":{"code":"24","nom":"Dordogne"},"region":{"code":"75","nom":"Nouvelle-Aquitaine"}},{"nom":"La Chapelle-Saint-Jean","code":"24113","codesPostaux":["24390"],"centre":{"type":"Point","coordinates":[1.1661,45.1943]},"surface":386.74,"population":86,"departement":{"code":"24","nom":"Dordogne"},"region":{"code":"75","nom":"Nouvelle-Aquitaine"}},{"nom":"Chassaignes","code":"24114","codesPostaux":["24600"],"centre":{"type":"Point","coordinates":[0.253,45.2569]},"surface":588.2,"population":69,"departement":{"code":"24","nom":"Dordogne"},"region":{"code":"75","nom":"Nouvelle-Aquitaine"}},{"nom":"Château-l'Évêque","code":"24115","codesPostaux":["24460"],"centre":{"type":"Point","coordinates":[0.6868,45.2555]},"surface":3723.05,"population":2151,"departement":{"code":"24","nom":"Dordogne"},"region":{"code":"75","nom":"Nouvelle-Aquitaine"}},{"nom":"Châtres","code":"24116","codesPostaux":["24120"],"centre":{"type":"Point","coordinates":[1.1959,45.1859]},"surface":1257.41,"population":182,"departement":{"code":"24","nom":"Dordogne"},"region":{"code":"75","nom":"Nouvelle-Aquitaine"}},{"nom":"Les Coteaux Périgourdins","code":"24117","codesPostaux":["24120"],"centre":{"type":"Point","coordinates":[1.3646,45.092]},"surface":2006.76,"population":556,"departement":{"code":"24","nom":"Dordogne"},"region":{"code":"75","nom":"Nouvelle-Aquitaine"}},{"nom":"Cherval","code":"24119","codesPostaux":["24320"],"centre":{"type":"Point","coordinates":[0.3896,45.3903]},"surface":1889.99,"population":231,"departement":{"code":"24","nom":"Dordogne"},"region":{"code":"75","nom":"Nouvelle-Aquitaine"}},{"nom":"Cherveix-Cubas","code":"24120","codesPostaux":["24390"],"centre":{"type":"Point","coordinates":[1.1163,45.2891]},"surface":1486,"population":555,"departement":{"code":"24","nom":"Dordogne"},"region":{"code":"75","nom":"Nouvelle-Aquitaine"}},{"nom":"Chourgnac","code":"24121","codesPostaux":["24640"],"centre":{"type":"Point","coordinates":[1.0542,45.2336]},"surface":713.64,"population":66,"departement":{"code":"24","nom":"Dordogne"},"region":{"code":"75","nom":"Nouvelle-Aquitaine"}},{"nom":"Cladech","code":"24122","codesPostaux":["24170"],"centre":{"type":"Point","coordinates":[1.0755,44.8094]},"surface":563.33,"population":95,"departement":{"code":"24","nom":"Dordogne"},"region":{"code":"75","nom":"Nouvelle-Aquitaine"}},{"nom":"Clermont-de-Beauregard","code":"24123","codesPostaux":["24140"],"centre":{"type":"Point","coordinates":[0.6461,44.9484]},"surface":627.29,"population":122,"departement":{"code":"24","nom":"Dordogne"},"region":{"code":"75","nom":"Nouvelle-Aquitaine"}},{"nom":"Clermont-d'Excideuil","code":"24124","codesPostaux":["24160"],"centre":{"type":"Point","coordinates":[1.0475,45.3631]},"surface":1043.89,"population":241,"departement":{"code":"24","nom":"Dordogne"},"region":{"code":"75","nom":"Nouvelle-Aquitaine"}},{"nom":"Colombier","code":"24126","codesPostaux":["24560"],"centre":{"type":"Point","coordinates":[0.5174,44.7866]},"surface":709.65,"population":274,"departement":{"code":"24","nom":"Dordogne"},"region":{"code":"75","nom":"Nouvelle-Aquitaine"}},{"nom":"Comberanche-et-Épeluche","code":"24128","codesPostaux":["24600"],"centre":{"type":"Point","coordinates":[0.281,45.278]},"surface":393.14,"population":164,"departement":{"code":"24","nom":"Dordogne"},"region":{"code":"75","nom":"Nouvelle-Aquitaine"}},{"nom":"Condat-sur-Trincou","code":"24129","codesPostaux":["24530"],"centre":{"type":"Point","coordinates":[0.7144,45.3653]},"surface":1725.9,"population":486,"departement":{"code":"24","nom":"Dordogne"},"region":{"code":"75","nom":"Nouvelle-Aquitaine"}},{"nom":"Condat-sur-Vézère","code":"24130","codesPostaux":["24570"],"centre":{"type":"Point","coordinates":[1.2278,45.1067]},"surface":1649.91,"population":871,"departement":{"code":"24","nom":"Dordogne"},"region":{"code":"75","nom":"Nouvelle-Aquitaine"}},{"nom":"Connezac","code":"24131","codesPostaux":["24300"],"centre":{"type":"Point","coordinates":[0.5312,45.5135]},"surface":603.71,"population":73,"departement":{"code":"24","nom":"Dordogne"},"region":{"code":"75","nom":"Nouvelle-Aquitaine"}},{"nom":"Conne-de-Labarde","code":"24132","codesPostaux":["24560"],"centre":{"type":"Point","coordinates":[0.5585,44.7812]},"surface":1022.6,"population":262,"departement":{"code":"24","nom":"Dordogne"},"region":{"code":"75","nom":"Nouvelle-Aquitaine"}},{"nom":"La Coquille","code":"24133","codesPostaux":["24450"],"centre":{"type":"Point","coordinates":[0.963,45.5452]},"surface":2297.78,"population":1261,"departement":{"code":"24","nom":"Dordogne"},"region":{"code":"75","nom":"Nouvelle-Aquitaine"}},{"nom":"Corgnac-sur-l'Isle","code":"24134","codesPostaux":["24800"],"centre":{"type":"Point","coordinates":[0.9468,45.3737]},"surface":2159.37,"population":854,"departement":{"code":"24","nom":"Dordogne"},"region":{"code":"75","nom":"Nouvelle-Aquitaine"}},{"nom":"Cornille","code":"24135","codesPostaux":["24750"],"centre":{"type":"Point","coordinates":[0.7818,45.2443]},"surface":1341.04,"population":690,"departement":{"code":"24","nom":"Dordogne"},"region":{"code":"75","nom":"Nouvelle-Aquitaine"}},{"nom":"Coubjours","code":"24136","codesPostaux":["24390"],"centre":{"type":"Point","coordinates":[1.2548,45.2414]},"surface":985.28,"population":111,"departement":{"code":"24","nom":"Dordogne"},"region":{"code":"75","nom":"Nouvelle-Aquitaine"}},{"nom":"Coulaures","code":"24137","codesPostaux":["24420"],"centre":{"type":"Point","coordinates":[0.9743,45.2989]},"surface":3013.97,"population":731,"departement":{"code":"24","nom":"Dordogne"},"region":{"code":"75","nom":"Nouvelle-Aquitaine"}},{"nom":"Coulounieix-Chamiers","code":"24138","codesPostaux":["24660"],"centre":{"type":"Point","coordinates":[0.6861,45.1712]},"surface":2161.69,"population":7245,"departement":{"code":"24","nom":"Dordogne"},"region":{"code":"75","nom":"Nouvelle-Aquitaine"}},{"nom":"Coursac","code":"24139","codesPostaux":["24430"],"centre":{"type":"Point","coordinates":[0.645,45.131]},"surface":2529.91,"population":2284,"departement":{"code":"24","nom":"Dordogne"},"region":{"code":"75","nom":"Nouvelle-Aquitaine"}},{"nom":"Cours-de-Pile","code":"24140","codesPostaux":["24520"],"centre":{"type":"Point","coordinates":[0.5512,44.835]},"surface":1092.86,"population":1548,"departement":{"code":"24","nom":"Dordogne"},"region":{"code":"75","nom":"Nouvelle-Aquitaine"}},{"nom":"Coutures","code":"24141","codesPostaux":["24320"],"centre":{"type":"Point","coordinates":[0.3979,45.3269]},"surface":857.88,"population":193,"departement":{"code":"24","nom":"Dordogne"},"region":{"code":"75","nom":"Nouvelle-Aquitaine"}},{"nom":"Coux et Bigaroque-Mouzens","code":"24142","codesPostaux":["24220"],"centre":{"type":"Point","coordinates":[0.9695,44.8501]},"surface":2769.49,"population":1223,"departement":{"code":"24","nom":"Dordogne"},"region":{"code":"75","nom":"Nouvelle-Aquitaine"}},{"nom":"Couze-et-Saint-Front","code":"24143","codesPostaux":["24150"],"centre":{"type":"Point","coordinates":[0.725,44.8234]},"surface":825.97,"population":722,"departement":{"code":"24","nom":"Dordogne"},"region":{"code":"75","nom":"Nouvelle-Aquitaine"}},{"nom":"Creyssac","code":"24144","codesPostaux":["24350"],"centre":{"type":"Point","coordinates":[0.5515,45.3127]},"surface":463.02,"population":101,"departement":{"code":"24","nom":"Dordogne"},"region":{"code":"75","nom":"Nouvelle-Aquitaine"}},{"nom":"Creysse","code":"24145","codesPostaux":["24100"],"centre":{"type":"Point","coordinates":[0.5555,44.8651]},"surface":1109.33,"population":1747,"departement":{"code":"24","nom":"Dordogne"},"region":{"code":"75","nom":"Nouvelle-Aquitaine"}},{"nom":"Creyssensac-et-Pissot","code":"24146","codesPostaux":["24380"],"centre":{"type":"Point","coordinates":[0.6688,45.0718]},"surface":887.39,"population":259,"departement":{"code":"24","nom":"Dordogne"},"region":{"code":"75","nom":"Nouvelle-Aquitaine"}},{"nom":"Cubjac-Auvézère-Val d'Ans","code":"24147","codesPostaux":["24640"],"centre":{"type":"Point","coordinates":[0.9623,45.2325]},"surface":4083.83,"population":1104,"departement":{"code":"24","nom":"Dordogne"},"region":{"code":"75","nom":"Nouvelle-Aquitaine"}},{"nom":"Cunèges","code":"24148","codesPostaux":["24240"],"centre":{"type":"Point","coordinates":[0.3773,44.7818]},"surface":605.87,"population":305,"departement":{"code":"24","nom":"Dordogne"},"region":{"code":"75","nom":"Nouvelle-Aquitaine"}},{"nom":"Daglan","code":"24150","codesPostaux":["24250"],"centre":{"type":"Point","coordinates":[1.1896,44.7453]},"surface":2070.06,"population":541,"departement":{"code":"24","nom":"Dordogne"},"region":{"code":"75","nom":"Nouvelle-Aquitaine"}},{"nom":"Doissat","code":"24151","codesPostaux":["24170"],"centre":{"type":"Point","coordinates":[1.0794,44.7196]},"surface":1571.71,"population":102,"departement":{"code":"24","nom":"Dordogne"},"region":{"code":"75","nom":"Nouvelle-Aquitaine"}},{"nom":"Domme","code":"24152","codesPostaux":["24250"],"centre":{"type":"Point","coordinates":[1.2424,44.8091]},"surface":2485.37,"population":902,"departement":{"code":"24","nom":"Dordogne"},"region":{"code":"75","nom":"Nouvelle-Aquitaine"}},{"nom":"La Dornac","code":"24153","codesPostaux":["24120"],"centre":{"type":"Point","coordinates":[1.3421,45.0717]},"surface":1623.07,"population":401,"departement":{"code":"24","nom":"Dordogne"},"region":{"code":"75","nom":"Nouvelle-Aquitaine"}},{"nom":"Douchapt","code":"24154","codesPostaux":["24350"],"centre":{"type":"Point","coordinates":[0.4451,45.2296]},"surface":849.42,"population":346,"departement":{"code":"24","nom":"Dordogne"},"region":{"code":"75","nom":"Nouvelle-Aquitaine"}},{"nom":"Douville","code":"24155","codesPostaux":["24140"],"centre":{"type":"Point","coordinates":[0.594,44.9982]},"surface":1987.95,"population":459,"departement":{"code":"24","nom":"Dordogne"},"region":{"code":"75","nom":"Nouvelle-Aquitaine"}},{"nom":"La Douze","code":"24156","codesPostaux":["24330"],"centre":{"type":"Point","coordinates":[0.8554,45.0707]},"surface":2392.15,"population":1155,"departement":{"code":"24","nom":"Dordogne"},"region":{"code":"75","nom":"Nouvelle-Aquitaine"}},{"nom":"Douzillac","code":"24157","codesPostaux":["24190"],"centre":{"type":"Point","coordinates":[0.4104,45.0936]},"surface":1713.92,"population":828,"departement":{"code":"24","nom":"Dordogne"},"region":{"code":"75","nom":"Nouvelle-Aquitaine"}},{"nom":"Dussac","code":"24158","codesPostaux":["24270"],"centre":{"type":"Point","coordinates":[1.0727,45.3905]},"surface":2064.33,"population":417,"departement":{"code":"24","nom":"Dordogne"},"region":{"code":"75","nom":"Nouvelle-Aquitaine"}},{"nom":"Échourgnac","code":"24159","codesPostaux":["24410"],"centre":{"type":"Point","coordinates":[0.2271,45.1336]},"surface":3479.66,"population":393,"departement":{"code":"24","nom":"Dordogne"},"region":{"code":"75","nom":"Nouvelle-Aquitaine"}},{"nom":"Église-Neuve-de-Vergt","code":"24160","codesPostaux":["24380"],"centre":{"type":"Point","coordinates":[0.732,45.0945]},"surface":770.25,"population":578,"departement":{"code":"24","nom":"Dordogne"},"region":{"code":"75","nom":"Nouvelle-Aquitaine"}},{"nom":"Église-Neuve-d'Issac","code":"24161","codesPostaux":["24400"],"centre":{"type":"Point","coordinates":[0.432,44.9794]},"surface":1675.84,"population":123,"departement":{"code":"24","nom":"Dordogne"},"region":{"code":"75","nom":"Nouvelle-Aquitaine"}},{"nom":"Escoire","code":"24162","codesPostaux":["24420"],"centre":{"type":"Point","coordinates":[0.8542,45.2067]},"surface":393.09,"population":396,"departement":{"code":"24","nom":"Dordogne"},"region":{"code":"75","nom":"Nouvelle-Aquitaine"}},{"nom":"Étouars","code":"24163","codesPostaux":["24360"],"centre":{"type":"Point","coordinates":[0.6148,45.6087]},"surface":811.9,"population":163,"departement":{"code":"24","nom":"Dordogne"},"region":{"code":"75","nom":"Nouvelle-Aquitaine"}},{"nom":"Excideuil","code":"24164","codesPostaux":["24160"],"centre":{"type":"Point","coordinates":[1.0602,45.3296]},"surface":522.68,"population":1186,"departement":{"code":"24","nom":"Dordogne"},"region":{"code":"75","nom":"Nouvelle-Aquitaine"}},{"nom":"Eygurande-et-Gardedeuil","code":"24165","codesPostaux":["24700"],"centre":{"type":"Point","coordinates":[0.1167,45.0788]},"surface":3614.54,"population":410,"departement":{"code":"24","nom":"Dordogne"},"region":{"code":"75","nom":"Nouvelle-Aquitaine"}},{"nom":"Eymet","code":"24167","codesPostaux":["24500"],"centre":{"type":"Point","coordinates":[0.4001,44.6762]},"surface":3135.21,"population":2535,"departement":{"code":"24","nom":"Dordogne"},"region":{"code":"75","nom":"Nouvelle-Aquitaine"}},{"nom":"Plaisance","code":"24168","codesPostaux":["24560"],"centre":{"type":"Point","coordinates":[0.5596,44.6962]},"surface":2521.35,"population":417,"departement":{"code":"24","nom":"Dordogne"},"region":{"code":"75","nom":"Nouvelle-Aquitaine"}},{"nom":"Eyzerac","code":"24171","codesPostaux":["24800"],"centre":{"type":"Point","coordinates":[0.9026,45.3885]},"surface":1155.15,"population":553,"departement":{"code":"24","nom":"Dordogne"},"region":{"code":"75","nom":"Nouvelle-Aquitaine"}},{"nom":"Les Eyzies","code":"24172","codesPostaux":["24260","24620"],"centre":{"type":"Point","coordinates":[1.0352,44.9396]},"surface":5567.38,"population":1121,"departement":{"code":"24","nom":"Dordogne"},"region":{"code":"75","nom":"Nouvelle-Aquitaine"}},{"nom":"Fanlac","code":"24174","codesPostaux":["24290"],"centre":{"type":"Point","coordinates":[1.0944,45.0731]},"surface":1464.82,"population":140,"departement":{"code":"24","nom":"Dordogne"},"region":{"code":"75","nom":"Nouvelle-Aquitaine"}},{"nom":"Les Farges","code":"24175","codesPostaux":["24290"],"centre":{"type":"Point","coordinates":[1.1954,45.1144]},"surface":796.68,"population":304,"departement":{"code":"24","nom":"Dordogne"},"region":{"code":"75","nom":"Nouvelle-Aquitaine"}},{"nom":"Faurilles","code":"24176","codesPostaux":["24560"],"centre":{"type":"Point","coordinates":[0.6866,44.7024]},"surface":436.83,"population":35,"departement":{"code":"24","nom":"Dordogne"},"region":{"code":"75","nom":"Nouvelle-Aquitaine"}},{"nom":"Faux","code":"24177","codesPostaux":["24560"],"centre":{"type":"Point","coordinates":[0.6463,44.7853]},"surface":1612.11,"population":661,"departement":{"code":"24","nom":"Dordogne"},"region":{"code":"75","nom":"Nouvelle-Aquitaine"}},{"nom":"La Feuillade","code":"24179","codesPostaux":["24120"],"centre":{"type":"Point","coordinates":[1.3956,45.1168]},"surface":401.6,"population":788,"departement":{"code":"24","nom":"Dordogne"},"region":{"code":"75","nom":"Nouvelle-Aquitaine"}},{"nom":"Firbeix","code":"24180","codesPostaux":["24450"],"centre":{"type":"Point","coordinates":[0.9438,45.5915]},"surface":2316.42,"population":305,"departement":{"code":"24","nom":"Dordogne"},"region":{"code":"75","nom":"Nouvelle-Aquitaine"}},{"nom":"Le Fleix","code":"24182","codesPostaux":["24130"],"centre":{"type":"Point","coordinates":[0.2643,44.8789]},"surface":1797.47,"population":1493,"departement":{"code":"24","nom":"Dordogne"},"region":{"code":"75","nom":"Nouvelle-Aquitaine"}},{"nom":"Fleurac","code":"24183","codesPostaux":["24580"],"centre":{"type":"Point","coordinates":[1.0086,44.9981]},"surface":2279.91,"population":309,"departement":{"code":"24","nom":"Dordogne"},"region":{"code":"75","nom":"Nouvelle-Aquitaine"}},{"nom":"Florimont-Gaumier","code":"24184","codesPostaux":["24250"],"centre":{"type":"Point","coordinates":[1.241,44.7084]},"surface":938.32,"population":156,"departement":{"code":"24","nom":"Dordogne"},"region":{"code":"75","nom":"Nouvelle-Aquitaine"}},{"nom":"Fonroque","code":"24186","codesPostaux":["24500"],"centre":{"type":"Point","coordinates":[0.4077,44.7019]},"surface":904.86,"population":331,"departement":{"code":"24","nom":"Dordogne"},"region":{"code":"75","nom":"Nouvelle-Aquitaine"}},{"nom":"Fossemagne","code":"24188","codesPostaux":["24210"],"centre":{"type":"Point","coordinates":[0.9868,45.1172]},"surface":2253.67,"population":548,"departement":{"code":"24","nom":"Dordogne"},"region":{"code":"75","nom":"Nouvelle-Aquitaine"}},{"nom":"Fougueyrolles","code":"24189","codesPostaux":["33220"],"centre":{"type":"Point","coordinates":[0.1892,44.8691]},"surface":1160.82,"population":448,"departement":{"code":"24","nom":"Dordogne"},"region":{"code":"75","nom":"Nouvelle-Aquitaine"}},{"nom":"Fouleix","code":"24190","codesPostaux":["24380"],"centre":{"type":"Point","coordinates":[0.6738,44.9762]},"surface":1127.67,"population":269,"departement":{"code":"24","nom":"Dordogne"},"region":{"code":"75","nom":"Nouvelle-Aquitaine"}},{"nom":"Fraisse","code":"24191","codesPostaux":["24130"],"centre":{"type":"Point","coordinates":[0.3028,44.9337]},"surface":2149.66,"population":175,"departement":{"code":"24","nom":"Dordogne"},"region":{"code":"75","nom":"Nouvelle-Aquitaine"}},{"nom":"Gabillou","code":"24192","codesPostaux":["24210"],"centre":{"type":"Point","coordinates":[1.0315,45.2048]},"surface":813.32,"population":95,"departement":{"code":"24","nom":"Dordogne"},"region":{"code":"75","nom":"Nouvelle-Aquitaine"}},{"nom":"Gageac-et-Rouillac","code":"24193","codesPostaux":["24240"],"centre":{"type":"Point","coordinates":[0.3624,44.8015]},"surface":1412.4,"population":459,"departement":{"code":"24","nom":"Dordogne"},"region":{"code":"75","nom":"Nouvelle-Aquitaine"}},{"nom":"Gardonne","code":"24194","codesPostaux":["24680"],"centre":{"type":"Point","coordinates":[0.3296,44.8293]},"surface":833.3,"population":1590,"departement":{"code":"24","nom":"Dordogne"},"region":{"code":"75","nom":"Nouvelle-Aquitaine"}},{"nom":"Gaugeac","code":"24195","codesPostaux":["24540"],"centre":{"type":"Point","coordinates":[0.8755,44.6651]},"surface":1024.58,"population":107,"departement":{"code":"24","nom":"Dordogne"},"region":{"code":"75","nom":"Nouvelle-Aquitaine"}},{"nom":"Génis","code":"24196","codesPostaux":["24160"],"centre":{"type":"Point","coordinates":[1.165,45.331]},"surface":2701.33,"population":498,"departement":{"code":"24","nom":"Dordogne"},"region":{"code":"75","nom":"Nouvelle-Aquitaine"}},{"nom":"Ginestet","code":"24197","codesPostaux":["24130"],"centre":{"type":"Point","coordinates":[0.4467,44.9064]},"surface":1298.69,"population":746,"departement":{"code":"24","nom":"Dordogne"},"region":{"code":"75","nom":"Nouvelle-Aquitaine"}},{"nom":"Gout-Rossignol","code":"24199","codesPostaux":["24320"],"centre":{"type":"Point","coordinates":[0.4114,45.4154]},"surface":2496.28,"population":365,"departement":{"code":"24","nom":"Dordogne"},"region":{"code":"75","nom":"Nouvelle-Aquitaine"}},{"nom":"Grand-Brassac","code":"24200","codesPostaux":["24350"],"centre":{"type":"Point","coordinates":[0.4841,45.298]},"surface":3179.91,"population":538,"departement":{"code":"24","nom":"Dordogne"},"region":{"code":"75","nom":"Nouvelle-Aquitaine"}},{"nom":"Granges-d'Ans","code":"24202","codesPostaux":["24390"],"centre":{"type":"Point","coordinates":[1.1164,45.2134]},"surface":1216.02,"population":145,"departement":{"code":"24","nom":"Dordogne"},"region":{"code":"75","nom":"Nouvelle-Aquitaine"}},{"nom":"Grignols","code":"24205","codesPostaux":["24110"],"centre":{"type":"Point","coordinates":[0.5359,45.0827]},"surface":2107.61,"population":667,"departement":{"code":"24","nom":"Dordogne"},"region":{"code":"75","nom":"Nouvelle-Aquitaine"}},{"nom":"Grives","code":"24206","codesPostaux":["24170"],"centre":{"type":"Point","coordinates":[1.0744,44.7632]},"surface":829.92,"population":107,"departement":{"code":"24","nom":"Dordogne"},"region":{"code":"75","nom":"Nouvelle-Aquitaine"}},{"nom":"Groléjac","code":"24207","codesPostaux":["24250"],"centre":{"type":"Point","coordinates":[1.2947,44.8111]},"surface":1236.02,"population":664,"departement":{"code":"24","nom":"Dordogne"},"region":{"code":"75","nom":"Nouvelle-Aquitaine"}},{"nom":"Grun-Bordas","code":"24208","codesPostaux":["24380"],"centre":{"type":"Point","coordinates":[0.6468,45.0461]},"surface":1278.13,"population":244,"departement":{"code":"24","nom":"Dordogne"},"region":{"code":"75","nom":"Nouvelle-Aquitaine"}},{"nom":"Hautefaye","code":"24209","codesPostaux":["24300"],"centre":{"type":"Point","coordinates":[0.5063,45.5381]},"surface":1244.7,"population":134,"departement":{"code":"24","nom":"Dordogne"},"region":{"code":"75","nom":"Nouvelle-Aquitaine"}},{"nom":"Hautefort","code":"24210","codesPostaux":["24390"],"centre":{"type":"Point","coordinates":[1.1368,45.2598]},"surface":2663.84,"population":818,"departement":{"code":"24","nom":"Dordogne"},"region":{"code":"75","nom":"Nouvelle-Aquitaine"}},{"nom":"Issac","code":"24211","codesPostaux":["24400"],"centre":{"type":"Point","coordinates":[0.4506,45.0143]},"surface":2331.96,"population":429,"departement":{"code":"24","nom":"Dordogne"},"region":{"code":"75","nom":"Nouvelle-Aquitaine"}},{"nom":"Issigeac","code":"24212","codesPostaux":["24560"],"centre":{"type":"Point","coordinates":[0.6062,44.7297]},"surface":924.21,"population":746,"departement":{"code":"24","nom":"Dordogne"},"region":{"code":"75","nom":"Nouvelle-Aquitaine"}},{"nom":"Jaure","code":"24213","codesPostaux":["24140"],"centre":{"type":"Point","coordinates":[0.5555,45.0548]},"surface":775.3,"population":176,"departement":{"code":"24","nom":"Dordogne"},"region":{"code":"75","nom":"Nouvelle-Aquitaine"}},{"nom":"Javerlhac-et-la-Chapelle-Saint-Robert","code":"24214","codesPostaux":["24300"],"centre":{"type":"Point","coordinates":[0.5533,45.5587]},"surface":2914.56,"population":823,"departement":{"code":"24","nom":"Dordogne"},"region":{"code":"75","nom":"Nouvelle-Aquitaine"}},{"nom":"Jayac","code":"24215","codesPostaux":["24590"],"centre":{"type":"Point","coordinates":[1.3518,45.0293]},"surface":1821.69,"population":185,"departement":{"code":"24","nom":"Dordogne"},"region":{"code":"75","nom":"Nouvelle-Aquitaine"}},{"nom":"La Jemaye-Ponteyraud","code":"24216","codesPostaux":["24410"],"centre":{"type":"Point","coordinates":[0.2602,45.1666]},"surface":3349.93,"population":150,"departement":{"code":"24","nom":"Dordogne"},"region":{"code":"75","nom":"Nouvelle-Aquitaine"}},{"nom":"Journiac","code":"24217","codesPostaux":["24260"],"centre":{"type":"Point","coordinates":[0.8877,44.9676]},"surface":1951.95,"population":467,"departement":{"code":"24","nom":"Dordogne"},"region":{"code":"75","nom":"Nouvelle-Aquitaine"}},{"nom":"Jumilhac-le-Grand","code":"24218","codesPostaux":["24630"],"centre":{"type":"Point","coordinates":[1.0874,45.5032]},"surface":6816.09,"population":1140,"departement":{"code":"24","nom":"Dordogne"},"region":{"code":"75","nom":"Nouvelle-Aquitaine"}},{"nom":"Lacropte","code":"24220","codesPostaux":["24380"],"centre":{"type":"Point","coordinates":[0.8383,45.0515]},"surface":2706.44,"population":689,"departement":{"code":"24","nom":"Dordogne"},"region":{"code":"75","nom":"Nouvelle-Aquitaine"}},{"nom":"Rudeau-Ladosse","code":"24221","codesPostaux":["24340"],"centre":{"type":"Point","coordinates":[0.5277,45.4936]},"surface":1423.47,"population":156,"departement":{"code":"24","nom":"Dordogne"},"region":{"code":"75","nom":"Nouvelle-Aquitaine"}},{"nom":"La Force","code":"24222","codesPostaux":["24130"],"centre":{"type":"Point","coordinates":[0.358,44.8799]},"surface":1557.86,"population":2658,"departement":{"code":"24","nom":"Dordogne"},"region":{"code":"75","nom":"Nouvelle-Aquitaine"}},{"nom":"Lalinde","code":"24223","codesPostaux":["24150"],"centre":{"type":"Point","coordinates":[0.7442,44.858]},"surface":2771.41,"population":2881,"departement":{"code":"24","nom":"Dordogne"},"region":{"code":"75","nom":"Nouvelle-Aquitaine"}},{"nom":"Lamonzie-Montastruc","code":"24224","codesPostaux":["24520"],"centre":{"type":"Point","coordinates":[0.5884,44.9004]},"surface":2072.34,"population":692,"departement":{"code":"24","nom":"Dordogne"},"region":{"code":"75","nom":"Nouvelle-Aquitaine"}},{"nom":"Lamonzie-Saint-Martin","code":"24225","codesPostaux":["24680"],"centre":{"type":"Point","coordinates":[0.3856,44.8336]},"surface":2065.53,"population":2741,"departement":{"code":"24","nom":"Dordogne"},"region":{"code":"75","nom":"Nouvelle-Aquitaine"}},{"nom":"Lamothe-Montravel","code":"24226","codesPostaux":["24230"],"centre":{"type":"Point","coordinates":[0.0094,44.8466]},"surface":1272.16,"population":1410,"departement":{"code":"24","nom":"Dordogne"},"region":{"code":"75","nom":"Nouvelle-Aquitaine"}},{"nom":"Lanouaille","code":"24227","codesPostaux":["24270"],"centre":{"type":"Point","coordinates":[1.1318,45.3789]},"surface":2447.09,"population":948,"departement":{"code":"24","nom":"Dordogne"},"region":{"code":"75","nom":"Nouvelle-Aquitaine"}},{"nom":"Lanquais","code":"24228","codesPostaux":["24150"],"centre":{"type":"Point","coordinates":[0.6709,44.816]},"surface":1470,"population":499,"departement":{"code":"24","nom":"Dordogne"},"region":{"code":"75","nom":"Nouvelle-Aquitaine"}},{"nom":"Le Lardin-Saint-Lazare","code":"24229","codesPostaux":["24570"],"centre":{"type":"Point","coordinates":[1.2282,45.1365]},"surface":1088.99,"population":1665,"departement":{"code":"24","nom":"Dordogne"},"region":{"code":"75","nom":"Nouvelle-Aquitaine"}},{"nom":"Larzac","code":"24230","codesPostaux":["24170"],"centre":{"type":"Point","coordinates":[0.9993,44.7392]},"surface":696.92,"population":150,"departement":{"code":"24","nom":"Dordogne"},"region":{"code":"75","nom":"Nouvelle-Aquitaine"}},{"nom":"Lavalade","code":"24231","codesPostaux":["24540"],"centre":{"type":"Point","coordinates":[0.8578,44.6952]},"surface":399.31,"population":103,"departement":{"code":"24","nom":"Dordogne"},"region":{"code":"75","nom":"Nouvelle-Aquitaine"}},{"nom":"Lavaur","code":"24232","codesPostaux":["24550"],"centre":{"type":"Point","coordinates":[1.0223,44.6263]},"surface":928.8,"population":76,"departement":{"code":"24","nom":"Dordogne"},"region":{"code":"75","nom":"Nouvelle-Aquitaine"}},{"nom":"Les Lèches","code":"24234","codesPostaux":["24400"],"centre":{"type":"Point","coordinates":[0.388,44.9798]},"surface":2141.62,"population":377,"departement":{"code":"24","nom":"Dordogne"},"region":{"code":"75","nom":"Nouvelle-Aquitaine"}},{"nom":"Léguillac-de-l'Auche","code":"24236","codesPostaux":["24110"],"centre":{"type":"Point","coordinates":[0.5546,45.1887]},"surface":1469.54,"population":981,"departement":{"code":"24","nom":"Dordogne"},"region":{"code":"75","nom":"Nouvelle-Aquitaine"}},{"nom":"Lembras","code":"24237","codesPostaux":["24100"],"centre":{"type":"Point","coordinates":[0.5295,44.8923]},"surface":1075.42,"population":1243,"departement":{"code":"24","nom":"Dordogne"},"region":{"code":"75","nom":"Nouvelle-Aquitaine"}},{"nom":"Lempzours","code":"24238","codesPostaux":["24800"],"centre":{"type":"Point","coordinates":[0.8279,45.3556]},"surface":1129.59,"population":133,"departement":{"code":"24","nom":"Dordogne"},"region":{"code":"75","nom":"Nouvelle-Aquitaine"}},{"nom":"Limeuil","code":"24240","codesPostaux":["24510"],"centre":{"type":"Point","coordinates":[0.8967,44.8924]},"surface":1045.46,"population":335,"departement":{"code":"24","nom":"Dordogne"},"region":{"code":"75","nom":"Nouvelle-Aquitaine"}},{"nom":"Limeyrat","code":"24241","codesPostaux":["24210"],"centre":{"type":"Point","coordinates":[0.9753,45.1659]},"surface":2012.65,"population":434,"departement":{"code":"24","nom":"Dordogne"},"region":{"code":"75","nom":"Nouvelle-Aquitaine"}},{"nom":"Liorac-sur-Louyre","code":"24242","codesPostaux":["24520"],"centre":{"type":"Point","coordinates":[0.641,44.8959]},"surface":2071.28,"population":260,"departement":{"code":"24","nom":"Dordogne"},"region":{"code":"75","nom":"Nouvelle-Aquitaine"}},{"nom":"Lisle","code":"24243","codesPostaux":["24350"],"centre":{"type":"Point","coordinates":[0.5571,45.2708]},"surface":1866.97,"population":823,"departement":{"code":"24","nom":"Dordogne"},"region":{"code":"75","nom":"Nouvelle-Aquitaine"}},{"nom":"Lolme","code":"24244","codesPostaux":["24540"],"centre":{"type":"Point","coordinates":[0.8444,44.7106]},"surface":702.11,"population":191,"departement":{"code":"24","nom":"Dordogne"},"region":{"code":"75","nom":"Nouvelle-Aquitaine"}},{"nom":"Loubejac","code":"24245","codesPostaux":["24550"],"centre":{"type":"Point","coordinates":[1.0705,44.6042]},"surface":1907.39,"population":258,"departement":{"code":"24","nom":"Dordogne"},"region":{"code":"75","nom":"Nouvelle-Aquitaine"}},{"nom":"Lunas","code":"24246","codesPostaux":["24130"],"centre":{"type":"Point","coordinates":[0.3997,44.9271]},"surface":1693.09,"population":432,"departement":{"code":"24","nom":"Dordogne"},"region":{"code":"75","nom":"Nouvelle-Aquitaine"}},{"nom":"Lusignac","code":"24247","codesPostaux":["24320"],"centre":{"type":"Point","coordinates":[0.3147,45.3245]},"surface":787.71,"population":162,"departement":{"code":"24","nom":"Dordogne"},"region":{"code":"75","nom":"Nouvelle-Aquitaine"}},{"nom":"Lussas-et-Nontronneau","code":"24248","codesPostaux":["24300"],"centre":{"type":"Point","coordinates":[0.5792,45.522]},"surface":2298.52,"population":287,"departement":{"code":"24","nom":"Dordogne"},"region":{"code":"75","nom":"Nouvelle-Aquitaine"}},{"nom":"Manzac-sur-Vern","code":"24251","codesPostaux":["24110"],"centre":{"type":"Point","coordinates":[0.5914,45.084]},"surface":2049.51,"population":547,"departement":{"code":"24","nom":"Dordogne"},"region":{"code":"75","nom":"Nouvelle-Aquitaine"}},{"nom":"Marcillac-Saint-Quentin","code":"24252","codesPostaux":["24200"],"centre":{"type":"Point","coordinates":[1.2024,44.9532]},"surface":1709.42,"population":829,"departement":{"code":"24","nom":"Dordogne"},"region":{"code":"75","nom":"Nouvelle-Aquitaine"}},{"nom":"Mareuil en Périgord","code":"24253","codesPostaux":["24340"],"centre":{"type":"Point","coordinates":[0.5107,45.4476]},"surface":15571.5,"population":2303,"departement":{"code":"24","nom":"Dordogne"},"region":{"code":"75","nom":"Nouvelle-Aquitaine"}},{"nom":"Marnac","code":"24254","codesPostaux":["24220"],"centre":{"type":"Point","coordinates":[1.029,44.8328]},"surface":800.22,"population":181,"departement":{"code":"24","nom":"Dordogne"},"region":{"code":"75","nom":"Nouvelle-Aquitaine"}},{"nom":"Marquay","code":"24255","codesPostaux":["24620"],"centre":{"type":"Point","coordinates":[1.1284,44.9417]},"surface":2501.5,"population":586,"departement":{"code":"24","nom":"Dordogne"},"region":{"code":"75","nom":"Nouvelle-Aquitaine"}},{"nom":"Marsac-sur-l'Isle","code":"24256","codesPostaux":["24430"],"centre":{"type":"Point","coordinates":[0.6475,45.1816]},"surface":1012.67,"population":3143,"departement":{"code":"24","nom":"Dordogne"},"region":{"code":"75","nom":"Nouvelle-Aquitaine"}},{"nom":"Marsalès","code":"24257","codesPostaux":["24540"],"centre":{"type":"Point","coordinates":[0.8933,44.6997]},"surface":948.78,"population":227,"departement":{"code":"24","nom":"Dordogne"},"region":{"code":"75","nom":"Nouvelle-Aquitaine"}},{"nom":"Eyraud-Crempse-Maurens","code":"24259","codesPostaux":["24130","24140"],"centre":{"type":"Point","coordinates":[0.4836,44.9355]},"surface":5061.24,"population":1629,"departement":{"code":"24","nom":"Dordogne"},"region":{"code":"75","nom":"Nouvelle-Aquitaine"}},{"nom":"Mauzac-et-Grand-Castang","code":"24260","codesPostaux":["24150"],"centre":{"type":"Point","coordinates":[0.7755,44.8782]},"surface":1587.93,"population":873,"departement":{"code":"24","nom":"Dordogne"},"region":{"code":"75","nom":"Nouvelle-Aquitaine"}},{"nom":"Mauzens-et-Miremont","code":"24261","codesPostaux":["24260"],"centre":{"type":"Point","coordinates":[0.9287,44.9901]},"surface":2040.09,"population":286,"departement":{"code":"24","nom":"Dordogne"},"region":{"code":"75","nom":"Nouvelle-Aquitaine"}},{"nom":"Mayac","code":"24262","codesPostaux":["24420"],"centre":{"type":"Point","coordinates":[0.9503,45.2788]},"surface":1171.01,"population":330,"departement":{"code":"24","nom":"Dordogne"},"region":{"code":"75","nom":"Nouvelle-Aquitaine"}},{"nom":"Mazeyrolles","code":"24263","codesPostaux":["24550"],"centre":{"type":"Point","coordinates":[0.996,44.6721]},"surface":3050.03,"population":304,"departement":{"code":"24","nom":"Dordogne"},"region":{"code":"75","nom":"Nouvelle-Aquitaine"}},{"nom":"Ménesplet","code":"24264","codesPostaux":["24700"],"centre":{"type":"Point","coordinates":[0.1047,45.0029]},"surface":1916.11,"population":1887,"departement":{"code":"24","nom":"Dordogne"},"region":{"code":"75","nom":"Nouvelle-Aquitaine"}},{"nom":"Mensignac","code":"24266","codesPostaux":["24350"],"centre":{"type":"Point","coordinates":[0.5569,45.2197]},"surface":2556.75,"population":1520,"departement":{"code":"24","nom":"Dordogne"},"region":{"code":"75","nom":"Nouvelle-Aquitaine"}},{"nom":"Mescoules","code":"24267","codesPostaux":["24240"],"centre":{"type":"Point","coordinates":[0.4246,44.7424]},"surface":485.66,"population":180,"departement":{"code":"24","nom":"Dordogne"},"region":{"code":"75","nom":"Nouvelle-Aquitaine"}},{"nom":"Meyrals","code":"24268","codesPostaux":["24220"],"centre":{"type":"Point","coordinates":[1.0665,44.9057]},"surface":1873.37,"population":693,"departement":{"code":"24","nom":"Dordogne"},"region":{"code":"75","nom":"Nouvelle-Aquitaine"}},{"nom":"Mialet","code":"24269","codesPostaux":["24450"],"centre":{"type":"Point","coordinates":[0.9007,45.5725]},"surface":3847.03,"population":633,"departement":{"code":"24","nom":"Dordogne"},"region":{"code":"75","nom":"Nouvelle-Aquitaine"}},{"nom":"Milhac-de-Nontron","code":"24271","codesPostaux":["24470"],"centre":{"type":"Point","coordinates":[0.7902,45.476]},"surface":3588.89,"population":495,"departement":{"code":"24","nom":"Dordogne"},"region":{"code":"75","nom":"Nouvelle-Aquitaine"}},{"nom":"Minzac","code":"24272","codesPostaux":["24610"],"centre":{"type":"Point","coordinates":[0.033,44.9609]},"surface":1611.49,"population":486,"departement":{"code":"24","nom":"Dordogne"},"region":{"code":"75","nom":"Nouvelle-Aquitaine"}},{"nom":"Molières","code":"24273","codesPostaux":["24480"],"centre":{"type":"Point","coordinates":[0.824,44.816]},"surface":2108.01,"population":344,"departement":{"code":"24","nom":"Dordogne"},"region":{"code":"75","nom":"Nouvelle-Aquitaine"}},{"nom":"Monbazillac","code":"24274","codesPostaux":["24240"],"centre":{"type":"Point","coordinates":[0.4791,44.7946]},"surface":1961.64,"population":810,"departement":{"code":"24","nom":"Dordogne"},"region":{"code":"75","nom":"Nouvelle-Aquitaine"}},{"nom":"Monestier","code":"24276","codesPostaux":["24240"],"centre":{"type":"Point","coordinates":[0.3194,44.7774]},"surface":1770.92,"population":409,"departement":{"code":"24","nom":"Dordogne"},"region":{"code":"75","nom":"Nouvelle-Aquitaine"}},{"nom":"Monfaucon","code":"24277","codesPostaux":["24130"],"centre":{"type":"Point","coordinates":[0.2588,44.9193]},"surface":2482.1,"population":288,"departement":{"code":"24","nom":"Dordogne"},"region":{"code":"75","nom":"Nouvelle-Aquitaine"}},{"nom":"Monmadalès","code":"24278","codesPostaux":["24560"],"centre":{"type":"Point","coordinates":[0.6164,44.7681]},"surface":507.51,"population":80,"departement":{"code":"24","nom":"Dordogne"},"region":{"code":"75","nom":"Nouvelle-Aquitaine"}},{"nom":"Monmarvès","code":"24279","codesPostaux":["24560"],"centre":{"type":"Point","coordinates":[0.6108,44.7049]},"surface":570.15,"population":62,"departement":{"code":"24","nom":"Dordogne"},"region":{"code":"75","nom":"Nouvelle-Aquitaine"}},{"nom":"Monpazier","code":"24280","codesPostaux":["24540"],"centre":{"type":"Point","coordinates":[0.8938,44.6811]},"surface":54.2,"population":447,"departement":{"code":"24","nom":"Dordogne"},"region":{"code":"75","nom":"Nouvelle-Aquitaine"}},{"nom":"Monsac","code":"24281","codesPostaux":["24440"],"centre":{"type":"Point","coordinates":[0.6963,44.778]},"surface":1087.18,"population":183,"departement":{"code":"24","nom":"Dordogne"},"region":{"code":"75","nom":"Nouvelle-Aquitaine"}},{"nom":"Monsaguel","code":"24282","codesPostaux":["24560"],"centre":{"type":"Point","coordinates":[0.573,44.7397]},"surface":1156.92,"population":139,"departement":{"code":"24","nom":"Dordogne"},"region":{"code":"75","nom":"Nouvelle-Aquitaine"}},{"nom":"Montagnac-d'Auberoche","code":"24284","codesPostaux":["24210"],"centre":{"type":"Point","coordinates":[0.9566,45.1875]},"surface":1025.96,"population":133,"departement":{"code":"24","nom":"Dordogne"},"region":{"code":"75","nom":"Nouvelle-Aquitaine"}},{"nom":"Montagnac-la-Crempse","code":"24285","codesPostaux":["24140"],"centre":{"type":"Point","coordinates":[0.5382,44.9797]},"surface":2555.33,"population":405,"departement":{"code":"24","nom":"Dordogne"},"region":{"code":"75","nom":"Nouvelle-Aquitaine"}},{"nom":"Montagrier","code":"24286","codesPostaux":["24350"],"centre":{"type":"Point","coordinates":[0.4857,45.2731]},"surface":1434.61,"population":501,"departement":{"code":"24","nom":"Dordogne"},"region":{"code":"75","nom":"Nouvelle-Aquitaine"}},{"nom":"Montaut","code":"24287","codesPostaux":["24560"],"centre":{"type":"Point","coordinates":[0.647,44.7505]},"surface":1639.13,"population":127,"departement":{"code":"24","nom":"Dordogne"},"region":{"code":"75","nom":"Nouvelle-Aquitaine"}},{"nom":"Montazeau","code":"24288","codesPostaux":["24230"],"centre":{"type":"Point","coordinates":[0.1299,44.9015]},"surface":1399.5,"population":281,"departement":{"code":"24","nom":"Dordogne"},"region":{"code":"75","nom":"Nouvelle-Aquitaine"}},{"nom":"Montcaret","code":"24289","codesPostaux":["24230"],"centre":{"type":"Point","coordinates":[0.0686,44.8656]},"surface":1772.95,"population":1429,"departement":{"code":"24","nom":"Dordogne"},"region":{"code":"75","nom":"Nouvelle-Aquitaine"}},{"nom":"Montferrand-du-Périgord","code":"24290","codesPostaux":["24440"],"centre":{"type":"Point","coordinates":[0.8738,44.7563]},"surface":1318.6,"population":154,"departement":{"code":"24","nom":"Dordogne"},"region":{"code":"75","nom":"Nouvelle-Aquitaine"}},{"nom":"Montignac-Lascaux","code":"24291","codesPostaux":["24290"],"centre":{"type":"Point","coordinates":[1.1589,45.0644]},"surface":3628.4,"population":2759,"departement":{"code":"24","nom":"Dordogne"},"region":{"code":"75","nom":"Nouvelle-Aquitaine"}},{"nom":"Montpeyroux","code":"24292","codesPostaux":["24610"],"centre":{"type":"Point","coordinates":[0.0651,44.9155]},"surface":2380.69,"population":487,"departement":{"code":"24","nom":"Dordogne"},"region":{"code":"75","nom":"Nouvelle-Aquitaine"}},{"nom":"Monplaisant","code":"24293","codesPostaux":["24170"],"centre":{"type":"Point","coordinates":[0.9932,44.7896]},"surface":557.44,"population":279,"departement":{"code":"24","nom":"Dordogne"},"region":{"code":"75","nom":"Nouvelle-Aquitaine"}},{"nom":"Montpon-Ménestérol","code":"24294","codesPostaux":["24700"],"centre":{"type":"Point","coordinates":[0.147,45.0163]},"surface":4664.38,"population":5834,"departement":{"code":"24","nom":"Dordogne"},"region":{"code":"75","nom":"Nouvelle-Aquitaine"}},{"nom":"Montrem","code":"24295","codesPostaux":["24110"],"centre":{"type":"Point","coordinates":[0.5818,45.1348]},"surface":2078.85,"population":1194,"departement":{"code":"24","nom":"Dordogne"},"region":{"code":"75","nom":"Nouvelle-Aquitaine"}},{"nom":"Mouleydier","code":"24296","codesPostaux":["24520"],"centre":{"type":"Point","coordinates":[0.6129,44.8612]},"surface":857.21,"population":1150,"departement":{"code":"24","nom":"Dordogne"},"region":{"code":"75","nom":"Nouvelle-Aquitaine"}},{"nom":"Moulin-Neuf","code":"24297","codesPostaux":["24700"],"centre":{"type":"Point","coordinates":[0.06,45.0011]},"surface":878.5,"population":948,"departement":{"code":"24","nom":"Dordogne"},"region":{"code":"75","nom":"Nouvelle-Aquitaine"}},{"nom":"Mussidan","code":"24299","codesPostaux":["24400"],"centre":{"type":"Point","coordinates":[0.3641,45.0298]},"surface":384.01,"population":2776,"departement":{"code":"24","nom":"Dordogne"},"region":{"code":"75","nom":"Nouvelle-Aquitaine"}},{"nom":"Nabirat","code":"24300","codesPostaux":["24250"],"centre":{"type":"Point","coordinates":[1.291,44.7667]},"surface":1687.2,"population":359,"departement":{"code":"24","nom":"Dordogne"},"region":{"code":"75","nom":"Nouvelle-Aquitaine"}},{"nom":"Nadaillac","code":"24301","codesPostaux":["24590"],"centre":{"type":"Point","coordinates":[1.4029,45.032]},"surface":2766.09,"population":379,"departement":{"code":"24","nom":"Dordogne"},"region":{"code":"75","nom":"Nouvelle-Aquitaine"}},{"nom":"Nailhac","code":"24302","codesPostaux":["24390"],"centre":{"type":"Point","coordinates":[1.1564,45.225]},"surface":1997.01,"population":293,"departement":{"code":"24","nom":"Dordogne"},"region":{"code":"75","nom":"Nouvelle-Aquitaine"}},{"nom":"Nanteuil-Auriac-de-Bourzac","code":"24303","codesPostaux":["24320"],"centre":{"type":"Point","coordinates":[0.2862,45.3795]},"surface":2080.01,"population":232,"departement":{"code":"24","nom":"Dordogne"},"region":{"code":"75","nom":"Nouvelle-Aquitaine"}},{"nom":"Nantheuil","code":"24304","codesPostaux":["24800"],"centre":{"type":"Point","coordinates":[0.9614,45.4237]},"surface":1761.83,"population":978,"departement":{"code":"24","nom":"Dordogne"},"region":{"code":"75","nom":"Nouvelle-Aquitaine"}},{"nom":"Nanthiat","code":"24305","codesPostaux":["24800"],"centre":{"type":"Point","coordinates":[0.9822,45.4101]},"surface":1120.18,"population":235,"departement":{"code":"24","nom":"Dordogne"},"region":{"code":"75","nom":"Nouvelle-Aquitaine"}},{"nom":"Nastringues","code":"24306","codesPostaux":["24230"],"centre":{"type":"Point","coordinates":[0.1512,44.8719]},"surface":621.22,"population":128,"departement":{"code":"24","nom":"Dordogne"},"region":{"code":"75","nom":"Nouvelle-Aquitaine"}},{"nom":"Naussannes","code":"24307","codesPostaux":["24440"],"centre":{"type":"Point","coordinates":[0.7175,44.7474]},"surface":1499.35,"population":246,"departement":{"code":"24","nom":"Dordogne"},"region":{"code":"75","nom":"Nouvelle-Aquitaine"}},{"nom":"Négrondes","code":"24308","codesPostaux":["24460"],"centre":{"type":"Point","coordinates":[0.8769,45.3396]},"surface":2086.03,"population":787,"departement":{"code":"24","nom":"Dordogne"},"region":{"code":"75","nom":"Nouvelle-Aquitaine"}},{"nom":"Neuvic","code":"24309","codesPostaux":["24190"],"centre":{"type":"Point","coordinates":[0.4728,45.0889]},"surface":2588.31,"population":3640,"departement":{"code":"24","nom":"Dordogne"},"region":{"code":"75","nom":"Nouvelle-Aquitaine"}},{"nom":"Nontron","code":"24311","codesPostaux":["24300"],"centre":{"type":"Point","coordinates":[0.6823,45.5337]},"surface":2567.57,"population":3041,"departement":{"code":"24","nom":"Dordogne"},"region":{"code":"75","nom":"Nouvelle-Aquitaine"}},{"nom":"Sanilhac","code":"24312","codesPostaux":["24380","24660","24750"],"centre":{"type":"Point","coordinates":[0.7435,45.1079]},"surface":6196.08,"population":4674,"departement":{"code":"24","nom":"Dordogne"},"region":{"code":"75","nom":"Nouvelle-Aquitaine"}},{"nom":"Orliac","code":"24313","codesPostaux":["24170"],"centre":{"type":"Point","coordinates":[1.0613,44.7121]},"surface":1078.22,"population":47,"departement":{"code":"24","nom":"Dordogne"},"region":{"code":"75","nom":"Nouvelle-Aquitaine"}},{"nom":"Parcoul-Chenaud","code":"24316","codesPostaux":["24410"],"centre":{"type":"Point","coordinates":[0.0579,45.1981]},"surface":2680.91,"population":800,"departement":{"code":"24","nom":"Dordogne"},"region":{"code":"75","nom":"Nouvelle-Aquitaine"}},{"nom":"Paulin","code":"24317","codesPostaux":["24590"],"centre":{"type":"Point","coordinates":[1.3314,44.9969]},"surface":1175.52,"population":248,"departement":{"code":"24","nom":"Dordogne"},"region":{"code":"75","nom":"Nouvelle-Aquitaine"}},{"nom":"Paunat","code":"24318","codesPostaux":["24510"],"centre":{"type":"Point","coordinates":[0.8532,44.9029]},"surface":1779.1,"population":317,"departement":{"code":"24","nom":"Dordogne"},"region":{"code":"75","nom":"Nouvelle-Aquitaine"}},{"nom":"Paussac-et-Saint-Vivien","code":"24319","codesPostaux":["24310"],"centre":{"type":"Point","coordinates":[0.5427,45.3394]},"surface":2231.15,"population":467,"departement":{"code":"24","nom":"Dordogne"},"region":{"code":"75","nom":"Nouvelle-Aquitaine"}},{"nom":"Payzac","code":"24320","codesPostaux":["24270"],"centre":{"type":"Point","coordinates":[1.229,45.42]},"surface":4900.98,"population":971,"departement":{"code":"24","nom":"Dordogne"},"region":{"code":"75","nom":"Nouvelle-Aquitaine"}},{"nom":"Pazayac","code":"24321","codesPostaux":["24120"],"centre":{"type":"Point","coordinates":[1.375,45.1243]},"surface":685.98,"population":827,"departement":{"code":"24","nom":"Dordogne"},"region":{"code":"75","nom":"Nouvelle-Aquitaine"}},{"nom":"Périgueux","code":"24322","codesPostaux":["24000"],"centre":{"type":"Point","coordinates":[0.7105,45.1939]},"surface":1012.08,"population":29516,"departement":{"code":"24","nom":"Dordogne"},"region":{"code":"75","nom":"Nouvelle-Aquitaine"}},{"nom":"Petit-Bersac","code":"24323","codesPostaux":["24600"],"centre":{"type":"Point","coordinates":[0.2263,45.2664]},"surface":1080.34,"population":186,"departement":{"code":"24","nom":"Dordogne"},"region":{"code":"75","nom":"Nouvelle-Aquitaine"}},{"nom":"Peyrignac","code":"24324","codesPostaux":["24210"],"centre":{"type":"Point","coordinates":[1.1934,45.1611]},"surface":656.34,"population":581,"departement":{"code":"24","nom":"Dordogne"},"region":{"code":"75","nom":"Nouvelle-Aquitaine"}},{"nom":"Pechs-de-l'Espérance","code":"24325","codesPostaux":["24370"],"centre":{"type":"Point","coordinates":[1.4006,44.9]},"surface":1995.92,"population":772,"departement":{"code":"24","nom":"Dordogne"},"region":{"code":"75","nom":"Nouvelle-Aquitaine"}},{"nom":"Peyzac-le-Moustier","code":"24326","codesPostaux":["24620"],"centre":{"type":"Point","coordinates":[1.0795,44.983]},"surface":1007.98,"population":197,"departement":{"code":"24","nom":"Dordogne"},"region":{"code":"75","nom":"Nouvelle-Aquitaine"}},{"nom":"Pezuls","code":"24327","codesPostaux":["24510"],"centre":{"type":"Point","coordinates":[0.8052,44.9118]},"surface":1023.59,"population":123,"departement":{"code":"24","nom":"Dordogne"},"region":{"code":"75","nom":"Nouvelle-Aquitaine"}},{"nom":"Piégut-Pluviers","code":"24328","codesPostaux":["24360"],"centre":{"type":"Point","coordinates":[0.7026,45.6333]},"surface":1868.86,"population":1183,"departement":{"code":"24","nom":"Dordogne"},"region":{"code":"75","nom":"Nouvelle-Aquitaine"}},{"nom":"Le Pizou","code":"24329","codesPostaux":["24700"],"centre":{"type":"Point","coordinates":[0.073,45.041]},"surface":1713.97,"population":1383,"departement":{"code":"24","nom":"Dordogne"},"region":{"code":"75","nom":"Nouvelle-Aquitaine"}},{"nom":"Plazac","code":"24330","codesPostaux":["24580"],"centre":{"type":"Point","coordinates":[1.0383,45.0483]},"surface":3454.99,"population":703,"departement":{"code":"24","nom":"Dordogne"},"region":{"code":"75","nom":"Nouvelle-Aquitaine"}},{"nom":"Pomport","code":"24331","codesPostaux":["24240"],"centre":{"type":"Point","coordinates":[0.4115,44.7948]},"surface":1956.31,"population":732,"departement":{"code":"24","nom":"Dordogne"},"region":{"code":"75","nom":"Nouvelle-Aquitaine"}},{"nom":"Pontours","code":"24334","codesPostaux":["24150"],"centre":{"type":"Point","coordinates":[0.7724,44.8264]},"surface":664.46,"population":201,"departement":{"code":"24","nom":"Dordogne"},"region":{"code":"75","nom":"Nouvelle-Aquitaine"}},{"nom":"Port-Sainte-Foy-et-Ponchapt","code":"24335","codesPostaux":["33220"],"centre":{"type":"Point","coordinates":[0.212,44.8675]},"surface":1867.09,"population":2501,"departement":{"code":"24","nom":"Dordogne"},"region":{"code":"75","nom":"Nouvelle-Aquitaine"}},{"nom":"Prats-de-Carlux","code":"24336","codesPostaux":["24370"],"centre":{"type":"Point","coordinates":[1.3093,44.8925]},"surface":1295.24,"population":491,"departement":{"code":"24","nom":"Dordogne"},"region":{"code":"75","nom":"Nouvelle-Aquitaine"}},{"nom":"Prats-du-Périgord","code":"24337","codesPostaux":["24550"],"centre":{"type":"Point","coordinates":[1.0696,44.6836]},"surface":1132.47,"population":146,"departement":{"code":"24","nom":"Dordogne"},"region":{"code":"75","nom":"Nouvelle-Aquitaine"}},{"nom":"Pressignac-Vicq","code":"24338","codesPostaux":["24150"],"centre":{"type":"Point","coordinates":[0.7264,44.8954]},"surface":1708.37,"population":444,"departement":{"code":"24","nom":"Dordogne"},"region":{"code":"75","nom":"Nouvelle-Aquitaine"}},{"nom":"Preyssac-d'Excideuil","code":"24339","codesPostaux":["24160"],"centre":{"type":"Point","coordinates":[1.106,45.3422]},"surface":348.68,"population":141,"departement":{"code":"24","nom":"Dordogne"},"region":{"code":"75","nom":"Nouvelle-Aquitaine"}},{"nom":"Prigonrieux","code":"24340","codesPostaux":["24130"],"centre":{"type":"Point","coordinates":[0.407,44.8689]},"surface":2618.29,"population":4292,"departement":{"code":"24","nom":"Dordogne"},"region":{"code":"75","nom":"Nouvelle-Aquitaine"}},{"nom":"Proissans","code":"24341","codesPostaux":["24200"],"centre":{"type":"Point","coordinates":[1.2465,44.9293]},"surface":1812.15,"population":1071,"departement":{"code":"24","nom":"Dordogne"},"region":{"code":"75","nom":"Nouvelle-Aquitaine"}},{"nom":"Queyssac","code":"24345","codesPostaux":["24140"],"centre":{"type":"Point","coordinates":[0.5305,44.9131]},"surface":1247.09,"population":509,"departement":{"code":"24","nom":"Dordogne"},"region":{"code":"75","nom":"Nouvelle-Aquitaine"}},{"nom":"Quinsac","code":"24346","codesPostaux":["24530"],"centre":{"type":"Point","coordinates":[0.7029,45.437]},"surface":1799.69,"population":384,"departement":{"code":"24","nom":"Dordogne"},"region":{"code":"75","nom":"Nouvelle-Aquitaine"}},{"nom":"Rampieux","code":"24347","codesPostaux":["24440"],"centre":{"type":"Point","coordinates":[0.8021,44.7039]},"surface":1183.34,"population":140,"departement":{"code":"24","nom":"Dordogne"},"region":{"code":"75","nom":"Nouvelle-Aquitaine"}},{"nom":"Razac-d'Eymet","code":"24348","codesPostaux":["24500"],"centre":{"type":"Point","coordinates":[0.4567,44.6965]},"surface":1234.09,"population":320,"departement":{"code":"24","nom":"Dordogne"},"region":{"code":"75","nom":"Nouvelle-Aquitaine"}},{"nom":"Razac-de-Saussignac","code":"24349","codesPostaux":["24240"],"centre":{"type":"Point","coordinates":[0.2922,44.8133]},"surface":1156.35,"population":341,"departement":{"code":"24","nom":"Dordogne"},"region":{"code":"75","nom":"Nouvelle-Aquitaine"}},{"nom":"Razac-sur-l'Isle","code":"24350","codesPostaux":["24430"],"centre":{"type":"Point","coordinates":[0.6191,45.1597]},"surface":1489.01,"population":2369,"departement":{"code":"24","nom":"Dordogne"},"region":{"code":"75","nom":"Nouvelle-Aquitaine"}},{"nom":"Ribagnac","code":"24351","codesPostaux":["24240"],"centre":{"type":"Point","coordinates":[0.4841,44.7564]},"surface":1186.9,"population":323,"departement":{"code":"24","nom":"Dordogne"},"region":{"code":"75","nom":"Nouvelle-Aquitaine"}},{"nom":"Ribérac","code":"24352","codesPostaux":["24600"],"centre":{"type":"Point","coordinates":[0.3402,45.2428]},"surface":2270.52,"population":3828,"departement":{"code":"24","nom":"Dordogne"},"region":{"code":"75","nom":"Nouvelle-Aquitaine"}},{"nom":"La Rochebeaucourt-et-Argentine","code":"24353","codesPostaux":["24340"],"centre":{"type":"Point","coordinates":[0.3787,45.4667]},"surface":1733.94,"population":331,"departement":{"code":"24","nom":"Dordogne"},"region":{"code":"75","nom":"Nouvelle-Aquitaine"}},{"nom":"La Roche-Chalais","code":"24354","codesPostaux":["24490"],"centre":{"type":"Point","coordinates":[0.0494,45.1292]},"surface":8977.51,"population":3018,"departement":{"code":"24","nom":"Dordogne"},"region":{"code":"75","nom":"Nouvelle-Aquitaine"}},{"nom":"La Roque-Gageac","code":"24355","codesPostaux":["24250"],"centre":{"type":"Point","coordinates":[1.1999,44.82]},"surface":719.04,"population":430,"departement":{"code":"24","nom":"Dordogne"},"region":{"code":"75","nom":"Nouvelle-Aquitaine"}},{"nom":"Rouffignac-Saint-Cernin-de-Reilhac","code":"24356","codesPostaux":["24580"],"centre":{"type":"Point","coordinates":[0.9696,45.0486]},"surface":6138.56,"population":1641,"departement":{"code":"24","nom":"Dordogne"},"region":{"code":"75","nom":"Nouvelle-Aquitaine"}},{"nom":"Rouffignac-de-Sigoulès","code":"24357","codesPostaux":["24240"],"centre":{"type":"Point","coordinates":[0.4426,44.7818]},"surface":652.39,"population":309,"departement":{"code":"24","nom":"Dordogne"},"region":{"code":"75","nom":"Nouvelle-Aquitaine"}},{"nom":"Sadillac","code":"24359","codesPostaux":["24500"],"centre":{"type":"Point","coordinates":[0.4907,44.7287]},"surface":565.78,"population":109,"departement":{"code":"24","nom":"Dordogne"},"region":{"code":"75","nom":"Nouvelle-Aquitaine"}},{"nom":"Sagelat","code":"24360","codesPostaux":["24170"],"centre":{"type":"Point","coordinates":[1.0233,44.7882]},"surface":783.1,"population":316,"departement":{"code":"24","nom":"Dordogne"},"region":{"code":"75","nom":"Nouvelle-Aquitaine"}},{"nom":"Saint-Agne","code":"24361","codesPostaux":["24520"],"centre":{"type":"Point","coordinates":[0.6255,44.8345]},"surface":589.95,"population":449,"departement":{"code":"24","nom":"Dordogne"},"region":{"code":"75","nom":"Nouvelle-Aquitaine"}},{"nom":"Val de Louyre et Caudeau","code":"24362","codesPostaux":["24380","24510"],"centre":{"type":"Point","coordinates":[0.7733,44.9731]},"surface":8282.75,"population":1590,"departement":{"code":"24","nom":"Dordogne"},"region":{"code":"75","nom":"Nouvelle-Aquitaine"}},{"nom":"Coly-Saint-Amand","code":"24364","codesPostaux":["24120","24290"],"centre":{"type":"Point","coordinates":[1.2456,45.0634]},"surface":3543.55,"population":608,"departement":{"code":"24","nom":"Dordogne"},"region":{"code":"75","nom":"Nouvelle-Aquitaine"}},{"nom":"Saint-Amand-de-Vergt","code":"24365","codesPostaux":["24380"],"centre":{"type":"Point","coordinates":[0.6921,44.989]},"surface":1303.26,"population":248,"departement":{"code":"24","nom":"Dordogne"},"region":{"code":"75","nom":"Nouvelle-Aquitaine"}},{"nom":"Saint-André-d'Allas","code":"24366","codesPostaux":["24200"],"centre":{"type":"Point","coordinates":[1.1496,44.8905]},"surface":2951.73,"population":875,"departement":{"code":"24","nom":"Dordogne"},"region":{"code":"75","nom":"Nouvelle-Aquitaine"}},{"nom":"Saint-André-de-Double","code":"24367","codesPostaux":["24190"],"centre":{"type":"Point","coordinates":[0.3228,45.1425]},"surface":2782.04,"population":175,"departement":{"code":"24","nom":"Dordogne"},"region":{"code":"75","nom":"Nouvelle-Aquitaine"}},{"nom":"Saint-Antoine-de-Breuilh","code":"24370","codesPostaux":["24230"],"centre":{"type":"Point","coordinates":[0.1394,44.8423]},"surface":1806.87,"population":1844,"departement":{"code":"24","nom":"Dordogne"},"region":{"code":"75","nom":"Nouvelle-Aquitaine"}},{"nom":"Saint-Aquilin","code":"24371","codesPostaux":["24110"],"centre":{"type":"Point","coordinates":[0.488,45.1877]},"surface":2240.78,"population":470,"departement":{"code":"24","nom":"Dordogne"},"region":{"code":"75","nom":"Nouvelle-Aquitaine"}},{"nom":"Saint-Astier","code":"24372","codesPostaux":["24110"],"centre":{"type":"Point","coordinates":[0.5146,45.1426]},"surface":3570.46,"population":5320,"departement":{"code":"24","nom":"Dordogne"},"region":{"code":"75","nom":"Nouvelle-Aquitaine"}},{"nom":"Saint-Aubin-de-Cadelech","code":"24373","codesPostaux":["24500"],"centre":{"type":"Point","coordinates":[0.4933,44.6878]},"surface":1360.61,"population":347,"departement":{"code":"24","nom":"Dordogne"},"region":{"code":"75","nom":"Nouvelle-Aquitaine"}},{"nom":"Saint-Aubin-de-Lanquais","code":"24374","codesPostaux":["24560"],"centre":{"type":"Point","coordinates":[0.5982,44.7982]},"surface":938,"population":357,"departement":{"code":"24","nom":"Dordogne"},"region":{"code":"75","nom":"Nouvelle-Aquitaine"}},{"nom":"Saint-Aubin-de-Nabirat","code":"24375","codesPostaux":["24250"],"centre":{"type":"Point","coordinates":[1.2825,44.7312]},"surface":639.98,"population":154,"departement":{"code":"24","nom":"Dordogne"},"region":{"code":"75","nom":"Nouvelle-Aquitaine"}},{"nom":"Saint Aulaye-Puymangou","code":"24376","codesPostaux":["24410"],"centre":{"type":"Point","coordinates":[0.1144,45.1817]},"surface":4615.46,"population":1414,"departement":{"code":"24","nom":"Dordogne"},"region":{"code":"75","nom":"Nouvelle-Aquitaine"}},{"nom":"Saint-Avit-de-Vialard","code":"24377","codesPostaux":["24260"],"centre":{"type":"Point","coordinates":[0.8579,44.9458]},"surface":883.47,"population":153,"departement":{"code":"24","nom":"Dordogne"},"region":{"code":"75","nom":"Nouvelle-Aquitaine"}},{"nom":"Saint-Avit-Rivière","code":"24378","codesPostaux":["24540"],"centre":{"type":"Point","coordinates":[0.9093,44.7413]},"surface":1413.61,"population":84,"departement":{"code":"24","nom":"Dordogne"},"region":{"code":"75","nom":"Nouvelle-Aquitaine"}},{"nom":"Saint-Avit-Sénieur","code":"24379","codesPostaux":["24440"],"centre":{"type":"Point","coordinates":[0.8184,44.7728]},"surface":2342.43,"population":409,"departement":{"code":"24","nom":"Dordogne"},"region":{"code":"75","nom":"Nouvelle-Aquitaine"}},{"nom":"Saint-Barthélemy-de-Bellegarde","code":"24380","codesPostaux":["24700"],"centre":{"type":"Point","coordinates":[0.1979,45.0831]},"surface":3332.34,"population":504,"departement":{"code":"24","nom":"Dordogne"},"region":{"code":"75","nom":"Nouvelle-Aquitaine"}},{"nom":"Saint-Barthélemy-de-Bussière","code":"24381","codesPostaux":["24360"],"centre":{"type":"Point","coordinates":[0.7479,45.6417]},"surface":1546.17,"population":212,"departement":{"code":"24","nom":"Dordogne"},"region":{"code":"75","nom":"Nouvelle-Aquitaine"}},{"nom":"Saint-Capraise-de-Lalinde","code":"24382","codesPostaux":["24150"],"centre":{"type":"Point","coordinates":[0.6532,44.8463]},"surface":390.34,"population":524,"departement":{"code":"24","nom":"Dordogne"},"region":{"code":"75","nom":"Nouvelle-Aquitaine"}},{"nom":"Saint-Capraise-d'Eymet","code":"24383","codesPostaux":["24500"],"centre":{"type":"Point","coordinates":[0.5073,44.7081]},"surface":1121,"population":166,"departement":{"code":"24","nom":"Dordogne"},"region":{"code":"75","nom":"Nouvelle-Aquitaine"}},{"nom":"Saint-Cassien","code":"24384","codesPostaux":["24540"],"centre":{"type":"Point","coordinates":[0.8469,44.68]},"surface":473.68,"population":34,"departement":{"code":"24","nom":"Dordogne"},"region":{"code":"75","nom":"Nouvelle-Aquitaine"}},{"nom":"Saint-Cernin-de-Labarde","code":"24385","codesPostaux":["24560"],"centre":{"type":"Point","coordinates":[0.5828,44.7654]},"surface":1152.19,"population":224,"departement":{"code":"24","nom":"Dordogne"},"region":{"code":"75","nom":"Nouvelle-Aquitaine"}},{"nom":"Saint-Cernin-de-l'Herm","code":"24386","codesPostaux":["24550"],"centre":{"type":"Point","coordinates":[1.0491,44.6545]},"surface":1676.91,"population":200,"departement":{"code":"24","nom":"Dordogne"},"region":{"code":"75","nom":"Nouvelle-Aquitaine"}},{"nom":"Saint-Chamassy","code":"24388","codesPostaux":["24260"],"centre":{"type":"Point","coordinates":[0.932,44.8784]},"surface":1541.57,"population":493,"departement":{"code":"24","nom":"Dordogne"},"region":{"code":"75","nom":"Nouvelle-Aquitaine"}},{"nom":"Saint-Crépin-d'Auberoche","code":"24390","codesPostaux":["24330"],"centre":{"type":"Point","coordinates":[0.8968,45.1188]},"surface":983.64,"population":332,"departement":{"code":"24","nom":"Dordogne"},"region":{"code":"75","nom":"Nouvelle-Aquitaine"}},{"nom":"Saint-Crépin-et-Carlucet","code":"24392","codesPostaux":["24590"],"centre":{"type":"Point","coordinates":[1.2709,44.9539]},"surface":1895.51,"population":528,"departement":{"code":"24","nom":"Dordogne"},"region":{"code":"75","nom":"Nouvelle-Aquitaine"}},{"nom":"Sainte-Croix","code":"24393","codesPostaux":["24440"],"centre":{"type":"Point","coordinates":[0.8326,44.7303]},"surface":1293.51,"population":87,"departement":{"code":"24","nom":"Dordogne"},"region":{"code":"75","nom":"Nouvelle-Aquitaine"}},{"nom":"Sainte-Croix-de-Mareuil","code":"24394","codesPostaux":["24340"],"centre":{"type":"Point","coordinates":[0.4231,45.464]},"surface":1238.53,"population":148,"departement":{"code":"24","nom":"Dordogne"},"region":{"code":"75","nom":"Nouvelle-Aquitaine"}},{"nom":"Saint-Cybranet","code":"24395","codesPostaux":["24250"],"centre":{"type":"Point","coordinates":[1.1595,44.7834]},"surface":1072.81,"population":363,"departement":{"code":"24","nom":"Dordogne"},"region":{"code":"75","nom":"Nouvelle-Aquitaine"}},{"nom":"Saint-Cyprien","code":"24396","codesPostaux":["24220"],"centre":{"type":"Point","coordinates":[1.027,44.8853]},"surface":2222.44,"population":1551,"departement":{"code":"24","nom":"Dordogne"},"region":{"code":"75","nom":"Nouvelle-Aquitaine"}},{"nom":"Saint-Cyr-les-Champagnes","code":"24397","codesPostaux":["24270"],"centre":{"type":"Point","coordinates":[1.2926,45.3699]},"surface":1621.55,"population":280,"departement":{"code":"24","nom":"Dordogne"},"region":{"code":"75","nom":"Nouvelle-Aquitaine"}},{"nom":"Saint-Estèphe","code":"24398","codesPostaux":["24360"],"centre":{"type":"Point","coordinates":[0.6578,45.6063]},"surface":2216.09,"population":589,"departement":{"code":"24","nom":"Dordogne"},"region":{"code":"75","nom":"Nouvelle-Aquitaine"}},{"nom":"Saint-Étienne-de-Puycorbier","code":"24399","codesPostaux":["24400"],"centre":{"type":"Point","coordinates":[0.325,45.0943]},"surface":1353.13,"population":108,"departement":{"code":"24","nom":"Dordogne"},"region":{"code":"75","nom":"Nouvelle-Aquitaine"}},{"nom":"Sainte-Eulalie-d'Ans","code":"24401","codesPostaux":["24640"],"centre":{"type":"Point","coordinates":[1.0214,45.2487]},"surface":1182.7,"population":297,"departement":{"code":"24","nom":"Dordogne"},"region":{"code":"75","nom":"Nouvelle-Aquitaine"}},{"nom":"Saint-Félix-de-Bourdeilles","code":"24403","codesPostaux":["24340"],"centre":{"type":"Point","coordinates":[0.5665,45.41]},"surface":627.7,"population":68,"departement":{"code":"24","nom":"Dordogne"},"region":{"code":"75","nom":"Nouvelle-Aquitaine"}},{"nom":"Saint-Félix-de-Reillac-et-Mortemart","code":"24404","codesPostaux":["24260"],"centre":{"type":"Point","coordinates":[0.8963,45.0146]},"surface":2077.89,"population":177,"departement":{"code":"24","nom":"Dordogne"},"region":{"code":"75","nom":"Nouvelle-Aquitaine"}},{"nom":"Saint-Félix-de-Villadeix","code":"24405","codesPostaux":["24510"],"centre":{"type":"Point","coordinates":[0.6753,44.9316]},"surface":1683.31,"population":323,"departement":{"code":"24","nom":"Dordogne"},"region":{"code":"75","nom":"Nouvelle-Aquitaine"}},{"nom":"Sainte-Foy-de-Belvès","code":"24406","codesPostaux":["24170"],"centre":{"type":"Point","coordinates":[1.0374,44.7271]},"surface":762.71,"population":140,"departement":{"code":"24","nom":"Dordogne"},"region":{"code":"75","nom":"Nouvelle-Aquitaine"}},{"nom":"Sainte-Foy-de-Longas","code":"24407","codesPostaux":["24510"],"centre":{"type":"Point","coordinates":[0.7606,44.9324]},"surface":1623.23,"population":242,"departement":{"code":"24","nom":"Dordogne"},"region":{"code":"75","nom":"Nouvelle-Aquitaine"}},{"nom":"Saint-Front-d'Alemps","code":"24408","codesPostaux":["24460"],"centre":{"type":"Point","coordinates":[0.7986,45.3203]},"surface":1934.84,"population":255,"departement":{"code":"24","nom":"Dordogne"},"region":{"code":"75","nom":"Nouvelle-Aquitaine"}},{"nom":"Saint-Front-de-Pradoux","code":"24409","codesPostaux":["24400"],"centre":{"type":"Point","coordinates":[0.3611,45.0598]},"surface":903.24,"population":1168,"departement":{"code":"24","nom":"Dordogne"},"region":{"code":"75","nom":"Nouvelle-Aquitaine"}},{"nom":"Saint-Front-la-Rivière","code":"24410","codesPostaux":["24300"],"centre":{"type":"Point","coordinates":[0.7185,45.4636]},"surface":1845.07,"population":497,"departement":{"code":"24","nom":"Dordogne"},"region":{"code":"75","nom":"Nouvelle-Aquitaine"}},{"nom":"Saint-Front-sur-Nizonne","code":"24411","codesPostaux":["24300"],"centre":{"type":"Point","coordinates":[0.6257,45.4732]},"surface":1341.35,"population":164,"departement":{"code":"24","nom":"Dordogne"},"region":{"code":"75","nom":"Nouvelle-Aquitaine"}},{"nom":"Saint-Geniès","code":"24412","codesPostaux":["24590"],"centre":{"type":"Point","coordinates":[1.2539,45.0027]},"surface":3473.4,"population":902,"departement":{"code":"24","nom":"Dordogne"},"region":{"code":"75","nom":"Nouvelle-Aquitaine"}},{"nom":"Saint-Georges-Blancaneix","code":"24413","codesPostaux":["24130"],"centre":{"type":"Point","coordinates":[0.3538,44.9183]},"surface":1404.2,"population":286,"departement":{"code":"24","nom":"Dordogne"},"region":{"code":"75","nom":"Nouvelle-Aquitaine"}},{"nom":"Saint-Georges-de-Montclard","code":"24414","codesPostaux":["24140"],"centre":{"type":"Point","coordinates":[0.6127,44.9312]},"surface":1365.04,"population":276,"departement":{"code":"24","nom":"Dordogne"},"region":{"code":"75","nom":"Nouvelle-Aquitaine"}},{"nom":"Saint-Géraud-de-Corps","code":"24415","codesPostaux":["24700"],"centre":{"type":"Point","coordinates":[0.2417,44.9465]},"surface":1510.12,"population":222,"departement":{"code":"24","nom":"Dordogne"},"region":{"code":"75","nom":"Nouvelle-Aquitaine"}},{"nom":"Saint-Germain-de-Belvès","code":"24416","codesPostaux":["24170"],"centre":{"type":"Point","coordinates":[1.0344,44.8064]},"surface":743.49,"population":173,"departement":{"code":"24","nom":"Dordogne"},"region":{"code":"75","nom":"Nouvelle-Aquitaine"}},{"nom":"Saint-Germain-des-Prés","code":"24417","codesPostaux":["24160"],"centre":{"type":"Point","coordinates":[1.0004,45.3454]},"surface":1907.74,"population":462,"departement":{"code":"24","nom":"Dordogne"},"region":{"code":"75","nom":"Nouvelle-Aquitaine"}},{"nom":"Saint-Germain-du-Salembre","code":"24418","codesPostaux":["24190"],"centre":{"type":"Point","coordinates":[0.4344,45.128]},"surface":1959.24,"population":920,"departement":{"code":"24","nom":"Dordogne"},"region":{"code":"75","nom":"Nouvelle-Aquitaine"}},{"nom":"Saint-Germain-et-Mons","code":"24419","codesPostaux":["24520"],"centre":{"type":"Point","coordinates":[0.5906,44.825]},"surface":1426.04,"population":876,"departement":{"code":"24","nom":"Dordogne"},"region":{"code":"75","nom":"Nouvelle-Aquitaine"}},{"nom":"Saint-Géry","code":"24420","codesPostaux":["24400"],"centre":{"type":"Point","coordinates":[0.3285,44.9771]},"surface":1882.74,"population":247,"departement":{"code":"24","nom":"Dordogne"},"region":{"code":"75","nom":"Nouvelle-Aquitaine"}},{"nom":"Saint-Geyrac","code":"24421","codesPostaux":["24330"],"centre":{"type":"Point","coordinates":[0.9078,45.0688]},"surface":1786.11,"population":193,"departement":{"code":"24","nom":"Dordogne"},"region":{"code":"75","nom":"Nouvelle-Aquitaine"}},{"nom":"Saint-Hilaire-d'Estissac","code":"24422","codesPostaux":["24140"],"centre":{"type":"Point","coordinates":[0.5029,45.0141]},"surface":626.65,"population":122,"departement":{"code":"24","nom":"Dordogne"},"region":{"code":"75","nom":"Nouvelle-Aquitaine"}},{"nom":"Saint-Julien-Innocence-Eulalie","code":"24423","codesPostaux":["24500"],"centre":{"type":"Point","coordinates":[0.3973,44.7161]},"surface":1973.96,"population":311,"departement":{"code":"24","nom":"Dordogne"},"region":{"code":"75","nom":"Nouvelle-Aquitaine"}},{"nom":"Saint-Jean-d'Ataux","code":"24424","codesPostaux":["24190"],"centre":{"type":"Point","coordinates":[0.3941,45.1337]},"surface":1208.64,"population":135,"departement":{"code":"24","nom":"Dordogne"},"region":{"code":"75","nom":"Nouvelle-Aquitaine"}},{"nom":"Saint-Jean-de-Côle","code":"24425","codesPostaux":["24800"],"centre":{"type":"Point","coordinates":[0.8357,45.412]},"surface":1295.08,"population":366,"departement":{"code":"24","nom":"Dordogne"},"region":{"code":"75","nom":"Nouvelle-Aquitaine"}},{"nom":"Saint-Jean-d'Estissac","code":"24426","codesPostaux":["24140"],"centre":{"type":"Point","coordinates":[0.5037,45.0374]},"surface":1295.11,"population":160,"departement":{"code":"24","nom":"Dordogne"},"region":{"code":"75","nom":"Nouvelle-Aquitaine"}},{"nom":"Saint-Jory-de-Chalais","code":"24428","codesPostaux":["24800"],"centre":{"type":"Point","coordinates":[0.901,45.4903]},"surface":3261.67,"population":562,"departement":{"code":"24","nom":"Dordogne"},"region":{"code":"75","nom":"Nouvelle-Aquitaine"}},{"nom":"Saint-Jory-las-Bloux","code":"24429","codesPostaux":["24160"],"centre":{"type":"Point","coordinates":[0.947,45.3395]},"surface":1733.83,"population":239,"departement":{"code":"24","nom":"Dordogne"},"region":{"code":"75","nom":"Nouvelle-Aquitaine"}},{"nom":"Saint-Julien-de-Lampon","code":"24432","codesPostaux":["24370"],"centre":{"type":"Point","coordinates":[1.3806,44.8624]},"surface":1338.56,"population":650,"departement":{"code":"24","nom":"Dordogne"},"region":{"code":"75","nom":"Nouvelle-Aquitaine"}},{"nom":"Saint-Just","code":"24434","codesPostaux":["24320"],"centre":{"type":"Point","coordinates":[0.4972,45.3365]},"surface":1082.4,"population":147,"departement":{"code":"24","nom":"Dordogne"},"region":{"code":"75","nom":"Nouvelle-Aquitaine"}},{"nom":"Saint-Laurent-des-Hommes","code":"24436","codesPostaux":["24400"],"centre":{"type":"Point","coordinates":[0.2509,45.0421]},"surface":3225.97,"population":1031,"departement":{"code":"24","nom":"Dordogne"},"region":{"code":"75","nom":"Nouvelle-Aquitaine"}},{"nom":"Saint-Laurent-des-Vignes","code":"24437","codesPostaux":["24100"],"centre":{"type":"Point","coordinates":[0.4458,44.8257]},"surface":813.64,"population":1001,"departement":{"code":"24","nom":"Dordogne"},"region":{"code":"75","nom":"Nouvelle-Aquitaine"}},{"nom":"Saint-Laurent-la-Vallée","code":"24438","codesPostaux":["24170"],"centre":{"type":"Point","coordinates":[1.1227,44.7505]},"surface":1550.24,"population":234,"departement":{"code":"24","nom":"Dordogne"},"region":{"code":"75","nom":"Nouvelle-Aquitaine"}},{"nom":"Saint-Léon-d'Issigeac","code":"24441","codesPostaux":["24560"],"centre":{"type":"Point","coordinates":[0.6987,44.7198]},"surface":565.03,"population":145,"departement":{"code":"24","nom":"Dordogne"},"region":{"code":"75","nom":"Nouvelle-Aquitaine"}},{"nom":"Saint-Léon-sur-l'Isle","code":"24442","codesPostaux":["24110"],"centre":{"type":"Point","coordinates":[0.498,45.1175]},"surface":1452.92,"population":2051,"departement":{"code":"24","nom":"Dordogne"},"region":{"code":"75","nom":"Nouvelle-Aquitaine"}},{"nom":"Saint-Léon-sur-Vézère","code":"24443","codesPostaux":["24290"],"centre":{"type":"Point","coordinates":[1.0821,45.0224]},"surface":1381.99,"population":426,"departement":{"code":"24","nom":"Dordogne"},"region":{"code":"75","nom":"Nouvelle-Aquitaine"}},{"nom":"Saint-Louis-en-l'Isle","code":"24444","codesPostaux":["24400"],"centre":{"type":"Point","coordinates":[0.3927,45.0645]},"surface":282.67,"population":305,"departement":{"code":"24","nom":"Dordogne"},"region":{"code":"75","nom":"Nouvelle-Aquitaine"}},{"nom":"Saint-Marcel-du-Périgord","code":"24445","codesPostaux":["24510"],"centre":{"type":"Point","coordinates":[0.6979,44.9203]},"surface":1136.67,"population":141,"departement":{"code":"24","nom":"Dordogne"},"region":{"code":"75","nom":"Nouvelle-Aquitaine"}},{"nom":"Saint-Marcory","code":"24446","codesPostaux":["24540"],"centre":{"type":"Point","coordinates":[0.9289,44.7225]},"surface":476.63,"population":52,"departement":{"code":"24","nom":"Dordogne"},"region":{"code":"75","nom":"Nouvelle-Aquitaine"}},{"nom":"Saint-Martial-d'Albarède","code":"24448","codesPostaux":["24160"],"centre":{"type":"Point","coordinates":[1.0387,45.3203]},"surface":1068.38,"population":480,"departement":{"code":"24","nom":"Dordogne"},"region":{"code":"75","nom":"Nouvelle-Aquitaine"}},{"nom":"Saint-Martial-d'Artenset","code":"24449","codesPostaux":["24700"],"centre":{"type":"Point","coordinates":[0.2188,44.9989]},"surface":3242.73,"population":943,"departement":{"code":"24","nom":"Dordogne"},"region":{"code":"75","nom":"Nouvelle-Aquitaine"}},{"nom":"Saint-Martial-de-Nabirat","code":"24450","codesPostaux":["24250"],"centre":{"type":"Point","coordinates":[1.2466,44.7494]},"surface":1568.67,"population":570,"departement":{"code":"24","nom":"Dordogne"},"region":{"code":"75","nom":"Nouvelle-Aquitaine"}},{"nom":"Saint-Martial-de-Valette","code":"24451","codesPostaux":["24300"],"centre":{"type":"Point","coordinates":[0.6333,45.514]},"surface":1636.89,"population":800,"departement":{"code":"24","nom":"Dordogne"},"region":{"code":"75","nom":"Nouvelle-Aquitaine"}},{"nom":"Saint-Martial-Viveyrol","code":"24452","codesPostaux":["24320"],"centre":{"type":"Point","coordinates":[0.3384,45.3557]},"surface":1270.38,"population":185,"departement":{"code":"24","nom":"Dordogne"},"region":{"code":"75","nom":"Nouvelle-Aquitaine"}},{"nom":"Saint-Martin-de-Fressengeas","code":"24453","codesPostaux":["24800"],"centre":{"type":"Point","coordinates":[0.8349,45.4567]},"surface":2161.48,"population":362,"departement":{"code":"24","nom":"Dordogne"},"region":{"code":"75","nom":"Nouvelle-Aquitaine"}},{"nom":"Saint-Martin-de-Gurson","code":"24454","codesPostaux":["24610"],"centre":{"type":"Point","coordinates":[0.1187,44.9616]},"surface":2483.89,"population":645,"departement":{"code":"24","nom":"Dordogne"},"region":{"code":"75","nom":"Nouvelle-Aquitaine"}},{"nom":"Saint-Martin-de-Ribérac","code":"24455","codesPostaux":["24600"],"centre":{"type":"Point","coordinates":[0.3578,45.2195]},"surface":1639.4,"population":734,"departement":{"code":"24","nom":"Dordogne"},"region":{"code":"75","nom":"Nouvelle-Aquitaine"}},{"nom":"Saint-Martin-des-Combes","code":"24456","codesPostaux":["24140"],"centre":{"type":"Point","coordinates":[0.6215,44.9626]},"surface":1405.44,"population":200,"departement":{"code":"24","nom":"Dordogne"},"region":{"code":"75","nom":"Nouvelle-Aquitaine"}},{"nom":"Saint-Martin-l'Astier","code":"24457","codesPostaux":["24400"],"centre":{"type":"Point","coordinates":[0.324,45.0574]},"surface":941.88,"population":140,"departement":{"code":"24","nom":"Dordogne"},"region":{"code":"75","nom":"Nouvelle-Aquitaine"}},{"nom":"Saint-Martin-le-Pin","code":"24458","codesPostaux":["24300"],"centre":{"type":"Point","coordinates":[0.6307,45.5521]},"surface":1600.53,"population":268,"departement":{"code":"24","nom":"Dordogne"},"region":{"code":"75","nom":"Nouvelle-Aquitaine"}},{"nom":"Saint-Mayme-de-Péreyrol","code":"24459","codesPostaux":["24380"],"centre":{"type":"Point","coordinates":[0.6481,45.0191]},"surface":1115.63,"population":284,"departement":{"code":"24","nom":"Dordogne"},"region":{"code":"75","nom":"Nouvelle-Aquitaine"}},{"nom":"Saint-Méard-de-Drône","code":"24460","codesPostaux":["24600"],"centre":{"type":"Point","coordinates":[0.4039,45.2532]},"surface":897.53,"population":494,"departement":{"code":"24","nom":"Dordogne"},"region":{"code":"75","nom":"Nouvelle-Aquitaine"}},{"nom":"Saint-Méard-de-Gurçon","code":"24461","codesPostaux":["24610"],"centre":{"type":"Point","coordinates":[0.175,44.909]},"surface":2871.9,"population":808,"departement":{"code":"24","nom":"Dordogne"},"region":{"code":"75","nom":"Nouvelle-Aquitaine"}},{"nom":"Saint-Médard-de-Mussidan","code":"24462","codesPostaux":["24400"],"centre":{"type":"Point","coordinates":[0.323,45.019]},"surface":2381.89,"population":1648,"departement":{"code":"24","nom":"Dordogne"},"region":{"code":"75","nom":"Nouvelle-Aquitaine"}},{"nom":"Saint-Médard-d'Excideuil","code":"24463","codesPostaux":["24160"],"centre":{"type":"Point","coordinates":[1.0858,45.3441]},"surface":1901.56,"population":544,"departement":{"code":"24","nom":"Dordogne"},"region":{"code":"75","nom":"Nouvelle-Aquitaine"}},{"nom":"Saint-Mesmin","code":"24464","codesPostaux":["24270"],"centre":{"type":"Point","coordinates":[1.2331,45.3501]},"surface":3039.98,"population":325,"departement":{"code":"24","nom":"Dordogne"},"region":{"code":"75","nom":"Nouvelle-Aquitaine"}},{"nom":"Saint-Michel-de-Double","code":"24465","codesPostaux":["24400"],"centre":{"type":"Point","coordinates":[0.2714,45.0977]},"surface":2966.24,"population":231,"departement":{"code":"24","nom":"Dordogne"},"region":{"code":"75","nom":"Nouvelle-Aquitaine"}},{"nom":"Saint-Michel-de-Montaigne","code":"24466","codesPostaux":["24230"],"centre":{"type":"Point","coordinates":[0.0233,44.8802]},"surface":927.75,"population":322,"departement":{"code":"24","nom":"Dordogne"},"region":{"code":"75","nom":"Nouvelle-Aquitaine"}},{"nom":"Saint-Michel-de-Villadeix","code":"24468","codesPostaux":["24380"],"centre":{"type":"Point","coordinates":[0.7335,44.9943]},"surface":1456.16,"population":299,"departement":{"code":"24","nom":"Dordogne"},"region":{"code":"75","nom":"Nouvelle-Aquitaine"}},{"nom":"Sainte-Mondane","code":"24470","codesPostaux":["24370"],"centre":{"type":"Point","coordinates":[1.3406,44.8345]},"surface":948.02,"population":287,"departement":{"code":"24","nom":"Dordogne"},"region":{"code":"75","nom":"Nouvelle-Aquitaine"}},