[{"nom":"Ablain-Saint-Nazaire","code":"62001","codesPostaux":["62153"],"centre":{"type":"Point","coordinates":[2.6983,50.3989]},"surface":994.63,"population":1939,"departement":{"code":"62","nom":"Pas-de-Calais"},"region":{"code":"32","nom":"Hauts-de-France"}},{"nom":"Ablainzevelle","code":"62002","codesPostaux":["62116"],"centre":{"type":"Point","coordinates":[2.7395,50.1532]},"surface":428.35,"population":233,"departement":{"code":"62","nom":"Pas-de-Calais"},"region":{"code":"32","nom":"Hauts-de-France"}},{"nom":"Acheville","code":"62003","codesPostaux":["62320"],"centre":{"type":"Point","coordinates":[2.8815,50.3847]},"surface":307.04,"population":589,"departement":{"code":"62","nom":"Pas-de-Calais"},"region":{"code":"32","nom":"Hauts-de-France"}},{"nom":"Achicourt","code":"62004","codesPostaux":["62217"],"centre":{"type":"Point","coordinates":[2.7572,50.2723]},"surface":582.09,"population":7938,"departement":{"code":"62","nom":"Pas-de-Calais"},"region":{"code":"32","nom":"Hauts-de-France"}},{"nom":"Achiet-le-Grand","code":"62005","codesPostaux":["62121"],"centre":{"type":"Point","coordinates":[2.7785,50.1306]},"surface":508.46,"population":965,"departement":{"code":"62","nom":"Pas-de-Calais"},"region":{"code":"32","nom":"Hauts-de-France"}},{"nom":"Achiet-le-Petit","code":"62006","codesPostaux":["62121"],"centre":{"type":"Point","coordinates":[2.7568,50.1285]},"surface":729.01,"population":310,"departement":{"code":"62","nom":"Pas-de-Calais"},"region":{"code":"32","nom":"Hauts-de-France"}},{"nom":"Acq","code":"62007","codesPostaux":["62144"],"centre":{"type":"Point","coordinates":[2.654,50.3502]},"surface":486.57,"population":797,"departement":{"code":"62","nom":"Pas-de-Calais"},"region":{"code":"32","nom":"Hauts-de-France"}},{"nom":"Acquin-Westbécourt","code":"62008","codesPostaux":["62380"],"centre":{"type":"Point","coordinates":[2.0763,50.7333]},"surface":1445.04,"population":795,"departement":{"code":"62","nom":"Pas-de-Calais"},"region":{"code":"32","nom":"Hauts-de-France"}},{"nom":"Adinfer","code":"62009","codesPostaux":["62116"],"centre":{"type":"Point","coordinates":[2.7073,50.1913]},"surface":626.64,"population":284,"departement":{"code":"62","nom":"Pas-de-Calais"},"region":{"code":"32","nom":"Hauts-de-France"}},{"nom":"Affringues","code":"62010","codesPostaux":["62380"],"centre":{"type":"Point","coordinates":[2.0692,50.6901]},"surface":296.95,"population":255,"departement":{"code":"62","nom":"Pas-de-Calais"},"region":{"code":"32","nom":"Hauts-de-France"}},{"nom":"Agnez-lès-Duisans","code":"62011","codesPostaux":["62161"],"centre":{"type":"Point","coordinates":[2.6461,50.307]},"surface":740.15,"population":648,"departement":{"code":"62","nom":"Pas-de-Calais"},"region":{"code":"32","nom":"Hauts-de-France"}},{"nom":"Agnières","code":"62012","codesPostaux":["62690"],"centre":{"type":"Point","coordinates":[2.6098,50.3507]},"surface":327.12,"population":255,"departement":{"code":"62","nom":"Pas-de-Calais"},"region":{"code":"32","nom":"Hauts-de-France"}},{"nom":"Agny","code":"62013","codesPostaux":["62217"],"centre":{"type":"Point","coordinates":[2.76,50.2519]},"surface":611.33,"population":1879,"departement":{"code":"62","nom":"Pas-de-Calais"},"region":{"code":"32","nom":"Hauts-de-France"}},{"nom":"Aire-sur-la-Lys","code":"62014","codesPostaux":["62120"],"centre":{"type":"Point","coordinates":[2.3962,50.6457]},"surface":3319.53,"population":9585,"departement":{"code":"62","nom":"Pas-de-Calais"},"region":{"code":"32","nom":"Hauts-de-France"}},{"nom":"Airon-Notre-Dame","code":"62015","codesPostaux":["62180"],"centre":{"type":"Point","coordinates":[1.6711,50.4416]},"surface":509.96,"population":252,"departement":{"code":"62","nom":"Pas-de-Calais"},"region":{"code":"32","nom":"Hauts-de-France"}},{"nom":"Airon-Saint-Vaast","code":"62016","codesPostaux":["62180"],"centre":{"type":"Point","coordinates":[1.6687,50.4262]},"surface":589.47,"population":188,"departement":{"code":"62","nom":"Pas-de-Calais"},"region":{"code":"32","nom":"Hauts-de-France"}},{"nom":"Aix-en-Ergny","code":"62017","codesPostaux":["62650"],"centre":{"type":"Point","coordinates":[2.0011,50.5836]},"surface":485.61,"population":202,"departement":{"code":"62","nom":"Pas-de-Calais"},"region":{"code":"32","nom":"Hauts-de-France"}},{"nom":"Aix-en-Issart","code":"62018","codesPostaux":["62170"],"centre":{"type":"Point","coordinates":[1.8635,50.4822]},"surface":1024.17,"population":270,"departement":{"code":"62","nom":"Pas-de-Calais"},"region":{"code":"32","nom":"Hauts-de-France"}},{"nom":"Aix-Noulette","code":"62019","codesPostaux":["62160"],"centre":{"type":"Point","coordinates":[2.7125,50.4231]},"surface":1043.95,"population":3913,"departement":{"code":"62","nom":"Pas-de-Calais"},"region":{"code":"32","nom":"Hauts-de-France"}},{"nom":"Alembon","code":"62020","codesPostaux":["62850"],"centre":{"type":"Point","coordinates":[1.8719,50.7805]},"surface":922.67,"population":628,"departement":{"code":"62","nom":"Pas-de-Calais"},"region":{"code":"32","nom":"Hauts-de-France"}},{"nom":"Alette","code":"62021","codesPostaux":["62650"],"centre":{"type":"Point","coordinates":[1.8506,50.5258]},"surface":1396.93,"population":378,"departement":{"code":"62","nom":"Pas-de-Calais"},"region":{"code":"32","nom":"Hauts-de-France"}},{"nom":"Alincthun","code":"62022","codesPostaux":["62142"],"centre":{"type":"Point","coordinates":[1.8119,50.7255]},"surface":998.79,"population":301,"departement":{"code":"62","nom":"Pas-de-Calais"},"region":{"code":"32","nom":"Hauts-de-France"}},{"nom":"Allouagne","code":"62023","codesPostaux":["62157"],"centre":{"type":"Point","coordinates":[2.5047,50.535]},"surface":781.82,"population":2852,"departement":{"code":"62","nom":"Pas-de-Calais"},"region":{"code":"32","nom":"Hauts-de-France"}},{"nom":"Alquines","code":"62024","codesPostaux":["62850"],"centre":{"type":"Point","coordinates":[1.9964,50.7343]},"surface":1054.11,"population":991,"departement":{"code":"62","nom":"Pas-de-Calais"},"region":{"code":"32","nom":"Hauts-de-France"}},{"nom":"Ambleteuse","code":"62025","codesPostaux":["62164"],"centre":{"type":"Point","coordinates":[1.6198,50.8129]},"surface":564.61,"population":2001,"departement":{"code":"62","nom":"Pas-de-Calais"},"region":{"code":"32","nom":"Hauts-de-France"}},{"nom":"Ambricourt","code":"62026","codesPostaux":["62310"],"centre":{"type":"Point","coordinates":[2.1728,50.4668]},"surface":340.39,"population":119,"departement":{"code":"62","nom":"Pas-de-Calais"},"region":{"code":"32","nom":"Hauts-de-France"}},{"nom":"Ambrines","code":"62027","codesPostaux":["62127"],"centre":{"type":"Point","coordinates":[2.466,50.3082]},"surface":456.9,"population":212,"departement":{"code":"62","nom":"Pas-de-Calais"},"region":{"code":"32","nom":"Hauts-de-France"}},{"nom":"Ames","code":"62028","codesPostaux":["62190"],"centre":{"type":"Point","coordinates":[2.4149,50.5345]},"surface":365.08,"population":643,"departement":{"code":"62","nom":"Pas-de-Calais"},"region":{"code":"32","nom":"Hauts-de-France"}},{"nom":"Amettes","code":"62029","codesPostaux":["62260"],"centre":{"type":"Point","coordinates":[2.3961,50.528]},"surface":687.1,"population":464,"departement":{"code":"62","nom":"Pas-de-Calais"},"region":{"code":"32","nom":"Hauts-de-France"}},{"nom":"Amplier","code":"62030","codesPostaux":["62760"],"centre":{"type":"Point","coordinates":[2.3985,50.1357]},"surface":866.88,"population":304,"departement":{"code":"62","nom":"Pas-de-Calais"},"region":{"code":"32","nom":"Hauts-de-France"}},{"nom":"Andres","code":"62031","codesPostaux":["62340"],"centre":{"type":"Point","coordinates":[1.9191,50.865]},"surface":724.98,"population":1539,"departement":{"code":"62","nom":"Pas-de-Calais"},"region":{"code":"32","nom":"Hauts-de-France"}},{"nom":"Angres","code":"62032","codesPostaux":["62143"],"centre":{"type":"Point","coordinates":[2.7538,50.4119]},"surface":483.01,"population":4842,"departement":{"code":"62","nom":"Pas-de-Calais"},"region":{"code":"32","nom":"Hauts-de-France"}},{"nom":"Annay","code":"62033","codesPostaux":["62880"],"centre":{"type":"Point","coordinates":[2.8849,50.4606]},"surface":432.37,"population":4517,"departement":{"code":"62","nom":"Pas-de-Calais"},"region":{"code":"32","nom":"Hauts-de-France"}},{"nom":"Annequin","code":"62034","codesPostaux":["62149"],"centre":{"type":"Point","coordinates":[2.718,50.5028]},"surface":397.06,"population":2145,"departement":{"code":"62","nom":"Pas-de-Calais"},"region":{"code":"32","nom":"Hauts-de-France"}},{"nom":"Annezin","code":"62035","codesPostaux":["62232"],"centre":{"type":"Point","coordinates":[2.6166,50.5422]},"surface":604.03,"population":5813,"departement":{"code":"62","nom":"Pas-de-Calais"},"region":{"code":"32","nom":"Hauts-de-France"}},{"nom":"Anvin","code":"62036","codesPostaux":["62134"],"centre":{"type":"Point","coordinates":[2.2614,50.4506]},"surface":788.78,"population":726,"departement":{"code":"62","nom":"Pas-de-Calais"},"region":{"code":"32","nom":"Hauts-de-France"}},{"nom":"Anzin-Saint-Aubin","code":"62037","codesPostaux":["62223"],"centre":{"type":"Point","coordinates":[2.7384,50.3206]},"surface":511.76,"population":2806,"departement":{"code":"62","nom":"Pas-de-Calais"},"region":{"code":"32","nom":"Hauts-de-France"}},{"nom":"Ardres","code":"62038","codesPostaux":["62610"],"centre":{"type":"Point","coordinates":[1.9827,50.8772]},"surface":1362.94,"population":4398,"departement":{"code":"62","nom":"Pas-de-Calais"},"region":{"code":"32","nom":"Hauts-de-France"}},{"nom":"Arleux-en-Gohelle","code":"62039","codesPostaux":["62580"],"centre":{"type":"Point","coordinates":[2.8673,50.3646]},"surface":628.89,"population":909,"departement":{"code":"62","nom":"Pas-de-Calais"},"region":{"code":"32","nom":"Hauts-de-France"}},{"nom":"Arques","code":"62040","codesPostaux":["62510"],"centre":{"type":"Point","coordinates":[2.3177,50.7388]},"surface":2237.2,"population":9655,"departement":{"code":"62","nom":"Pas-de-Calais"},"region":{"code":"32","nom":"Hauts-de-France"}},{"nom":"Arras","code":"62041","codesPostaux":["62000"],"centre":{"type":"Point","coordinates":[2.7679,50.2893]},"surface":1188.11,"population":42600,"departement":{"code":"62","nom":"Pas-de-Calais"},"region":{"code":"32","nom":"Hauts-de-France"}},{"nom":"Athies","code":"62042","codesPostaux":["62223"],"centre":{"type":"Point","coordinates":[2.8416,50.3093]},"surface":432.82,"population":1059,"departement":{"code":"62","nom":"Pas-de-Calais"},"region":{"code":"32","nom":"Hauts-de-France"}},{"nom":"Les Attaques","code":"62043","codesPostaux":["62730"],"centre":{"type":"Point","coordinates":[1.9329,50.9002]},"surface":2066.14,"population":2052,"departement":{"code":"62","nom":"Pas-de-Calais"},"region":{"code":"32","nom":"Hauts-de-France"}},{"nom":"Attin","code":"62044","codesPostaux":["62170"],"centre":{"type":"Point","coordinates":[1.7533,50.4926]},"surface":659.48,"population":853,"departement":{"code":"62","nom":"Pas-de-Calais"},"region":{"code":"32","nom":"Hauts-de-France"}},{"nom":"Aubigny-en-Artois","code":"62045","codesPostaux":["62690"],"centre":{"type":"Point","coordinates":[2.5833,50.3501]},"surface":625.93,"population":1480,"departement":{"code":"62","nom":"Pas-de-Calais"},"region":{"code":"32","nom":"Hauts-de-France"}},{"nom":"Aubin-Saint-Vaast","code":"62046","codesPostaux":["62140"],"centre":{"type":"Point","coordinates":[1.9662,50.3864]},"surface":668.96,"population":734,"departement":{"code":"62","nom":"Pas-de-Calais"},"region":{"code":"32","nom":"Hauts-de-France"}},{"nom":"Aubrometz","code":"62047","codesPostaux":["62390"],"centre":{"type":"Point","coordinates":[2.1761,50.3037]},"surface":272.43,"population":145,"departement":{"code":"62","nom":"Pas-de-Calais"},"region":{"code":"32","nom":"Hauts-de-France"}},{"nom":"Auchel","code":"62048","codesPostaux":["62260"],"centre":{"type":"Point","coordinates":[2.4656,50.5108]},"surface":597.36,"population":10062,"departement":{"code":"62","nom":"Pas-de-Calais"},"region":{"code":"32","nom":"Hauts-de-France"}},{"nom":"Auchy-au-Bois","code":"62049","codesPostaux":["62190"],"centre":{"type":"Point","coordinates":[2.3728,50.5501]},"surface":429,"population":540,"departement":{"code":"62","nom":"Pas-de-Calais"},"region":{"code":"32","nom":"Hauts-de-France"}},{"nom":"Auchy-lès-Hesdin","code":"62050","codesPostaux":["62770"],"centre":{"type":"Point","coordinates":[2.0973,50.4096]},"surface":974.55,"population":1531,"departement":{"code":"62","nom":"Pas-de-Calais"},"region":{"code":"32","nom":"Hauts-de-France"}},{"nom":"Auchy-les-Mines","code":"62051","codesPostaux":["62138"],"centre":{"type":"Point","coordinates":[2.7812,50.5041]},"surface":508.71,"population":4623,"departement":{"code":"62","nom":"Pas-de-Calais"},"region":{"code":"32","nom":"Hauts-de-France"}},{"nom":"Audembert","code":"62052","codesPostaux":["62250"],"centre":{"type":"Point","coordinates":[1.6924,50.8585]},"surface":755.39,"population":447,"departement":{"code":"62","nom":"Pas-de-Calais"},"region":{"code":"32","nom":"Hauts-de-France"}},{"nom":"Audincthun","code":"62053","codesPostaux":["62560"],"centre":{"type":"Point","coordinates":[2.1235,50.5818]},"surface":1521.82,"population":676,"departement":{"code":"62","nom":"Pas-de-Calais"},"region":{"code":"32","nom":"Hauts-de-France"}},{"nom":"Audinghen","code":"62054","codesPostaux":["62179"],"centre":{"type":"Point","coordinates":[1.6142,50.8516]},"surface":1338.74,"population":622,"departement":{"code":"62","nom":"Pas-de-Calais"},"region":{"code":"32","nom":"Hauts-de-France"}},{"nom":"Audrehem","code":"62055","codesPostaux":["62890"],"centre":{"type":"Point","coordinates":[1.983,50.7713]},"surface":926.61,"population":524,"departement":{"code":"62","nom":"Pas-de-Calais"},"region":{"code":"32","nom":"Hauts-de-France"}},{"nom":"Audresselles","code":"62056","codesPostaux":["62164"],"centre":{"type":"Point","coordinates":[1.6131,50.8288]},"surface":575.45,"population":624,"departement":{"code":"62","nom":"Pas-de-Calais"},"region":{"code":"32","nom":"Hauts-de-France"}},{"nom":"Audruicq","code":"62057","codesPostaux":["62370"],"centre":{"type":"Point","coordinates":[2.0858,50.8809]},"surface":1443.08,"population":5388,"departement":{"code":"62","nom":"Pas-de-Calais"},"region":{"code":"32","nom":"Hauts-de-France"}},{"nom":"Aumerval","code":"62058","codesPostaux":["62550"],"centre":{"type":"Point","coordinates":[2.4073,50.5067]},"surface":341.52,"population":200,"departement":{"code":"62","nom":"Pas-de-Calais"},"region":{"code":"32","nom":"Hauts-de-France"}},{"nom":"Autingues","code":"62059","codesPostaux":["62610"],"centre":{"type":"Point","coordinates":[1.9848,50.8433]},"surface":297.81,"population":287,"departement":{"code":"62","nom":"Pas-de-Calais"},"region":{"code":"32","nom":"Hauts-de-France"}},{"nom":"Auxi-le-Château","code":"62060","codesPostaux":["62390"],"centre":{"type":"Point","coordinates":[2.1174,50.2366]},"surface":2727.67,"population":2556,"departement":{"code":"62","nom":"Pas-de-Calais"},"region":{"code":"32","nom":"Hauts-de-France"}},{"nom":"Averdoingt","code":"62061","codesPostaux":["62127"],"centre":{"type":"Point","coordinates":[2.4404,50.3474]},"surface":856.08,"population":291,"departement":{"code":"62","nom":"Pas-de-Calais"},"region":{"code":"32","nom":"Hauts-de-France"}},{"nom":"Avesnes","code":"62062","codesPostaux":["62650"],"centre":{"type":"Point","coordinates":[1.9631,50.5513]},"surface":301.57,"population":52,"departement":{"code":"62","nom":"Pas-de-Calais"},"region":{"code":"32","nom":"Hauts-de-France"}},{"nom":"Avesnes-le-Comte","code":"62063","codesPostaux":["62810"],"centre":{"type":"Point","coordinates":[2.533,50.2688]},"surface":929.89,"population":1795,"departement":{"code":"62","nom":"Pas-de-Calais"},"region":{"code":"32","nom":"Hauts-de-France"}},{"nom":"Avesnes-lès-Bapaume","code":"62064","codesPostaux":["62450"],"centre":{"type":"Point","coordinates":[2.8327,50.1042]},"surface":309.97,"population":165,"departement":{"code":"62","nom":"Pas-de-Calais"},"region":{"code":"32","nom":"Hauts-de-France"}},{"nom":"Avion","code":"62065","codesPostaux":["62210"],"centre":{"type":"Point","coordinates":[2.8243,50.404]},"surface":1300.85,"population":17672,"departement":{"code":"62","nom":"Pas-de-Calais"},"region":{"code":"32","nom":"Hauts-de-France"}},{"nom":"Avondance","code":"62066","codesPostaux":["62310"],"centre":{"type":"Point","coordinates":[2.1002,50.4787]},"surface":222.94,"population":34,"departement":{"code":"62","nom":"Pas-de-Calais"},"region":{"code":"32","nom":"Hauts-de-France"}},{"nom":"Avroult","code":"62067","codesPostaux":["62560"],"centre":{"type":"Point","coordinates":[2.1467,50.6309]},"surface":477.26,"population":567,"departement":{"code":"62","nom":"Pas-de-Calais"},"region":{"code":"32","nom":"Hauts-de-France"}},{"nom":"Ayette","code":"62068","codesPostaux":["62116"],"centre":{"type":"Point","coordinates":[2.7263,50.1705]},"surface":515.86,"population":326,"departement":{"code":"62","nom":"Pas-de-Calais"},"region":{"code":"32","nom":"Hauts-de-France"}},{"nom":"Azincourt","code":"62069","codesPostaux":["62310"],"centre":{"type":"Point","coordinates":[2.1154,50.4574]},"surface":859.39,"population":305,"departement":{"code":"62","nom":"Pas-de-Calais"},"region":{"code":"32","nom":"Hauts-de-France"}},{"nom":"Bailleul-aux-Cornailles","code":"62070","codesPostaux":["62127"],"centre":{"type":"Point","coordinates":[2.4484,50.3723]},"surface":677.98,"population":265,"departement":{"code":"62","nom":"Pas-de-Calais"},"region":{"code":"32","nom":"Hauts-de-France"}},{"nom":"Bailleul-lès-Pernes","code":"62071","codesPostaux":["62550"],"centre":{"type":"Point","coordinates":[2.3805,50.5094]},"surface":354.08,"population":408,"departement":{"code":"62","nom":"Pas-de-Calais"},"region":{"code":"32","nom":"Hauts-de-France"}},{"nom":"Bailleulmont","code":"62072","codesPostaux":["62123"],"centre":{"type":"Point","coordinates":[2.6046,50.2083]},"surface":530.64,"population":217,"departement":{"code":"62","nom":"Pas-de-Calais"},"region":{"code":"32","nom":"Hauts-de-France"}},{"nom":"Bailleul-Sir-Berthoult","code":"62073","codesPostaux":["62580"],"centre":{"type":"Point","coordinates":[2.8436,50.3357]},"surface":931.72,"population":1430,"departement":{"code":"62","nom":"Pas-de-Calais"},"region":{"code":"32","nom":"Hauts-de-France"}},{"nom":"Bailleulval","code":"62074","codesPostaux":["62123"],"centre":{"type":"Point","coordinates":[2.6236,50.2226]},"surface":394.97,"population":230,"departement":{"code":"62","nom":"Pas-de-Calais"},"region":{"code":"32","nom":"Hauts-de-France"}},{"nom":"Baincthun","code":"62075","codesPostaux":["62360"],"centre":{"type":"Point","coordinates":[1.7082,50.6978]},"surface":2682.82,"population":1314,"departement":{"code":"62","nom":"Pas-de-Calais"},"region":{"code":"32","nom":"Hauts-de-France"}},{"nom":"Bainghen","code":"62076","codesPostaux":["62850"],"centre":{"type":"Point","coordinates":[1.9021,50.7518]},"surface":680.71,"population":215,"departement":{"code":"62","nom":"Pas-de-Calais"},"region":{"code":"32","nom":"Hauts-de-France"}},{"nom":"Bajus","code":"62077","codesPostaux":["62150"],"centre":{"type":"Point","coordinates":[2.4714,50.4218]},"surface":297.65,"population":360,"departement":{"code":"62","nom":"Pas-de-Calais"},"region":{"code":"32","nom":"Hauts-de-France"}},{"nom":"Balinghem","code":"62078","codesPostaux":["62610"],"centre":{"type":"Point","coordinates":[1.9375,50.8627]},"surface":579.39,"population":1225,"departement":{"code":"62","nom":"Pas-de-Calais"},"region":{"code":"32","nom":"Hauts-de-France"}},{"nom":"Bancourt","code":"62079","codesPostaux":["62450"],"centre":{"type":"Point","coordinates":[2.8935,50.1033]},"surface":456.9,"population":85,"departement":{"code":"62","nom":"Pas-de-Calais"},"region":{"code":"32","nom":"Hauts-de-France"}},{"nom":"Bapaume","code":"62080","codesPostaux":["62450"],"centre":{"type":"Point","coordinates":[2.8559,50.1018]},"surface":577.97,"population":3733,"departement":{"code":"62","nom":"Pas-de-Calais"},"region":{"code":"32","nom":"Hauts-de-France"}},{"nom":"Baralle","code":"62081","codesPostaux":["62860"],"centre":{"type":"Point","coordinates":[3.0574,50.2107]},"surface":797.15,"population":449,"departement":{"code":"62","nom":"Pas-de-Calais"},"region":{"code":"32","nom":"Hauts-de-France"}},{"nom":"Barastre","code":"62082","codesPostaux":["62124"],"centre":{"type":"Point","coordinates":[2.9386,50.0685]},"surface":763.36,"population":321,"departement":{"code":"62","nom":"Pas-de-Calais"},"region":{"code":"32","nom":"Hauts-de-France"}},{"nom":"Barlin","code":"62083","codesPostaux":["62620"],"centre":{"type":"Point","coordinates":[2.6148,50.4551]},"surface":629.1,"population":7366,"departement":{"code":"62","nom":"Pas-de-Calais"},"region":{"code":"32","nom":"Hauts-de-France"}},{"nom":"Barly","code":"62084","codesPostaux":["62810"],"centre":{"type":"Point","coordinates":[2.5374,50.2486]},"surface":613.6,"population":203,"departement":{"code":"62","nom":"Pas-de-Calais"},"region":{"code":"32","nom":"Hauts-de-France"}},{"nom":"Basseux","code":"62085","codesPostaux":["62123"],"centre":{"type":"Point","coordinates":[2.6463,50.2271]},"surface":338.72,"population":132,"departement":{"code":"62","nom":"Pas-de-Calais"},"region":{"code":"32","nom":"Hauts-de-France"}},{"nom":"Bavincourt","code":"62086","codesPostaux":["62158"],"centre":{"type":"Point","coordinates":[2.567,50.2236]},"surface":763.83,"population":408,"departement":{"code":"62","nom":"Pas-de-Calais"},"region":{"code":"32","nom":"Hauts-de-France"}},{"nom":"Bayenghem-lès-Éperlecques","code":"62087","codesPostaux":["62910"],"centre":{"type":"Point","coordinates":[2.1181,50.8037]},"surface":453.75,"population":1011,"departement":{"code":"62","nom":"Pas-de-Calais"},"region":{"code":"32","nom":"Hauts-de-France"}},{"nom":"Bayenghem-lès-Seninghem","code":"62088","codesPostaux":["62380"],"centre":{"type":"Point","coordinates":[2.0785,50.7052]},"surface":327.46,"population":337,"departement":{"code":"62","nom":"Pas-de-Calais"},"region":{"code":"32","nom":"Hauts-de-France"}},{"nom":"Bazinghen","code":"62089","codesPostaux":["62250"],"centre":{"type":"Point","coordinates":[1.6591,50.8309]},"surface":1327.6,"population":403,"departement":{"code":"62","nom":"Pas-de-Calais"},"region":{"code":"32","nom":"Hauts-de-France"}},{"nom":"Béalencourt","code":"62090","codesPostaux":["62770"],"centre":{"type":"Point","coordinates":[2.1206,50.4359]},"surface":740.05,"population":126,"departement":{"code":"62","nom":"Pas-de-Calais"},"region":{"code":"32","nom":"Hauts-de-France"}},{"nom":"Beaudricourt","code":"62091","codesPostaux":["62810"],"centre":{"type":"Point","coordinates":[2.4082,50.2496]},"surface":457.35,"population":94,"departement":{"code":"62","nom":"Pas-de-Calais"},"region":{"code":"32","nom":"Hauts-de-France"}},{"nom":"Beaufort-Blavincourt","code":"62092","codesPostaux":["62810"],"centre":{"type":"Point","coordinates":[2.4856,50.2751]},"surface":813.41,"population":405,"departement":{"code":"62","nom":"Pas-de-Calais"},"region":{"code":"32","nom":"Hauts-de-France"}},{"nom":"Beaulencourt","code":"62093","codesPostaux":["62450"],"centre":{"type":"Point","coordinates":[2.8726,50.0729]},"surface":490.61,"population":222,"departement":{"code":"62","nom":"Pas-de-Calais"},"region":{"code":"32","nom":"Hauts-de-France"}},{"nom":"Beaumerie-Saint-Martin","code":"62094","codesPostaux":["62170"],"centre":{"type":"Point","coordinates":[1.7929,50.4431]},"surface":928.56,"population":392,"departement":{"code":"62","nom":"Pas-de-Calais"},"region":{"code":"32","nom":"Hauts-de-France"}},{"nom":"Beaumetz-lès-Aire","code":"62095","codesPostaux":["62960"],"centre":{"type":"Point","coordinates":[2.2173,50.5432]},"surface":421.07,"population":235,"departement":{"code":"62","nom":"Pas-de-Calais"},"region":{"code":"32","nom":"Hauts-de-France"}},{"nom":"Beaumetz-lès-Cambrai","code":"62096","codesPostaux":["62124"],"centre":{"type":"Point","coordinates":[2.9825,50.128]},"surface":994.88,"population":548,"departement":{"code":"62","nom":"Pas-de-Calais"},"region":{"code":"32","nom":"Hauts-de-France"}},{"nom":"Beaumetz-lès-Loges","code":"62097","codesPostaux":["62123"],"centre":{"type":"Point","coordinates":[2.6608,50.2463]},"surface":503.9,"population":998,"departement":{"code":"62","nom":"Pas-de-Calais"},"region":{"code":"32","nom":"Hauts-de-France"}},{"nom":"Beaurains","code":"62099","codesPostaux":["62217"],"centre":{"type":"Point","coordinates":[2.7907,50.2595]},"surface":593.82,"population":5515,"departement":{"code":"62","nom":"Pas-de-Calais"},"region":{"code":"32","nom":"Hauts-de-France"}},{"nom":"Beaurainville","code":"62100","codesPostaux":["62990"],"centre":{"type":"Point","coordinates":[1.9027,50.4183]},"surface":1316.39,"population":2050,"departement":{"code":"62","nom":"Pas-de-Calais"},"region":{"code":"32","nom":"Hauts-de-France"}},{"nom":"Beauvois","code":"62101","codesPostaux":["62130"],"centre":{"type":"Point","coordinates":[2.2344,50.3741]},"surface":262.65,"population":133,"departement":{"code":"62","nom":"Pas-de-Calais"},"region":{"code":"32","nom":"Hauts-de-France"}},{"nom":"Bécourt","code":"62102","codesPostaux":["62240"],"centre":{"type":"Point","coordinates":[1.906,50.6383]},"surface":607.23,"population":276,"departement":{"code":"62","nom":"Pas-de-Calais"},"region":{"code":"32","nom":"Hauts-de-France"}},{"nom":"Béhagnies","code":"62103","codesPostaux":["62121"],"centre":{"type":"Point","coordinates":[2.8282,50.1412]},"surface":307.9,"population":127,"departement":{"code":"62","nom":"Pas-de-Calais"},"region":{"code":"32","nom":"Hauts-de-France"}},{"nom":"Bellebrune","code":"62104","codesPostaux":["62142"],"centre":{"type":"Point","coordinates":[1.7758,50.7348]},"surface":545.43,"population":440,"departement":{"code":"62","nom":"Pas-de-Calais"},"region":{"code":"32","nom":"Hauts-de-France"}},{"nom":"Belle-et-Houllefort","code":"62105","codesPostaux":["62142"],"centre":{"type":"Point","coordinates":[1.7671,50.7473]},"surface":926.14,"population":544,"departement":{"code":"62","nom":"Pas-de-Calais"},"region":{"code":"32","nom":"Hauts-de-France"}},{"nom":"Bellonne","code":"62106","codesPostaux":["62490"],"centre":{"type":"Point","coordinates":[3.0435,50.3013]},"surface":204.37,"population":210,"departement":{"code":"62","nom":"Pas-de-Calais"},"region":{"code":"32","nom":"Hauts-de-France"}},{"nom":"Bénifontaine","code":"62107","codesPostaux":["62410"],"centre":{"type":"Point","coordinates":[2.8285,50.478]},"surface":415.82,"population":343,"departement":{"code":"62","nom":"Pas-de-Calais"},"region":{"code":"32","nom":"Hauts-de-France"}},{"nom":"Berck","code":"62108","codesPostaux":["62600"],"centre":{"type":"Point","coordinates":[1.581,50.4147]},"surface":1449.42,"population":13298,"departement":{"code":"62","nom":"Pas-de-Calais"},"region":{"code":"32","nom":"Hauts-de-France"}},{"nom":"Bergueneuse","code":"62109","codesPostaux":["62134"],"centre":{"type":"Point","coordinates":[2.2498,50.4676]},"surface":280.11,"population":217,"departement":{"code":"62","nom":"Pas-de-Calais"},"region":{"code":"32","nom":"Hauts-de-France"}},{"nom":"Berlencourt-le-Cauroy","code":"62111","codesPostaux":["62810"],"centre":{"type":"Point","coordinates":[2.4251,50.2751]},"surface":762.95,"population":276,"departement":{"code":"62","nom":"Pas-de-Calais"},"region":{"code":"32","nom":"Hauts-de-France"}},{"nom":"Berles-au-Bois","code":"62112","codesPostaux":["62123"],"centre":{"type":"Point","coordinates":[2.6297,50.1988]},"surface":888.39,"population":523,"departement":{"code":"62","nom":"Pas-de-Calais"},"region":{"code":"32","nom":"Hauts-de-France"}},{"nom":"Berles-Monchel","code":"62113","codesPostaux":["62690"],"centre":{"type":"Point","coordinates":[2.5232,50.3471]},"surface":847.95,"population":492,"departement":{"code":"62","nom":"Pas-de-Calais"},"region":{"code":"32","nom":"Hauts-de-France"}},{"nom":"Bermicourt","code":"62114","codesPostaux":["62130"],"centre":{"type":"Point","coordinates":[2.2321,50.4076]},"surface":553.53,"population":169,"departement":{"code":"62","nom":"Pas-de-Calais"},"region":{"code":"32","nom":"Hauts-de-France"}},{"nom":"Berneville","code":"62115","codesPostaux":["62123"],"centre":{"type":"Point","coordinates":[2.6723,50.2632]},"surface":568.2,"population":465,"departement":{"code":"62","nom":"Pas-de-Calais"},"region":{"code":"32","nom":"Hauts-de-France"}},{"nom":"Bernieulles","code":"62116","codesPostaux":["62170"],"centre":{"type":"Point","coordinates":[1.773,50.5554]},"surface":584.69,"population":171,"departement":{"code":"62","nom":"Pas-de-Calais"},"region":{"code":"32","nom":"Hauts-de-France"}},{"nom":"Bertincourt","code":"62117","codesPostaux":["62124"],"centre":{"type":"Point","coordinates":[2.9794,50.0894]},"surface":751.24,"population":915,"departement":{"code":"62","nom":"Pas-de-Calais"},"region":{"code":"32","nom":"Hauts-de-France"}},{"nom":"Béthonsart","code":"62118","codesPostaux":["62690"],"centre":{"type":"Point","coordinates":[2.5428,50.3818]},"surface":423.77,"population":144,"departement":{"code":"62","nom":"Pas-de-Calais"},"region":{"code":"32","nom":"Hauts-de-France"}},{"nom":"Béthune","code":"62119","codesPostaux":["62400"],"centre":{"type":"Point","coordinates":[2.6438,50.5299]},"surface":945.65,"population":24992,"departement":{"code":"62","nom":"Pas-de-Calais"},"region":{"code":"32","nom":"Hauts-de-France"}},{"nom":"Beugin","code":"62120","codesPostaux":["62150"],"centre":{"type":"Point","coordinates":[2.5077,50.4415]},"surface":503.63,"population":464,"departement":{"code":"62","nom":"Pas-de-Calais"},"region":{"code":"32","nom":"Hauts-de-France"}},{"nom":"Beugnâtre","code":"62121","codesPostaux":["62450"],"centre":{"type":"Point","coordinates":[2.8757,50.1313]},"surface":397.44,"population":182,"departement":{"code":"62","nom":"Pas-de-Calais"},"region":{"code":"32","nom":"Hauts-de-France"}},{"nom":"Beugny","code":"62122","codesPostaux":["62124"],"centre":{"type":"Point","coordinates":[2.9336,50.118]},"surface":575.54,"population":359,"departement":{"code":"62","nom":"Pas-de-Calais"},"region":{"code":"32","nom":"Hauts-de-France"}},{"nom":"Beussent","code":"62123","codesPostaux":["62170"],"centre":{"type":"Point","coordinates":[1.8158,50.5584]},"surface":1598.94,"population":541,"departement":{"code":"62","nom":"Pas-de-Calais"},"region":{"code":"32","nom":"Hauts-de-France"}},{"nom":"Beutin","code":"62124","codesPostaux":["62170"],"centre":{"type":"Point","coordinates":[1.7283,50.497]},"surface":296.12,"population":439,"departement":{"code":"62","nom":"Pas-de-Calais"},"region":{"code":"32","nom":"Hauts-de-France"}},{"nom":"Beuvrequen","code":"62125","codesPostaux":["62250"],"centre":{"type":"Point","coordinates":[1.6755,50.7978]},"surface":473.43,"population":459,"departement":{"code":"62","nom":"Pas-de-Calais"},"region":{"code":"32","nom":"Hauts-de-France"}},{"nom":"Beuvry","code":"62126","codesPostaux":["62660"],"centre":{"type":"Point","coordinates":[2.6913,50.5347]},"surface":1681.6,"population":9111,"departement":{"code":"62","nom":"Pas-de-Calais"},"region":{"code":"32","nom":"Hauts-de-France"}},{"nom":"Bezinghem","code":"62127","codesPostaux":["62650"],"centre":{"type":"Point","coordinates":[1.8591,50.5987]},"surface":1323.48,"population":379,"departement":{"code":"62","nom":"Pas-de-Calais"},"region":{"code":"32","nom":"Hauts-de-France"}},{"nom":"Biache-Saint-Vaast","code":"62128","codesPostaux":["62118"],"centre":{"type":"Point","coordinates":[2.9418,50.3114]},"surface":929.04,"population":4481,"departement":{"code":"62","nom":"Pas-de-Calais"},"region":{"code":"32","nom":"Hauts-de-France"}},{"nom":"Biefvillers-lès-Bapaume","code":"62129","codesPostaux":["62450"],"centre":{"type":"Point","coordinates":[2.8245,50.1199]},"surface":408.11,"population":95,"departement":{"code":"62","nom":"Pas-de-Calais"},"region":{"code":"32","nom":"Hauts-de-France"}},{"nom":"Bienvillers-au-Bois","code":"62130","codesPostaux":["62111"],"centre":{"type":"Point","coordinates":[2.6081,50.1667]},"surface":738.09,"population":659,"departement":{"code":"62","nom":"Pas-de-Calais"},"region":{"code":"32","nom":"Hauts-de-France"}},{"nom":"Bihucourt","code":"62131","codesPostaux":["62121"],"centre":{"type":"Point","coordinates":[2.8,50.1276]},"surface":469.76,"population":333,"departement":{"code":"62","nom":"Pas-de-Calais"},"region":{"code":"32","nom":"Hauts-de-France"}},{"nom":"Billy-Berclau","code":"62132","codesPostaux":["62138"],"centre":{"type":"Point","coordinates":[2.8666,50.5218]},"surface":734.92,"population":5059,"departement":{"code":"62","nom":"Pas-de-Calais"},"region":{"code":"32","nom":"Hauts-de-France"}},{"nom":"Billy-Montigny","code":"62133","codesPostaux":["62420"],"centre":{"type":"Point","coordinates":[2.9068,50.4152]},"surface":272.32,"population":8117,"departement":{"code":"62","nom":"Pas-de-Calais"},"region":{"code":"32","nom":"Hauts-de-France"}},{"nom":"Bimont","code":"62134","codesPostaux":["62650"],"centre":{"type":"Point","coordinates":[1.909,50.5375]},"surface":682.05,"population":105,"departement":{"code":"62","nom":"Pas-de-Calais"},"region":{"code":"32","nom":"Hauts-de-France"}},{"nom":"Blairville","code":"62135","codesPostaux":["62173"],"centre":{"type":"Point","coordinates":[2.7143,50.2192]},"surface":459.67,"population":306,"departement":{"code":"62","nom":"Pas-de-Calais"},"region":{"code":"32","nom":"Hauts-de-France"}},{"nom":"Blangerval-Blangermont","code":"62137","codesPostaux":["62270"],"centre":{"type":"Point","coordinates":[2.2198,50.3258]},"surface":464.23,"population":91,"departement":{"code":"62","nom":"Pas-de-Calais"},"region":{"code":"32","nom":"Hauts-de-France"}},{"nom":"Blangy-sur-Ternoise","code":"62138","codesPostaux":["62770"],"centre":{"type":"Point","coordinates":[2.1767,50.4252]},"surface":1160.08,"population":704,"departement":{"code":"62","nom":"Pas-de-Calais"},"region":{"code":"32","nom":"Hauts-de-France"}},{"nom":"Blendecques","code":"62139","codesPostaux":["62575"],"centre":{"type":"Point","coordinates":[2.2816,50.7183]},"surface":958.6,"population":4908,"departement":{"code":"62","nom":"Pas-de-Calais"},"region":{"code":"32","nom":"Hauts-de-France"}},{"nom":"Bléquin","code":"62140","codesPostaux":["62380"],"centre":{"type":"Point","coordinates":[1.973,50.6653]},"surface":865.59,"population":487,"departement":{"code":"62","nom":"Pas-de-Calais"},"region":{"code":"32","nom":"Hauts-de-France"}},{"nom":"Blessy","code":"62141","codesPostaux":["62120"],"centre":{"type":"Point","coordinates":[2.332,50.6164]},"surface":535.75,"population":901,"departement":{"code":"62","nom":"Pas-de-Calais"},"region":{"code":"32","nom":"Hauts-de-France"}},{"nom":"Blingel","code":"62142","codesPostaux":["62770"],"centre":{"type":"Point","coordinates":[2.1502,50.4063]},"surface":320.84,"population":158,"departement":{"code":"62","nom":"Pas-de-Calais"},"region":{"code":"32","nom":"Hauts-de-France"}},{"nom":"Boffles","code":"62143","codesPostaux":["62390"],"centre":{"type":"Point","coordinates":[2.2011,50.2561]},"surface":345.58,"population":48,"departement":{"code":"62","nom":"Pas-de-Calais"},"region":{"code":"32","nom":"Hauts-de-France"}},{"nom":"Boiry-Becquerelle","code":"62144","codesPostaux":["62128"],"centre":{"type":"Point","coordinates":[2.8229,50.2133]},"surface":459.66,"population":469,"departement":{"code":"62","nom":"Pas-de-Calais"},"region":{"code":"32","nom":"Hauts-de-France"}},{"nom":"Boiry-Notre-Dame","code":"62145","codesPostaux":["62156"],"centre":{"type":"Point","coordinates":[2.9414,50.2746]},"surface":619.82,"population":437,"departement":{"code":"62","nom":"Pas-de-Calais"},"region":{"code":"32","nom":"Hauts-de-France"}},{"nom":"Boiry-Saint-Martin","code":"62146","codesPostaux":["62175"],"centre":{"type":"Point","coordinates":[2.7587,50.1925]},"surface":351.2,"population":263,"departement":{"code":"62","nom":"Pas-de-Calais"},"region":{"code":"32","nom":"Hauts-de-France"}},{"nom":"Boiry-Sainte-Rictrude","code":"62147","codesPostaux":["62175"],"centre":{"type":"Point","coordinates":[2.7474,50.2003]},"surface":586.72,"population":394,"departement":{"code":"62","nom":"Pas-de-Calais"},"region":{"code":"32","nom":"Hauts-de-France"}},{"nom":"Bois-Bernard","code":"62148","codesPostaux":["62320"],"centre":{"type":"Point","coordinates":[2.9141,50.376]},"surface":395.75,"population":827,"departement":{"code":"62","nom":"Pas-de-Calais"},"region":{"code":"32","nom":"Hauts-de-France"}},{"nom":"Boisdinghem","code":"62149","codesPostaux":["62500"],"centre":{"type":"Point","coordinates":[2.0941,50.7493]},"surface":315.58,"population":250,"departement":{"code":"62","nom":"Pas-de-Calais"},"region":{"code":"32","nom":"Hauts-de-France"}},{"nom":"Boisjean","code":"62150","codesPostaux":["62170"],"centre":{"type":"Point","coordinates":[1.7843,50.4044]},"surface":1272.45,"population":498,"departement":{"code":"62","nom":"Pas-de-Calais"},"region":{"code":"32","nom":"Hauts-de-France"}},{"nom":"Boisleux-au-Mont","code":"62151","codesPostaux":["62175"],"centre":{"type":"Point","coordinates":[2.7771,50.2112]},"surface":471.89,"population":514,"departement":{"code":"62","nom":"Pas-de-Calais"},"region":{"code":"32","nom":"Hauts-de-France"}},{"nom":"Boisleux-Saint-Marc","code":"62152","codesPostaux":["62175"],"centre":{"type":"Point","coordinates":[2.7952,50.213]},"surface":339.81,"population":252,"departement":{"code":"62","nom":"Pas-de-Calais"},"region":{"code":"32","nom":"Hauts-de-France"}},{"nom":"Bomy","code":"62153","codesPostaux":["62960"],"centre":{"type":"Point","coordinates":[2.2241,50.571]},"surface":1452.79,"population":640,"departement":{"code":"62","nom":"Pas-de-Calais"},"region":{"code":"32","nom":"Hauts-de-France"}},{"nom":"Bonnières","code":"62154","codesPostaux":["62270"],"centre":{"type":"Point","coordinates":[2.2774,50.2372]},"surface":2709.27,"population":675,"departement":{"code":"62","nom":"Pas-de-Calais"},"region":{"code":"32","nom":"Hauts-de-France"}},{"nom":"Bonningues-lès-Ardres","code":"62155","codesPostaux":["62890"],"centre":{"type":"Point","coordinates":[2.0206,50.7767]},"surface":1067.07,"population":628,"departement":{"code":"62","nom":"Pas-de-Calais"},"region":{"code":"32","nom":"Hauts-de-France"}},{"nom":"Bonningues-lès-Calais","code":"62156","codesPostaux":["62340"],"centre":{"type":"Point","coordinates":[1.7681,50.8947]},"surface":855.89,"population":585,"departement":{"code":"62","nom":"Pas-de-Calais"},"region":{"code":"32","nom":"Hauts-de-France"}},{"nom":"Boubers-lès-Hesmond","code":"62157","codesPostaux":["62990"],"centre":{"type":"Point","coordinates":[1.9476,50.48]},"surface":174.21,"population":73,"departement":{"code":"62","nom":"Pas-de-Calais"},"region":{"code":"32","nom":"Hauts-de-France"}},{"nom":"Boubers-sur-Canche","code":"62158","codesPostaux":["62270"],"centre":{"type":"Point","coordinates":[2.2332,50.2917]},"surface":921.89,"population":575,"departement":{"code":"62","nom":"Pas-de-Calais"},"region":{"code":"32","nom":"Hauts-de-France"}},{"nom":"Boulogne-sur-Mer","code":"62160","codesPostaux":["62200"],"centre":{"type":"Point","coordinates":[1.6062,50.7303]},"surface":777.12,"population":40910,"departement":{"code":"62","nom":"Pas-de-Calais"},"region":{"code":"32","nom":"Hauts-de-France"}},{"nom":"Bouquehault","code":"62161","codesPostaux":["62340"],"centre":{"type":"Point","coordinates":[1.9005,50.8148]},"surface":810.08,"population":790,"departement":{"code":"62","nom":"Pas-de-Calais"},"region":{"code":"32","nom":"Hauts-de-France"}},{"nom":"Bourecq","code":"62162","codesPostaux":["62190"],"centre":{"type":"Point","coordinates":[2.4382,50.5781]},"surface":403.39,"population":582,"departement":{"code":"62","nom":"Pas-de-Calais"},"region":{"code":"32","nom":"Hauts-de-France"}},{"nom":"Bouret-sur-Canche","code":"62163","codesPostaux":["62270"],"centre":{"type":"Point","coordinates":[2.3239,50.2659]},"surface":499.89,"population":248,"departement":{"code":"62","nom":"Pas-de-Calais"},"region":{"code":"32","nom":"Hauts-de-France"}},{"nom":"Bourlon","code":"62164","codesPostaux":["62860"],"centre":{"type":"Point","coordinates":[3.1239,50.181]},"surface":1220.14,"population":1140,"departement":{"code":"62","nom":"Pas-de-Calais"},"region":{"code":"32","nom":"Hauts-de-France"}},{"nom":"Bournonville","code":"62165","codesPostaux":["62240"],"centre":{"type":"Point","coordinates":[1.8415,50.6971]},"surface":877.8,"population":229,"departement":{"code":"62","nom":"Pas-de-Calais"},"region":{"code":"32","nom":"Hauts-de-France"}},{"nom":"Bours","code":"62166","codesPostaux":["62550"],"centre":{"type":"Point","coordinates":[2.4058,50.445]},"surface":1202.45,"population":600,"departement":{"code":"62","nom":"Pas-de-Calais"},"region":{"code":"32","nom":"Hauts-de-France"}},{"nom":"Boursin","code":"62167","codesPostaux":["62132"],"centre":{"type":"Point","coordinates":[1.8207,50.7714]},"surface":765.01,"population":248,"departement":{"code":"62","nom":"Pas-de-Calais"},"region":{"code":"32","nom":"Hauts-de-France"}},{"nom":"Bourthes","code":"62168","codesPostaux":["62650"],"centre":{"type":"Point","coordinates":[1.936,50.6113]},"surface":2235.76,"population":842,"departement":{"code":"62","nom":"Pas-de-Calais"},"region":{"code":"32","nom":"Hauts-de-France"}},{"nom":"Bouvelinghem","code":"62169","codesPostaux":["62380"],"centre":{"type":"Point","coordinates":[2.0382,50.7338]},"surface":638.83,"population":251,"departement":{"code":"62","nom":"Pas-de-Calais"},"region":{"code":"32","nom":"Hauts-de-France"}},{"nom":"Bouvigny-Boyeffles","code":"62170","codesPostaux":["62172"],"centre":{"type":"Point","coordinates":[2.6757,50.4232]},"surface":912.42,"population":2371,"departement":{"code":"62","nom":"Pas-de-Calais"},"region":{"code":"32","nom":"Hauts-de-France"}},{"nom":"Boyaval","code":"62171","codesPostaux":["62134"],"centre":{"type":"Point","coordinates":[2.3113,50.4723]},"surface":545.14,"population":129,"departement":{"code":"62","nom":"Pas-de-Calais"},"region":{"code":"32","nom":"Hauts-de-France"}},{"nom":"Boyelles","code":"62172","codesPostaux":["62128"],"centre":{"type":"Point","coordinates":[2.8206,50.1955]},"surface":412.08,"population":364,"departement":{"code":"62","nom":"Pas-de-Calais"},"region":{"code":"32","nom":"Hauts-de-France"}},{"nom":"Brebières","code":"62173","codesPostaux":["62117"],"centre":{"type":"Point","coordinates":[3.0216,50.3387]},"surface":1075.52,"population":5169,"departement":{"code":"62","nom":"Pas-de-Calais"},"region":{"code":"32","nom":"Hauts-de-France"}},{"nom":"Brêmes","code":"62174","codesPostaux":["62610"],"centre":{"type":"Point","coordinates":[1.956,50.8469]},"surface":729.73,"population":1297,"departement":{"code":"62","nom":"Pas-de-Calais"},"region":{"code":"32","nom":"Hauts-de-France"}},{"nom":"Brévillers","code":"62175","codesPostaux":["62140"],"centre":{"type":"Point","coordinates":[2.0214,50.3475]},"surface":304.93,"population":158,"departement":{"code":"62","nom":"Pas-de-Calais"},"region":{"code":"32","nom":"Hauts-de-France"}},{"nom":"Bréxent-Énocq","code":"62176","codesPostaux":["62170"],"centre":{"type":"Point","coordinates":[1.7235,50.5066]},"surface":727.21,"population":639,"departement":{"code":"62","nom":"Pas-de-Calais"},"region":{"code":"32","nom":"Hauts-de-France"}},{"nom":"Brimeux","code":"62177","codesPostaux":["62170"],"centre":{"type":"Point","coordinates":[1.837,50.4353]},"surface":1067.84,"population":866,"departement":{"code":"62","nom":"Pas-de-Calais"},"region":{"code":"32","nom":"Hauts-de-France"}},{"nom":"Bruay-la-Buissière","code":"62178","codesPostaux":["62700"],"centre":{"type":"Point","coordinates":[2.5505,50.4891]},"surface":1642.51,"population":21827,"departement":{"code":"62","nom":"Pas-de-Calais"},"region":{"code":"32","nom":"Hauts-de-France"}},{"nom":"Brunembert","code":"62179","codesPostaux":["62240"],"centre":{"type":"Point","coordinates":[1.8856,50.7165]},"surface":619.31,"population":401,"departement":{"code":"62","nom":"Pas-de-Calais"},"region":{"code":"32","nom":"Hauts-de-France"}},{"nom":"Brias","code":"62180","codesPostaux":["62130"],"centre":{"type":"Point","coordinates":[2.3857,50.4099]},"surface":775.44,"population":295,"departement":{"code":"62","nom":"Pas-de-Calais"},"region":{"code":"32","nom":"Hauts-de-France"}},{"nom":"Bucquoy","code":"62181","codesPostaux":["62116"],"centre":{"type":"Point","coordinates":[2.7003,50.1496]},"surface":2075.96,"population":1480,"departement":{"code":"62","nom":"Pas-de-Calais"},"region":{"code":"32","nom":"Hauts-de-France"}},{"nom":"Buire-au-Bois","code":"62182","codesPostaux":["62390"],"centre":{"type":"Point","coordinates":[2.1568,50.2653]},"surface":1157.06,"population":238,"departement":{"code":"62","nom":"Pas-de-Calais"},"region":{"code":"32","nom":"Hauts-de-France"}},{"nom":"Buire-le-Sec","code":"62183","codesPostaux":["62870"],"centre":{"type":"Point","coordinates":[1.8203,50.3927]},"surface":1340.61,"population":756,"departement":{"code":"62","nom":"Pas-de-Calais"},"region":{"code":"32","nom":"Hauts-de-France"}},{"nom":"Buissy","code":"62184","codesPostaux":["62860"],"centre":{"type":"Point","coordinates":[3.0291,50.2026]},"surface":688.15,"population":290,"departement":{"code":"62","nom":"Pas-de-Calais"},"region":{"code":"32","nom":"Hauts-de-France"}},{"nom":"Bullecourt","code":"62185","codesPostaux":["62128"],"centre":{"type":"Point","coordinates":[2.927,50.1921]},"surface":637.14,"population":227,"departement":{"code":"62","nom":"Pas-de-Calais"},"region":{"code":"32","nom":"Hauts-de-France"}},{"nom":"Bully-les-Mines","code":"62186","codesPostaux":["62160"],"centre":{"type":"Point","coordinates":[2.7209,50.4466]},"surface":781.33,"population":12221,"departement":{"code":"62","nom":"Pas-de-Calais"},"region":{"code":"32","nom":"Hauts-de-France"}},{"nom":"Buneville","code":"62187","codesPostaux":["62130"],"centre":{"type":"Point","coordinates":[2.3503,50.324]},"surface":380.72,"population":181,"departement":{"code":"62","nom":"Pas-de-Calais"},"region":{"code":"32","nom":"Hauts-de-France"}},{"nom":"Burbure","code":"62188","codesPostaux":["62151"],"centre":{"type":"Point","coordinates":[2.4626,50.5332]},"surface":552.46,"population":2819,"departement":{"code":"62","nom":"Pas-de-Calais"},"region":{"code":"32","nom":"Hauts-de-France"}},{"nom":"Bus","code":"62189","codesPostaux":["62124"],"centre":{"type":"Point","coordinates":[2.9666,50.0628]},"surface":324.3,"population":133,"departement":{"code":"62","nom":"Pas-de-Calais"},"region":{"code":"32","nom":"Hauts-de-France"}},{"nom":"Busnes","code":"62190","codesPostaux":["62350"],"centre":{"type":"Point","coordinates":[2.5119,50.5897]},"surface":951.99,"population":1245,"departement":{"code":"62","nom":"Pas-de-Calais"},"region":{"code":"32","nom":"Hauts-de-France"}},{"nom":"Caffiers","code":"62191","codesPostaux":["62132"],"centre":{"type":"Point","coordinates":[1.8117,50.8453]},"surface":480.29,"population":727,"departement":{"code":"62","nom":"Pas-de-Calais"},"region":{"code":"32","nom":"Hauts-de-France"}},{"nom":"Cagnicourt","code":"62192","codesPostaux":["62182"],"centre":{"type":"Point","coordinates":[2.9975,50.2087]},"surface":952.64,"population":424,"departement":{"code":"62","nom":"Pas-de-Calais"},"region":{"code":"32","nom":"Hauts-de-France"}},{"nom":"Calais","code":"62193","codesPostaux":["62100"],"centre":{"type":"Point","coordinates":[1.869,50.9523]},"surface":3666.77,"population":67380,"departement":{"code":"62","nom":"Pas-de-Calais"},"region":{"code":"32","nom":"Hauts-de-France"}},{"nom":"Calonne-Ricouart","code":"62194","codesPostaux":["62470"],"centre":{"type":"Point","coordinates":[2.4861,50.4888]},"surface":461.36,"population":5463,"departement":{"code":"62","nom":"Pas-de-Calais"},"region":{"code":"32","nom":"Hauts-de-France"}},{"nom":"Calonne-sur-la-Lys","code":"62195","codesPostaux":["62350"],"centre":{"type":"Point","coordinates":[2.6059,50.6157]},"surface":1090.98,"population":1560,"departement":{"code":"62","nom":"Pas-de-Calais"},"region":{"code":"32","nom":"Hauts-de-France"}},{"nom":"La Calotterie","code":"62196","codesPostaux":["62170"],"centre":{"type":"Point","coordinates":[1.7204,50.4799]},"surface":947.05,"population":593,"departement":{"code":"62","nom":"Pas-de-Calais"},"region":{"code":"32","nom":"Hauts-de-France"}},{"nom":"Camblain-Châtelain","code":"62197","codesPostaux":["62470"],"centre":{"type":"Point","coordinates":[2.4515,50.4771]},"surface":991.11,"population":1770,"departement":{"code":"62","nom":"Pas-de-Calais"},"region":{"code":"32","nom":"Hauts-de-France"}},{"nom":"Cambligneul","code":"62198","codesPostaux":["62690"],"centre":{"type":"Point","coordinates":[2.6108,50.3788]},"surface":473.29,"population":341,"departement":{"code":"62","nom":"Pas-de-Calais"},"region":{"code":"32","nom":"Hauts-de-France"}},{"nom":"Camblain-l'Abbé","code":"62199","codesPostaux":["62690"],"centre":{"type":"Point","coordinates":[2.6369,50.3759]},"surface":561.85,"population":675,"departement":{"code":"62","nom":"Pas-de-Calais"},"region":{"code":"32","nom":"Hauts-de-France"}},{"nom":"Cambrin","code":"62200","codesPostaux":["62149"],"centre":{"type":"Point","coordinates":[2.738,50.5104]},"surface":178.21,"population":1228,"departement":{"code":"62","nom":"Pas-de-Calais"},"region":{"code":"32","nom":"Hauts-de-France"}},{"nom":"Camiers","code":"62201","codesPostaux":["62176"],"centre":{"type":"Point","coordinates":[1.6128,50.5606]},"surface":1599.01,"population":2683,"departement":{"code":"62","nom":"Pas-de-Calais"},"region":{"code":"32","nom":"Hauts-de-France"}},{"nom":"Campagne-lès-Boulonnais","code":"62202","codesPostaux":["62650"],"centre":{"type":"Point","coordinates":[1.9974,50.6202]},"surface":1331.76,"population":685,"departement":{"code":"62","nom":"Pas-de-Calais"},"region":{"code":"32","nom":"Hauts-de-France"}},{"nom":"Campagne-lès-Guines","code":"62203","codesPostaux":["62340"],"centre":{"type":"Point","coordinates":[1.8997,50.8371]},"surface":572.42,"population":426,"departement":{"code":"62","nom":"Pas-de-Calais"},"region":{"code":"32","nom":"Hauts-de-France"}},{"nom":"Campagne-lès-Hesdin","code":"62204","codesPostaux":["62870"],"centre":{"type":"Point","coordinates":[1.8601,50.4009]},"surface":1567.22,"population":1945,"departement":{"code":"62","nom":"Pas-de-Calais"},"region":{"code":"32","nom":"Hauts-de-France"}},{"nom":"Campagne-lès-Wardrecques","code":"62205","codesPostaux":["62120"],"centre":{"type":"Point","coordinates":[2.3339,50.7127]},"surface":465.73,"population":1294,"departement":{"code":"62","nom":"Pas-de-Calais"},"region":{"code":"32","nom":"Hauts-de-France"}},{"nom":"Campigneulles-les-Grandes","code":"62206","codesPostaux":["62170"],"centre":{"type":"Point","coordinates":[1.7069,50.4323]},"surface":536.31,"population":281,"departement":{"code":"62","nom":"Pas-de-Calais"},"region":{"code":"32","nom":"Hauts-de-France"}},{"nom":"Campigneulles-les-Petites","code":"62207","codesPostaux":["62170"],"centre":{"type":"Point","coordinates":[1.7353,50.4399]},"surface":620.66,"population":536,"departement":{"code":"62","nom":"Pas-de-Calais"},"region":{"code":"32","nom":"Hauts-de-France"}},{"nom":"Canettemont","code":"62208","codesPostaux":["62270"],"centre":{"type":"Point","coordinates":[2.363,50.2792]},"surface":177.48,"population":69,"departement":{"code":"62","nom":"Pas-de-Calais"},"region":{"code":"32","nom":"Hauts-de-France"}},{"nom":"Canlers","code":"62209","codesPostaux":["62310"],"centre":{"type":"Point","coordinates":[2.1462,50.4861]},"surface":362.45,"population":158,"departement":{"code":"62","nom":"Pas-de-Calais"},"region":{"code":"32","nom":"Hauts-de-France"}},{"nom":"Capelle-Fermont","code":"62211","codesPostaux":["62690"],"centre":{"type":"Point","coordinates":[2.6182,50.3457]},"surface":297.96,"population":219,"departement":{"code":"62","nom":"Pas-de-Calais"},"region":{"code":"32","nom":"Hauts-de-France"}},{"nom":"Capelle-lès-Hesdin","code":"62212","codesPostaux":["62140"],"centre":{"type":"Point","coordinates":[1.99,50.3453]},"surface":560.56,"population":508,"departement":{"code":"62","nom":"Pas-de-Calais"},"region":{"code":"32","nom":"Hauts-de-France"}},{"nom":"Carency","code":"62213","codesPostaux":["62144"],"centre":{"type":"Point","coordinates":[2.6959,50.3809]},"surface":851.75,"population":801,"departement":{"code":"62","nom":"Pas-de-Calais"},"region":{"code":"32","nom":"Hauts-de-France"}},{"nom":"Carly","code":"62214","codesPostaux":["62830"],"centre":{"type":"Point","coordinates":[1.7116,50.6577]},"surface":632.01,"population":612,"departement":{"code":"62","nom":"Pas-de-Calais"},"region":{"code":"32","nom":"Hauts-de-France"}},{"nom":"Carvin","code":"62215","codesPostaux":["62220"],"centre":{"type":"Point","coordinates":[2.9516,50.4903]},"surface":2095.15,"population":17852,"departement":{"code":"62","nom":"Pas-de-Calais"},"region":{"code":"32","nom":"Hauts-de-France"}},{"nom":"La Cauchie","code":"62216","codesPostaux":["62158"],"centre":{"type":"Point","coordinates":[2.5822,50.205]},"surface":221.63,"population":209,"departement":{"code":"62","nom":"Pas-de-Calais"},"region":{"code":"32","nom":"Hauts-de-France"}},{"nom":"Cauchy-à-la-Tour","code":"62217","codesPostaux":["62260"],"centre":{"type":"Point","coordinates":[2.4505,50.5057]},"surface":313.52,"population":2702,"departement":{"code":"62","nom":"Pas-de-Calais"},"region":{"code":"32","nom":"Hauts-de-France"}},{"nom":"Caucourt","code":"62218","codesPostaux":["62150"],"centre":{"type":"Point","coordinates":[2.5712,50.396]},"surface":554.54,"population":333,"departement":{"code":"62","nom":"Pas-de-Calais"},"region":{"code":"32","nom":"Hauts-de-France"}},{"nom":"Caumont","code":"62219","codesPostaux":["62140"],"centre":{"type":"Point","coordinates":[2.0305,50.2939]},"surface":954.23,"population":155,"departement":{"code":"62","nom":"Pas-de-Calais"},"region":{"code":"32","nom":"Hauts-de-France"}},{"nom":"Cavron-Saint-Martin","code":"62220","codesPostaux":["62140"],"centre":{"type":"Point","coordinates":[2.0145,50.4235]},"surface":1185.79,"population":441,"departement":{"code":"62","nom":"Pas-de-Calais"},"region":{"code":"32","nom":"Hauts-de-France"}},{"nom":"Chelers","code":"62221","codesPostaux":["62127"],"centre":{"type":"Point","coordinates":[2.4911,50.38]},"surface":827.05,"population":240,"departement":{"code":"62","nom":"Pas-de-Calais"},"region":{"code":"32","nom":"Hauts-de-France"}},{"nom":"Chériennes","code":"62222","codesPostaux":["62140"],"centre":{"type":"Point","coordinates":[2.0347,50.3117]},"surface":475.06,"population":164,"departement":{"code":"62","nom":"Pas-de-Calais"},"region":{"code":"32","nom":"Hauts-de-France"}},{"nom":"Chérisy","code":"62223","codesPostaux":["62128"],"centre":{"type":"Point","coordinates":[2.9121,50.2346]},"surface":621.86,"population":290,"departement":{"code":"62","nom":"Pas-de-Calais"},"region":{"code":"32","nom":"Hauts-de-France"}},{"nom":"Chocques","code":"62224","codesPostaux":["62920"],"centre":{"type":"Point","coordinates":[2.5616,50.54]},"surface":793.64,"population":2824,"departement":{"code":"62","nom":"Pas-de-Calais"},"region":{"code":"32","nom":"Hauts-de-France"}},{"nom":"Clairmarais","code":"62225","codesPostaux":["62500"],"centre":{"type":"Point","coordinates":[2.3453,50.7703]},"surface":1804.89,"population":587,"departement":{"code":"62","nom":"Pas-de-Calais"},"region":{"code":"32","nom":"Hauts-de-France"}},{"nom":"Clenleu","code":"62227","codesPostaux":["62650"],"centre":{"type":"Point","coordinates":[1.8851,50.5314]},"surface":730.01,"population":186,"departement":{"code":"62","nom":"Pas-de-Calais"},"region":{"code":"32","nom":"Hauts-de-France"}},{"nom":"Clerques","code":"62228","codesPostaux":["62890"],"centre":{"type":"Point","coordinates":[1.9858,50.7909]},"surface":640.62,"population":317,"departement":{"code":"62","nom":"Pas-de-Calais"},"region":{"code":"32","nom":"Hauts-de-France"}},{"nom":"Cléty","code":"62229","codesPostaux":["62380"],"centre":{"type":"Point","coordinates":[2.1791,50.6536]},"surface":617.99,"population":814,"departement":{"code":"62","nom":"Pas-de-Calais"},"region":{"code":"32","nom":"Hauts-de-France"}},{"nom":"Colembert","code":"62230","codesPostaux":["62142"],"centre":{"type":"Point","coordinates":[1.8231,50.748]},"surface":999.51,"population":928,"departement":{"code":"62","nom":"Pas-de-Calais"},"region":{"code":"32","nom":"Hauts-de-France"}},{"nom":"Colline-Beaumont","code":"62231","codesPostaux":["62180"],"centre":{"type":"Point","coordinates":[1.6725,50.3426]},"surface":465.32,"population":130,"departement":{"code":"62","nom":"Pas-de-Calais"},"region":{"code":"32","nom":"Hauts-de-France"}},{"nom":"La Comté","code":"62232","codesPostaux":["62150"],"centre":{"type":"Point","coordinates":[2.4996,50.4285]},"surface":673.5,"population":882,"departement":{"code":"62","nom":"Pas-de-Calais"},"region":{"code":"32","nom":"Hauts-de-France"}},{"nom":"Conchil-le-Temple","code":"62233","codesPostaux":["62180"],"centre":{"type":"Point","coordinates":[1.6752,50.3685]},"surface":1644.51,"population":1100,"departement":{"code":"62","nom":"Pas-de-Calais"},"region":{"code":"32","nom":"Hauts-de-France"}},{"nom":"Conchy-sur-Canche","code":"62234","codesPostaux":["62270"],"centre":{"type":"Point","coordinates":[2.1898,50.2951]},"surface":984.52,"population":222,"departement":{"code":"62","nom":"Pas-de-Calais"},"region":{"code":"32","nom":"Hauts-de-France"}},{"nom":"Condette","code":"62235","codesPostaux":["62360"],"centre":{"type":"Point","coordinates":[1.6454,50.6517]},"surface":1644.09,"population":2469,"departement":{"code":"62","nom":"Pas-de-Calais"},"region":{"code":"32","nom":"Hauts-de-France"}},{"nom":"Contes","code":"62236","codesPostaux":["62990"],"centre":{"type":"Point","coordinates":[1.9616,50.4184]},"surface":716.67,"population":344,"departement":{"code":"62","nom":"Pas-de-Calais"},"region":{"code":"32","nom":"Hauts-de-France"}},{"nom":"Conteville-lès-Boulogne","code":"62237","codesPostaux":["62126"],"centre":{"type":"Point","coordinates":[1.7277,50.744]},"surface":212.1,"population":521,"departement":{"code":"62","nom":"Pas-de-Calais"},"region":{"code":"32","nom":"Hauts-de-France"}},{"nom":"Conteville-en-Ternois","code":"62238","codesPostaux":["62130"],"centre":{"type":"Point","coordinates":[2.3273,50.4323]},"surface":233.02,"population":79,"departement":{"code":"62","nom":"Pas-de-Calais"},"region":{"code":"32","nom":"Hauts-de-France"}},{"nom":"Coquelles","code":"62239","codesPostaux":["62231"],"centre":{"type":"Point","coordinates":[1.8226,50.9279]},"surface":877.15,"population":2647,"departement":{"code":"62","nom":"Pas-de-Calais"},"region":{"code":"32","nom":"Hauts-de-France"}},{"nom":"Corbehem","code":"62240","codesPostaux":["62112"],"centre":{"type":"Point","coordinates":[3.0481,50.3356]},"surface":260.3,"population":2266,"departement":{"code":"62","nom":"Pas-de-Calais"},"region":{"code":"32","nom":"Hauts-de-France"}},{"nom":"Cormont","code":"62241","codesPostaux":["62630"],"centre":{"type":"Point","coordinates":[1.7433,50.5632]},"surface":980.18,"population":310,"departement":{"code":"62","nom":"Pas-de-Calais"},"region":{"code":"32","nom":"Hauts-de-France"}},{"nom":"Couin","code":"62242","codesPostaux":["62760"],"centre":{"type":"Point","coordinates":[2.5334,50.1309]},"surface":579.38,"population":84,"departement":{"code":"62","nom":"Pas-de-Calais"},"region":{"code":"32","nom":"Hauts-de-France"}},{"nom":"Coullemont","code":"62243","codesPostaux":["62158"],"centre":{"type":"Point","coordinates":[2.4787,50.2207]},"surface":406.15,"population":120,"departement":{"code":"62","nom":"Pas-de-Calais"},"region":{"code":"32","nom":"Hauts-de-France"}},{"nom":"Coulogne","code":"62244","codesPostaux":["62137"],"centre":{"type":"Point","coordinates":[1.8906,50.9127]},"surface":917.6,"population":5414,"departement":{"code":"62","nom":"Pas-de-Calais"},"region":{"code":"32","nom":"Hauts-de-France"}},{"nom":"Coulomby","code":"62245","codesPostaux":["62380"],"centre":{"type":"Point","coordinates":[1.9969,50.7111]},"surface":1023,"population":767,"departement":{"code":"62","nom":"Pas-de-Calais"},"region":{"code":"32","nom":"Hauts-de-France"}},{"nom":"Coupelle-Neuve","code":"62246","codesPostaux":["62310"],"centre":{"type":"Point","coordinates":[2.1058,50.5001]},"surface":455.36,"population":147,"departement":{"code":"62","nom":"Pas-de-Calais"},"region":{"code":"32","nom":"Hauts-de-France"}},{"nom":"Coupelle-Vieille","code":"62247","codesPostaux":["62310"],"centre":{"type":"Point","coordinates":[2.0785,50.535]},"surface":1474.8,"population":585,"departement":{"code":"62","nom":"Pas-de-Calais"},"region":{"code":"32","nom":"Hauts-de-France"}},{"nom":"Courcelles-le-Comte","code":"62248","codesPostaux":["62121"],"centre":{"type":"Point","coordinates":[2.779,50.1577]},"surface":793.56,"population":476,"departement":{"code":"62","nom":"Pas-de-Calais"},"region":{"code":"32","nom":"Hauts-de-France"}},{"nom":"Courcelles-lès-Lens","code":"62249","codesPostaux":["62970"],"centre":{"type":"Point","coordinates":[3.0151,50.4149]},"surface":559.54,"population":8213,"departement":{"code":"62","nom":"Pas-de-Calais"},"region":{"code":"32","nom":"Hauts-de-France"}},{"nom":"Courrières","code":"62250","codesPostaux":["62710"],"centre":{"type":"Point","coordinates":[2.9442,50.4538]},"surface":872.01,"population":10199,"departement":{"code":"62","nom":"Pas-de-Calais"},"region":{"code":"32","nom":"Hauts-de-France"}},{"nom":"Courset","code":"62251","codesPostaux":["62240"],"centre":{"type":"Point","coordinates":[1.8477,50.6449]},"surface":1022.55,"population":512,"departement":{"code":"62","nom":"Pas-de-Calais"},"region":{"code":"32","nom":"Hauts-de-France"}},{"nom":"La Couture","code":"62252","codesPostaux":["62136"],"centre":{"type":"Point","coordinates":[2.6969,50.5773]},"surface":1343.4,"population":2616,"departement":{"code":"62","nom":"Pas-de-Calais"},"region":{"code":"32","nom":"Hauts-de-France"}},{"nom":"Couturelle","code":"62253","codesPostaux":["62158"],"centre":{"type":"Point","coordinates":[2.5,50.2069]},"surface":212.79,"population":74,"departement":{"code":"62","nom":"Pas-de-Calais"},"region":{"code":"32","nom":"Hauts-de-France"}},{"nom":"Coyecques","code":"62254","codesPostaux":["62560"],"centre":{"type":"Point","coordinates":[2.183,50.601]},"surface":1385.11,"population":600,"departement":{"code":"62","nom":"Pas-de-Calais"},"region":{"code":"32","nom":"Hauts-de-France"}},{"nom":"Crémarest","code":"62255","codesPostaux":["62240"],"centre":{"type":"Point","coordinates":[1.7868,50.7]},"surface":1180.84,"population":804,"departement":{"code":"62","nom":"Pas-de-Calais"},"region":{"code":"32","nom":"Hauts-de-France"}},{"nom":"Crépy","code":"62256","codesPostaux":["62310"],"centre":{"type":"Point","coordinates":[2.2036,50.4731]},"surface":692.47,"population":156,"departement":{"code":"62","nom":"Pas-de-Calais"},"region":{"code":"32","nom":"Hauts-de-France"}},{"nom":"Créquy","code":"62257","codesPostaux":["62310"],"centre":{"type":"Point","coordinates":[2.0379,50.5035]},"surface":2043.28,"population":463,"departement":{"code":"62","nom":"Pas-de-Calais"},"region":{"code":"32","nom":"Hauts-de-France"}},{"nom":"Croisette","code":"62258","codesPostaux":["62130"],"centre":{"type":"Point","coordinates":[2.2627,50.3499]},"surface":757.86,"population":282,"departement":{"code":"62","nom":"Pas-de-Calais"},"region":{"code":"32","nom":"Hauts-de-France"}},{"nom":"Croisilles","code":"62259","codesPostaux":["62128"],"centre":{"type":"Point","coordinates":[2.8809,50.1961]},"surface":1141.53,"population":1942,"departement":{"code":"62","nom":"Pas-de-Calais"},"region":{"code":"32","nom":"Hauts-de-France"}},{"nom":"Croix-en-Ternois","code":"62260","codesPostaux":["62130"],"centre":{"type":"Point","coordinates":[2.2687,50.3845]},"surface":661.04,"population":331,"departement":{"code":"62","nom":"Pas-de-Calais"},"region":{"code":"32","nom":"Hauts-de-France"}},{"nom":"Cucq","code":"62261","codesPostaux":["62780"],"centre":{"type":"Point","coordinates":[1.6116,50.4907]},"surface":1008.26,"population":5130,"departement":{"code":"62","nom":"Pas-de-Calais"},"region":{"code":"32","nom":"Hauts-de-France"}},{"nom":"Cuinchy","code":"62262","codesPostaux":["62149"],"centre":{"type":"Point","coordinates":[2.7455,50.5202]},"surface":416.69,"population":1754,"departement":{"code":"62","nom":"Pas-de-Calais"},"region":{"code":"32","nom":"Hauts-de-France"}},{"nom":"Dainville","code":"62263","codesPostaux":["62000"],"centre":{"type":"Point","coordinates":[2.7129,50.2765]},"surface":1123.13,"population":5703,"departement":{"code":"62","nom":"Pas-de-Calais"},"region":{"code":"32","nom":"Hauts-de-France"}},{"nom":"Dannes","code":"62264","codesPostaux":["62187"],"centre":{"type":"Point","coordinates":[1.6101,50.5939]},"surface":1049.71,"population":1323,"departement":{"code":"62","nom":"Pas-de-Calais"},"region":{"code":"32","nom":"Hauts-de-France"}},{"nom":"Delettes","code":"62265","codesPostaux":["62129"],"centre":{"type":"Point","coordinates":[2.2188,50.6196]},"surface":1472.29,"population":1168,"departement":{"code":"62","nom":"Pas-de-Calais"},"region":{"code":"32","nom":"Hauts-de-France"}},{"nom":"Denier","code":"62266","codesPostaux":["62810"],"centre":{"type":"Point","coordinates":[2.4458,50.2927]},"surface":310.06,"population":91,"departement":{"code":"62","nom":"Pas-de-Calais"},"region":{"code":"32","nom":"Hauts-de-France"}},{"nom":"Dennebrœucq","code":"62267","codesPostaux":["62560"],"centre":{"type":"Point","coordinates":[2.1564,50.5825]},"surface":372.25,"population":397,"departement":{"code":"62","nom":"Pas-de-Calais"},"region":{"code":"32","nom":"Hauts-de-France"}},{"nom":"Desvres","code":"62268","codesPostaux":["62240"],"centre":{"type":"Point","coordinates":[1.8323,50.6765]},"surface":941.25,"population":4843,"departement":{"code":"62","nom":"Pas-de-Calais"},"region":{"code":"32","nom":"Hauts-de-France"}},{"nom":"Diéval","code":"62269","codesPostaux":["62460"],"centre":{"type":"Point","coordinates":[2.4524,50.4387]},"surface":1207.17,"population":721,"departement":{"code":"62","nom":"Pas-de-Calais"},"region":{"code":"32","nom":"Hauts-de-France"}},{"nom":"Divion","code":"62270","codesPostaux":["62460"],"centre":{"type":"Point","coordinates":[2.5083,50.4696]},"surface":1104.41,"population":6893,"departement":{"code":"62","nom":"Pas-de-Calais"},"region":{"code":"32","nom":"Hauts-de-France"}},{"nom":"Dohem","code":"62271","codesPostaux":["62380"],"centre":{"type":"Point","coordinates":[2.167,50.6277]},"surface":918.79,"population":833,"departement":{"code":"62","nom":"Pas-de-Calais"},"region":{"code":"32","nom":"Hauts-de-France"}},{"nom":"Douchy-lès-Ayette","code":"62272","codesPostaux":["62116"],"centre":{"type":"Point","coordinates":[2.7067,50.1745]},"surface":553.33,"population":305,"departement":{"code":"62","nom":"Pas-de-Calais"},"region":{"code":"32","nom":"Hauts-de-France"}},{"nom":"Doudeauville","code":"62273","codesPostaux":["62830"],"centre":{"type":"Point","coordinates":[1.8384,50.6198]},"surface":1381.51,"population":618,"departement":{"code":"62","nom":"Pas-de-Calais"},"region":{"code":"32","nom":"Hauts-de-France"}},{"nom":"Dourges","code":"62274","codesPostaux":["62119"],"centre":{"type":"Point","coordinates":[2.9851,50.4378]},"surface":1044.75,"population":5997,"departement":{"code":"62","nom":"Pas-de-Calais"},"region":{"code":"32","nom":"Hauts-de-France"}},{"nom":"Douriez","code":"62275","codesPostaux":["62870"],"centre":{"type":"Point","coordinates":[1.8806,50.3372]},"surface":880.38,"population":296,"departement":{"code":"62","nom":"Pas-de-Calais"},"region":{"code":"32","nom":"Hauts-de-France"}},{"nom":"Douvrin","code":"62276","codesPostaux":["62138"],"centre":{"type":"Point","coordinates":[2.8321,50.5103]},"surface":959.8,"population":5795,"departement":{"code":"62","nom":"Pas-de-Calais"},"region":{"code":"32","nom":"Hauts-de-France"}},{"nom":"Drocourt","code":"62277","codesPostaux":["62320"],"centre":{"type":"Point","coordinates":[2.9328,50.3901]},"surface":342.7,"population":2943,"departement":{"code":"62","nom":"Pas-de-Calais"},"region":{"code":"32","nom":"Hauts-de-France"}},{"nom":"Drouvin-le-Marais","code":"62278","codesPostaux":["62131"],"centre":{"type":"Point","coordinates":[2.6335,50.49]},"surface":211.44,"population":615,"departement":{"code":"62","nom":"Pas-de-Calais"},"region":{"code":"32","nom":"Hauts-de-France"}},{"nom":"Duisans","code":"62279","codesPostaux":["62161"],"centre":{"type":"Point","coordinates":[2.6981,50.3008]},"surface":1074.86,"population":1383,"departement":{"code":"62","nom":"Pas-de-Calais"},"region":{"code":"32","nom":"Hauts-de-France"}},{"nom":"Dury","code":"62280","codesPostaux":["62156"],"centre":{"type":"Point","coordinates":[3.0026,50.2498]},"surface":536.54,"population":312,"departement":{"code":"62","nom":"Pas-de-Calais"},"region":{"code":"32","nom":"Hauts-de-France"}},{"nom":"Echinghen","code":"62281","codesPostaux":["62360"],"centre":{"type":"Point","coordinates":[1.6554,50.7014]},"surface":588.14,"population":380,"departement":{"code":"62","nom":"Pas-de-Calais"},"region":{"code":"32","nom":"Hauts-de-France"}},{"nom":"Éclimeux","code":"62282","codesPostaux":["62770"],"centre":{"type":"Point","coordinates":[2.1827,50.3953]},"surface":608.59,"population":181,"departement":{"code":"62","nom":"Pas-de-Calais"},"region":{"code":"32","nom":"Hauts-de-France"}},{"nom":"Écoivres","code":"62283","codesPostaux":["62270"],"centre":{"type":"Point","coordinates":[2.2853,50.3238]},"surface":222.34,"population":129,"departement":{"code":"62","nom":"Pas-de-Calais"},"region":{"code":"32","nom":"Hauts-de-France"}},{"nom":"Écourt-Saint-Quentin","code":"62284","codesPostaux":["62860"],"centre":{"type":"Point","coordinates":[3.0647,50.2605]},"surface":945.49,"population":1691,"departement":{"code":"62","nom":"Pas-de-Calais"},"region":{"code":"32","nom":"Hauts-de-France"}},{"nom":"Écoust-Saint-Mein","code":"62285","codesPostaux":["62128"],"centre":{"type":"Point","coordinates":[2.9023,50.1759]},"surface":850.15,"population":487,"departement":{"code":"62","nom":"Pas-de-Calais"},"region":{"code":"32","nom":"Hauts-de-France"}},{"nom":"Ecquedecques","code":"62286","codesPostaux":["62190"],"centre":{"type":"Point","coordinates":[2.4414,50.5595]},"surface":261.33,"population":509,"departement":{"code":"62","nom":"Pas-de-Calais"},"region":{"code":"32","nom":"Hauts-de-France"}},{"nom":"Ecques","code":"62288","codesPostaux":["62129"],"centre":{"type":"Point","coordinates":[2.2885,50.6762]},"surface":1280.02,"population":2171,"departement":{"code":"62","nom":"Pas-de-Calais"},"region":{"code":"32","nom":"Hauts-de-France"}},{"nom":"Écuires","code":"62289","codesPostaux":["62170"],"centre":{"type":"Point","coordinates":[1.7703,50.4372]},"surface":915.07,"population":690,"departement":{"code":"62","nom":"Pas-de-Calais"},"region":{"code":"32","nom":"Hauts-de-France"}},{"nom":"Écurie","code":"62290","codesPostaux":["62223"],"centre":{"type":"Point","coordinates":[2.7676,50.3321]},"surface":300.3,"population":378,"departement":{"code":"62","nom":"Pas-de-Calais"},"region":{"code":"32","nom":"Hauts-de-France"}},{"nom":"Éleu-dit-Leauwette","code":"62291","codesPostaux":["62300"],"centre":{"type":"Point","coordinates":[2.8123,50.4188]},"surface":116.53,"population":2829,"departement":{"code":"62","nom":"Pas-de-Calais"},"region":{"code":"32","nom":"Hauts-de-France"}},{"nom":"Elnes","code":"62292","codesPostaux":["62380"],"centre":{"type":"Point","coordinates":[2.1189,50.6871]},"surface":638.52,"population":858,"departement":{"code":"62","nom":"Pas-de-Calais"},"region":{"code":"32","nom":"Hauts-de-France"}},{"nom":"Embry","code":"62293","codesPostaux":["62990"],"centre":{"type":"Point","coordinates":[1.9603,50.497]},"surface":1169.21,"population":230,"departement":{"code":"62","nom":"Pas-de-Calais"},"region":{"code":"32","nom":"Hauts-de-France"}},{"nom":"Enquin-lez-Guinegatte","code":"62295","codesPostaux":["62145"],"centre":{"type":"Point","coordinates":[2.2801,50.5949]},"surface":2018.31,"population":1607,"departement":{"code":"62","nom":"Pas-de-Calais"},"region":{"code":"32","nom":"Hauts-de-France"}},{"nom":"Enquin-sur-Baillons","code":"62296","codesPostaux":["62650"],"centre":{"type":"Point","coordinates":[1.8452,50.5707]},"surface":497.98,"population":256,"departement":{"code":"62","nom":"Pas-de-Calais"},"region":{"code":"32","nom":"Hauts-de-France"}},{"nom":"Éperlecques","code":"62297","codesPostaux":["62910"],"centre":{"type":"Point","coordinates":[2.1583,50.8109]},"surface":2569.48,"population":3742,"departement":{"code":"62","nom":"Pas-de-Calais"},"region":{"code":"32","nom":"Hauts-de-France"}},{"nom":"Épinoy","code":"62298","codesPostaux":["62860"],"centre":{"type":"Point","coordinates":[3.1616,50.2322]},"surface":811.21,"population":527,"departement":{"code":"62","nom":"Pas-de-Calais"},"region":{"code":"32","nom":"Hauts-de-France"}},{"nom":"Eps","code":"62299","codesPostaux":["62134"],"centre":{"type":"Point","coordinates":[2.2981,50.4574]},"surface":692.39,"population":244,"departement":{"code":"62","nom":"Pas-de-Calais"},"region":{"code":"32","nom":"Hauts-de-France"}},{"nom":"Équihen-Plage","code":"62300","codesPostaux":["62224"],"centre":{"type":"Point","coordinates":[1.5789,50.6791]},"surface":394.29,"population":2613,"departement":{"code":"62","nom":"Pas-de-Calais"},"region":{"code":"32","nom":"Hauts-de-France"}},{"nom":"Équirre","code":"62301","codesPostaux":["62134"],"centre":{"type":"Point","coordinates":[2.2339,50.4797]},"surface":426.68,"population":82,"departement":{"code":"62","nom":"Pas-de-Calais"},"region":{"code":"32","nom":"Hauts-de-France"}},{"nom":"Ergny","code":"62302","codesPostaux":["62650"],"centre":{"type":"Point","coordinates":[1.9724,50.5853]},"surface":924.15,"population":234,"departement":{"code":"62","nom":"Pas-de-Calais"},"region":{"code":"32","nom":"Hauts-de-France"}},{"nom":"Érin","code":"62303","codesPostaux":["62134"],"centre":{"type":"Point","coordinates":[2.2201,50.4309]},"surface":639.59,"population":228,"departement":{"code":"62","nom":"Pas-de-Calais"},"region":{"code":"32","nom":"Hauts-de-France"}},{"nom":"Erny-Saint-Julien","code":"62304","codesPostaux":["62960"],"centre":{"type":"Point","coordinates":[2.2492,50.5821]},"surface":540.03,"population":335,"departement":{"code":"62","nom":"Pas-de-Calais"},"region":{"code":"32","nom":"Hauts-de-France"}},{"nom":"Ervillers","code":"62306","codesPostaux":["62121"],"centre":{"type":"Point","coordinates":[2.8284,50.1652]},"surface":710.5,"population":390,"departement":{"code":"62","nom":"Pas-de-Calais"},"region":{"code":"32","nom":"Hauts-de-France"}},{"nom":"Escalles","code":"62307","codesPostaux":["62179"],"centre":{"type":"Point","coordinates":[1.7158,50.909]},"surface":736.4,"population":216,"departement":{"code":"62","nom":"Pas-de-Calais"},"region":{"code":"32","nom":"Hauts-de-France"}},{"nom":"Escœuilles","code":"62308","codesPostaux":["62850"],"centre":{"type":"Point","coordinates":[1.9376,50.7257]},"surface":589.04,"population":489,"departement":{"code":"62","nom":"Pas-de-Calais"},"region":{"code":"32","nom":"Hauts-de-France"}},{"nom":"Esquerdes","code":"62309","codesPostaux":["62380"],"centre":{"type":"Point","coordinates":[2.1767,50.7005]},"surface":937.74,"population":1619,"departement":{"code":"62","nom":"Pas-de-Calais"},"region":{"code":"32","nom":"Hauts-de-France"}},{"nom":"Essars","code":"62310","codesPostaux":["62400"],"centre":{"type":"Point","coordinates":[2.6617,50.5483]},"surface":359.54,"population":1755,"departement":{"code":"62","nom":"Pas-de-Calais"},"region":{"code":"32","nom":"Hauts-de-France"}},{"nom":"Estevelles","code":"62311","codesPostaux":["62880"],"centre":{"type":"Point","coordinates":[2.9084,50.479]},"surface":250.97,"population":2024,"departement":{"code":"62","nom":"Pas-de-Calais"},"region":{"code":"32","nom":"Hauts-de-France"}},{"nom":"Estrée","code":"62312","codesPostaux":["62170"],"centre":{"type":"Point","coordinates":[1.8083,50.4964]},"surface":441.18,"population":289,"departement":{"code":"62","nom":"Pas-de-Calais"},"region":{"code":"32","nom":"Hauts-de-France"}},{"nom":"Estrée-Blanche","code":"62313","codesPostaux":["62145"],"centre":{"type":"Point","coordinates":[2.3224,50.5934]},"surface":532.31,"population":911,"departement":{"code":"62","nom":"Pas-de-Calais"},"region":{"code":"32","nom":"Hauts-de-France"}},{"nom":"Estrée-Cauchy","code":"62314","codesPostaux":["62690"],"centre":{"type":"Point","coordinates":[2.6104,50.4007]},"surface":398.81,"population":354,"departement":{"code":"62","nom":"Pas-de-Calais"},"region":{"code":"32","nom":"Hauts-de-France"}},{"nom":"Estréelles","code":"62315","codesPostaux":["62170"],"centre":{"type":"Point","coordinates":[1.7789,50.5005]},"surface":311.58,"population":345,"departement":{"code":"62","nom":"Pas-de-Calais"},"region":{"code":"32","nom":"Hauts-de-France"}},{"nom":"Estrée-Wamin","code":"62316","codesPostaux":["62810"],"centre":{"type":"Point","coordinates":[2.3951,50.2691]},"surface":517.83,"population":212,"departement":{"code":"62","nom":"Pas-de-Calais"},"region":{"code":"32","nom":"Hauts-de-France"}},{"nom":"Étaing","code":"62317","codesPostaux":["62156"],"centre":{"type":"Point","coordinates":[2.9978,50.2705]},"surface":521.45,"population":453,"departement":{"code":"62","nom":"Pas-de-Calais"},"region":{"code":"32","nom":"Hauts-de-France"}},{"nom":"Étaples","code":"62318","codesPostaux":["62630"],"centre":{"type":"Point","coordinates":[1.6463,50.5247]},"surface":1248.41,"population":10930,"departement":{"code":"62","nom":"Pas-de-Calais"},"region":{"code":"32","nom":"Hauts-de-France"}},{"nom":"Éterpigny","code":"62319","codesPostaux":["62156"],"centre":{"type":"Point","coordinates":[2.9819,50.2564]},"surface":353.55,"population":256,"departement":{"code":"62","nom":"Pas-de-Calais"},"region":{"code":"32","nom":"Hauts-de-France"}},{"nom":"Étrun","code":"62320","codesPostaux":["62161"],"centre":{"type":"Point","coordinates":[2.6857,50.3181]},"surface":225.12,"population":321,"departement":{"code":"62","nom":"Pas-de-Calais"},"region":{"code":"32","nom":"Hauts-de-France"}},{"nom":"Évin-Malmaison","code":"62321","codesPostaux":["62141"],"centre":{"type":"Point","coordinates":[3.0309,50.4346]},"surface":455.82,"population":4674,"departement":{"code":"62","nom":"Pas-de-Calais"},"region":{"code":"32","nom":"Hauts-de-France"}},{"nom":"Famechon","code":"62322","codesPostaux":["62760"],"centre":{"type":"Point","coordinates":[2.4587,50.1437]},"surface":459,"population":111,"departement":{"code":"62","nom":"Pas-de-Calais"},"region":{"code":"32","nom":"Hauts-de-France"}},{"nom":"Fampoux","code":"62323","codesPostaux":["62118"],"centre":{"type":"Point","coordinates":[2.8715,50.2983]},"surface":858.43,"population":1219,"departement":{"code":"62","nom":"Pas-de-Calais"},"region":{"code":"32","nom":"Hauts-de-France"}},{"nom":"Farbus","code":"62324","codesPostaux":["62580"],"centre":{"type":"Point","coordinates":[2.8245,50.3601]},"surface":351.64,"population":617,"departement":{"code":"62","nom":"Pas-de-Calais"},"region":{"code":"32","nom":"Hauts-de-France"}},{"nom":"Fauquembergues","code":"62325","codesPostaux":["62560"],"centre":{"type":"Point","coordinates":[2.0935,50.5902]},"surface":702.11,"population":941,"departement":{"code":"62","nom":"Pas-de-Calais"},"region":{"code":"32","nom":"Hauts-de-France"}},{"nom":"Favreuil","code":"62326","codesPostaux":["62450"],"centre":{"type":"Point","coordinates":[2.8606,50.1266]},"surface":498.78,"population":248,"departement":{"code":"62","nom":"Pas-de-Calais"},"region":{"code":"32","nom":"Hauts-de-France"}},{"nom":"Febvin-Palfart","code":"62327","codesPostaux":["62960"],"centre":{"type":"Point","coordinates":[2.301,50.5376]},"surface":1445.53,"population":619,"departement":{"code":"62","nom":"Pas-de-Calais"},"region":{"code":"32","nom":"Hauts-de-France"}},{"nom":"Ferfay","code":"62328","codesPostaux":["62260"],"centre":{"type":"Point","coordinates":[2.4301,50.5228]},"surface":395.23,"population":882,"departement":{"code":"62","nom":"Pas-de-Calais"},"region":{"code":"32","nom":"Hauts-de-France"}},{"nom":"Ferques","code":"62329","codesPostaux":["62250"],"centre":{"type":"Point","coordinates":[1.7687,50.8283]},"surface":906.18,"population":1752,"departement":{"code":"62","nom":"Pas-de-Calais"},"region":{"code":"32","nom":"Hauts-de-France"}},{"nom":"Festubert","code":"62330","codesPostaux":["62149"],"centre":{"type":"Point","coordinates":[2.7385,50.5416]},"surface":771.31,"population":1266,"departement":{"code":"62","nom":"Pas-de-Calais"},"region":{"code":"32","nom":"Hauts-de-France"}},{"nom":"Feuchy","code":"62331","codesPostaux":["62223"],"centre":{"type":"Point","coordinates":[2.8478,50.2842]},"surface":551.45,"population":1015,"departement":{"code":"62","nom":"Pas-de-Calais"},"region":{"code":"32","nom":"Hauts-de-France"}},{"nom":"Ficheux","code":"62332","codesPostaux":["62173"],"centre":{"type":"Point","coordinates":[2.7459,50.225]},"surface":584.53,"population":502,"departement":{"code":"62","nom":"Pas-de-Calais"},"region":{"code":"32","nom":"Hauts-de-France"}},{"nom":"Fiefs","code":"62333","codesPostaux":["62134"],"centre":{"type":"Point","coordinates":[2.3197,50.4986]},"surface":1104.69,"population":390,"departement":{"code":"62","nom":"Pas-de-Calais"},"region":{"code":"32","nom":"Hauts-de-France"}},{"nom":"Fiennes","code":"62334","codesPostaux":["62132"],"centre":{"type":"Point","coordinates":[1.8358,50.8251]},"surface":1161.41,"population":852,"departement":{"code":"62","nom":"Pas-de-Calais"},"region":{"code":"32","nom":"Hauts-de-France"}},{"nom":"Fillièvres","code":"62335","codesPostaux":["62770"],"centre":{"type":"Point","coordinates":[2.1648,50.315]},"surface":2058.41,"population":513,"departement":{"code":"62","nom":"Pas-de-Calais"},"region":{"code":"32","nom":"Hauts-de-France"}},{"nom":"Fléchin","code":"62336","codesPostaux":["62960"],"centre":{"type":"Point","coordinates":[2.2842,50.5576]},"surface":1095.53,"population":476,"departement":{"code":"62","nom":"Pas-de-Calais"},"region":{"code":"32","nom":"Hauts-de-France"}},{"nom":"Flers","code":"62337","codesPostaux":["62270"],"centre":{"type":"Point","coordinates":[2.2519,50.3213]},"surface":554.54,"population":220,"departement":{"code":"62","nom":"Pas-de-Calais"},"region":{"code":"32","nom":"Hauts-de-France"}},{"nom":"Fleurbaix","code":"62338","codesPostaux":["62840"],"centre":{"type":"Point","coordinates":[2.8304,50.6407]},"surface":1290.94,"population":2862,"departement":{"code":"62","nom":"Pas-de-Calais"},"region":{"code":"32","nom":"Hauts-de-France"}},{"nom":"Fleury","code":"62339","codesPostaux":["62134"],"centre":{"type":"Point","coordinates":[2.2524,50.4239]},"surface":283.69,"population":109,"departement":{"code":"62","nom":"Pas-de-Calais"},"region":{"code":"32","nom":"Hauts-de-France"}},{"nom":"Floringhem","code":"62340","codesPostaux":["62550"],"centre":{"type":"Point","coordinates":[2.4294,50.4976]},"surface":462.23,"population":883,"departement":{"code":"62","nom":"Pas-de-Calais"},"region":{"code":"32","nom":"Hauts-de-France"}},{"nom":"Foncquevillers","code":"62341","codesPostaux":["62111"],"centre":{"type":"Point","coordinates":[2.6219,50.1448]},"surface":927.45,"population":399,"departement":{"code":"62","nom":"Pas-de-Calais"},"region":{"code":"32","nom":"Hauts-de-France"}},{"nom":"Fontaine-lès-Boulans","code":"62342","codesPostaux":["62134"],"centre":{"type":"Point","coordinates":[2.2829,50.4989]},"surface":566.49,"population":108,"departement":{"code":"62","nom":"Pas-de-Calais"},"region":{"code":"32","nom":"Hauts-de-France"}},{"nom":"Fontaine-lès-Croisilles","code":"62343","codesPostaux":["62128"],"centre":{"type":"Point","coordinates":[2.9033,50.215]},"surface":621.25,"population":260,"departement":{"code":"62","nom":"Pas-de-Calais"},"region":{"code":"32","nom":"Hauts-de-France"}},{"nom":"Fontaine-lès-Hermans","code":"62344","codesPostaux":["62550"],"centre":{"type":"Point","coordinates":[2.3363,50.5269]},"surface":386,"population":109,"departement":{"code":"62","nom":"Pas-de-Calais"},"region":{"code":"32","nom":"Hauts-de-France"}},{"nom":"Fontaine-l'Étalon","code":"62345","codesPostaux":["62390"],"centre":{"type":"Point","coordinates":[2.0661,50.3015]},"surface":398.34,"population":95,"departement":{"code":"62","nom":"Pas-de-Calais"},"region":{"code":"32","nom":"Hauts-de-France"}},{"nom":"Fortel-en-Artois","code":"62346","codesPostaux":["62270"],"centre":{"type":"Point","coordinates":[2.2303,50.2582]},"surface":594.46,"population":215,"departement":{"code":"62","nom":"Pas-de-Calais"},"region":{"code":"32","nom":"Hauts-de-France"}},{"nom":"Fosseux","code":"62347","codesPostaux":["62810"],"centre":{"type":"Point","coordinates":[2.5674,50.2516]},"surface":546.33,"population":127,"departement":{"code":"62","nom":"Pas-de-Calais"},"region":{"code":"32","nom":"Hauts-de-France"}},{"nom":"Foufflin-Ricametz","code":"62348","codesPostaux":["62130"],"centre":{"type":"Point","coordinates":[2.3874,50.3488]},"surface":301.03,"population":153,"departement":{"code":"62","nom":"Pas-de-Calais"},"region":{"code":"32","nom":"Hauts-de-France"}},{"nom":"Fouquereuil","code":"62349","codesPostaux":["62232"],"centre":{"type":"Point","coordinates":[2.6021,50.5212]},"surface":199.24,"population":1632,"departement":{"code":"62","nom":"Pas-de-Calais"},"region":{"code":"32","nom":"Hauts-de-France"}},{"nom":"Fouquières-lès-Béthune","code":"62350","codesPostaux":["62232"],"centre":{"type":"Point","coordinates":[2.6127,50.5126]},"surface":241.65,"population":1115,"departement":{"code":"62","nom":"Pas-de-Calais"},"region":{"code":"32","nom":"Hauts-de-France"}},{"nom":"Fouquières-lès-Lens","code":"62351","codesPostaux":["62740"],"centre":{"type":"Point","coordinates":[2.9067,50.4284]},"surface":413.91,"population":6233,"departement":{"code":"62","nom":"Pas-de-Calais"},"region":{"code":"32","nom":"Hauts-de-France"}},{"nom":"Framecourt","code":"62352","codesPostaux":["62130"],"centre":{"type":"Point","coordinates":[2.3051,50.3237]},"surface":225.9,"population":112,"departement":{"code":"62","nom":"Pas-de-Calais"},"region":{"code":"32","nom":"Hauts-de-France"}},{"nom":"Frémicourt","code":"62353","codesPostaux":["62450"],"centre":{"type":"Point","coordinates":[2.904,50.1122]},"surface":568.89,"population":238,"departement":{"code":"62","nom":"Pas-de-Calais"},"region":{"code":"32","nom":"Hauts-de-France"}},{"nom":"Frencq","code":"62354","codesPostaux":["62630"],"centre":{"type":"Point","coordinates":[1.6871,50.5622]},"surface":2002.12,"population":906,"departement":{"code":"62","nom":"Pas-de-Calais"},"region":{"code":"32","nom":"Hauts-de-France"}},{"nom":"Fresnes-lès-Montauban","code":"62355","codesPostaux":["62490"],"centre":{"type":"Point","coordinates":[2.929,50.3352]},"surface":489.24,"population":596,"departement":{"code":"62","nom":"Pas-de-Calais"},"region":{"code":"32","nom":"Hauts-de-France"}},{"nom":"Fresnicourt-le-Dolmen","code":"62356","codesPostaux":["62150"],"centre":{"type":"Point","coordinates":[2.6029,50.4255]},"surface":803.27,"population":802,"departement":{"code":"62","nom":"Pas-de-Calais"},"region":{"code":"32","nom":"Hauts-de-France"}},{"nom":"Fresnoy","code":"62357","codesPostaux":["62770"],"centre":{"type":"Point","coordinates":[2.1377,50.373]},"surface":247.11,"population":68,"departement":{"code":"62","nom":"Pas-de-Calais"},"region":{"code":"32","nom":"Hauts-de-France"}},{"nom":"Fresnoy-en-Gohelle","code":"62358","codesPostaux":["62580"],"centre":{"type":"Point","coordinates":[2.8961,50.3688]},"surface":297.14,"population":234,"departement":{"code":"62","nom":"Pas-de-Calais"},"region":{"code":"32","nom":"Hauts-de-France"}},{"nom":"Fressin","code":"62359","codesPostaux":["62140"],"centre":{"type":"Point","coordinates":[2.0436,50.4533]},"surface":1722.81,"population":579,"departement":{"code":"62","nom":"Pas-de-Calais"},"region":{"code":"32","nom":"Hauts-de-France"}},{"nom":"Fréthun","code":"62360","codesPostaux":["62185"],"centre":{"type":"Point","coordinates":[1.8215,50.9096]},"surface":796.52,"population":1395,"departement":{"code":"62","nom":"Pas-de-Calais"},"region":{"code":"32","nom":"Hauts-de-France"}},{"nom":"Frévent","code":"62361","codesPostaux":["62270"],"centre":{"type":"Point","coordinates":[2.2905,50.27]},"surface":1525.95,"population":3318,"departement":{"code":"62","nom":"Pas-de-Calais"},"region":{"code":"32","nom":"Hauts-de-France"}},{"nom":"Frévillers","code":"62362","codesPostaux":["62127"],"centre":{"type":"Point","coordinates":[2.5245,50.4005]},"surface":511.5,"population":240,"departement":{"code":"62","nom":"Pas-de-Calais"},"region":{"code":"32","nom":"Hauts-de-France"}},{"nom":"Frévin-Capelle","code":"62363","codesPostaux":["62690"],"centre":{"type":"Point","coordinates":[2.6361,50.3505]},"surface":362.06,"population":387,"departement":{"code":"62","nom":"Pas-de-Calais"},"region":{"code":"32","nom":"Hauts-de-France"}},{"nom":"Fruges","code":"62364","codesPostaux":["62310"],"centre":{"type":"Point","coordinates":[2.1184,50.5143]},"surface":1886.89,"population":2329,"departement":{"code":"62","nom":"Pas-de-Calais"},"region":{"code":"32","nom":"Hauts-de-France"}},{"nom":"Galametz","code":"62365","codesPostaux":["62770"],"centre":{"type":"Point","coordinates":[2.1313,50.3254]},"surface":419.44,"population":203,"departement":{"code":"62","nom":"Pas-de-Calais"},"region":{"code":"32","nom":"Hauts-de-France"}},{"nom":"Gauchin-Légal","code":"62366","codesPostaux":["62150"],"centre":{"type":"Point","coordinates":[2.5728,50.4096]},"surface":584.37,"population":304,"departement":{"code":"62","nom":"Pas-de-Calais"},"region":{"code":"32","nom":"Hauts-de-France"}},{"nom":"Gauchin-Verloingt","code":"62367","codesPostaux":["62130"],"centre":{"type":"Point","coordinates":[2.313,50.3912]},"surface":593.51,"population":796,"departement":{"code":"62","nom":"Pas-de-Calais"},"region":{"code":"32","nom":"Hauts-de-France"}},{"nom":"Gaudiempré","code":"62368","codesPostaux":["62760"],"centre":{"type":"Point","coordinates":[2.5256,50.1781]},"surface":622.31,"population":212,"departement":{"code":"62","nom":"Pas-de-Calais"},"region":{"code":"32","nom":"Hauts-de-France"}},{"nom":"Gavrelle","code":"62369","codesPostaux":["62580"],"centre":{"type":"Point","coordinates":[2.8822,50.3267]},"surface":903.27,"population":801,"departement":{"code":"62","nom":"Pas-de-Calais"},"region":{"code":"32","nom":"Hauts-de-France"}},{"nom":"Gennes-Ivergny","code":"62370","codesPostaux":["62390"],"centre":{"type":"Point","coordinates":[2.0617,50.2734]},"surface":1092.33,"population":123,"departement":{"code":"62","nom":"Pas-de-Calais"},"region":{"code":"32","nom":"Hauts-de-France"}},{"nom":"Givenchy-en-Gohelle","code":"62371","codesPostaux":["62580"],"centre":{"type":"Point","coordinates":[2.7789,50.3916]},"surface":592.75,"population":2026,"departement":{"code":"62","nom":"Pas-de-Calais"},"region":{"code":"32","nom":"Hauts-de-France"}},{"nom":"Givenchy-le-Noble","code":"62372","codesPostaux":["62810"],"centre":{"type":"Point","coordinates":[2.49,50.2999]},"surface":260.55,"population":149,"departement":{"code":"62","nom":"Pas-de-Calais"},"region":{"code":"32","nom":"Hauts-de-France"}},{"nom":"Givenchy-lès-la-Bassée","code":"62373","codesPostaux":["62149"],"centre":{"type":"Point","coordinates":[2.7628,50.5348]},"surface":387.05,"population":1006,"departement":{"code":"62","nom":"Pas-de-Calais"},"region":{"code":"32","nom":"Hauts-de-France"}},{"nom":"Gomiécourt","code":"62374","codesPostaux":["62121"],"centre":{"type":"Point","coordinates":[2.8013,50.1494]},"surface":363.36,"population":152,"departement":{"code":"62","nom":"Pas-de-Calais"},"region":{"code":"32","nom":"Hauts-de-France"}},{"nom":"Gommecourt","code":"62375","codesPostaux":["62111"],"centre":{"type":"Point","coordinates":[2.6533,50.1377]},"surface":334.62,"population":88,"departement":{"code":"62","nom":"Pas-de-Calais"},"region":{"code":"32","nom":"Hauts-de-France"}},{"nom":"Gonnehem","code":"62376","codesPostaux":["62920"],"centre":{"type":"Point","coordinates":[2.5691,50.5657]},"surface":1529.4,"population":2507,"departement":{"code":"62","nom":"Pas-de-Calais"},"region":{"code":"32","nom":"Hauts-de-France"}},{"nom":"Gosnay","code":"62377","codesPostaux":["62199"],"centre":{"type":"Point","coordinates":[2.5867,50.5088]},"surface":223,"population":952,"departement":{"code":"62","nom":"Pas-de-Calais"},"region":{"code":"32","nom":"Hauts-de-France"}},{"nom":"Gouves","code":"62378","codesPostaux":["62123"],"centre":{"type":"Point","coordinates":[2.6446,50.2965]},"surface":268.03,"population":198,"departement":{"code":"62","nom":"Pas-de-Calais"},"region":{"code":"32","nom":"Hauts-de-France"}},{"nom":"Gouy-en-Artois","code":"62379","codesPostaux":["62123"],"centre":{"type":"Point","coordinates":[2.5831,50.2418]},"surface":995.77,"population":325,"departement":{"code":"62","nom":"Pas-de-Calais"},"region":{"code":"32","nom":"Hauts-de-France"}},{"nom":"Gouy-Servins","code":"62380","codesPostaux":["62530"],"centre":{"type":"Point","coordinates":[2.6565,50.4031]},"surface":332.06,"population":355,"departement":{"code":"62","nom":"Pas-de-Calais"},"region":{"code":"32","nom":"Hauts-de-France"}},{"nom":"Gouy-en-Ternois","code":"62381","codesPostaux":["62127"],"centre":{"type":"Point","coordinates":[2.4123,50.3237]},"surface":567.21,"population":131,"departement":{"code":"62","nom":"Pas-de-Calais"},"region":{"code":"32","nom":"Hauts-de-France"}},{"nom":"Gouy-Saint-André","code":"62382","codesPostaux":["62870"],"centre":{"type":"Point","coordinates":[1.9111,50.3739]},"surface":1332.24,"population":651,"departement":{"code":"62","nom":"Pas-de-Calais"},"region":{"code":"32","nom":"Hauts-de-France"}},{"nom":"Gouy-sous-Bellonne","code":"62383","codesPostaux":["62112"],"centre":{"type":"Point","coordinates":[3.0594,50.3155]},"surface":547.66,"population":1396,"departement":{"code":"62","nom":"Pas-de-Calais"},"region":{"code":"32","nom":"Hauts-de-France"}},{"nom":"Graincourt-lès-Havrincourt","code":"62384","codesPostaux":["62147"],"centre":{"type":"Point","coordinates":[3.1021,50.1442]},"surface":1161.9,"population":655,"departement":{"code":"62","nom":"Pas-de-Calais"},"region":{"code":"32","nom":"Hauts-de-France"}},{"nom":"Grand-Rullecourt","code":"62385","codesPostaux":["62810"],"centre":{"type":"Point","coordinates":[2.4797,50.2536]},"surface":1078.95,"population":380,"departement":{"code":"62","nom":"Pas-de-Calais"},"region":{"code":"32","nom":"Hauts-de-France"}},{"nom":"Grenay","code":"62386","codesPostaux":["62160"],"centre":{"type":"Point","coordinates":[2.7437,50.4494]},"surface":318.71,"population":6704,"departement":{"code":"62","nom":"Pas-de-Calais"},"region":{"code":"32","nom":"Hauts-de-France"}},{"nom":"Grévillers","code":"62387","codesPostaux":["62450"],"centre":{"type":"Point","coordinates":[2.7999,50.1027]},"surface":639.98,"population":355,"departement":{"code":"62","nom":"Pas-de-Calais"},"region":{"code":"32","nom":"Hauts-de-France"}},{"nom":"Grigny","code":"62388","codesPostaux":["62140"],"centre":{"type":"Point","coordinates":[2.0646,50.3849]},"surface":216.53,"population":294,"departement":{"code":"62","nom":"Pas-de-Calais"},"region":{"code":"32","nom":"Hauts-de-France"}},{"nom":"Grincourt-lès-Pas","code":"62389","codesPostaux":["62760"],"centre":{"type":"Point","coordinates":[2.4882,50.1779]},"surface":281.53,"population":29,"departement":{"code":"62","nom":"Pas-de-Calais"},"region":{"code":"32","nom":"Hauts-de-France"}},{"nom":"Groffliers","code":"62390","codesPostaux":["62600"],"centre":{"type":"Point","coordinates":[1.6033,50.3853]},"surface":802.64,"population":1496,"departement":{"code":"62","nom":"Pas-de-Calais"},"region":{"code":"32","nom":"Hauts-de-France"}},{"nom":"Guarbecque","code":"62391","codesPostaux":["62330"],"centre":{"type":"Point","coordinates":[2.4876,50.6078]},"surface":544.51,"population":1369,"departement":{"code":"62","nom":"Pas-de-Calais"},"region":{"code":"32","nom":"Hauts-de-France"}},{"nom":"Guémappe","code":"62392","codesPostaux":["62128"],"centre":{"type":"Point","coordinates":[2.8949,50.2514]},"surface":448.65,"population":394,"departement":{"code":"62","nom":"Pas-de-Calais"},"region":{"code":"32","nom":"Hauts-de-France"}},{"nom":"Guemps","code":"62393","codesPostaux":["62370"],"centre":{"type":"Point","coordinates":[1.9986,50.9185]},"surface":1580.21,"population":1116,"departement":{"code":"62","nom":"Pas-de-Calais"},"region":{"code":"32","nom":"Hauts-de-France"}},{"nom":"Guigny","code":"62395","codesPostaux":["62140"],"centre":{"type":"Point","coordinates":[1.9956,50.3268]},"surface":358.22,"population":137,"departement":{"code":"62","nom":"Pas-de-Calais"},"region":{"code":"32","nom":"Hauts-de-France"}},{"nom":"Guinecourt","code":"62396","codesPostaux":["62130"],"centre":{"type":"Point","coordinates":[2.2274,50.3477]},"surface":223.48,"population":14,"departement":{"code":"62","nom":"Pas-de-Calais"},"region":{"code":"32","nom":"Hauts-de-France"}},{"nom":"Guînes","code":"62397","codesPostaux":["62340"],"centre":{"type":"Point","coordinates":[1.8726,50.855]},"surface":2622.47,"population":5545,"departement":{"code":"62","nom":"Pas-de-Calais"},"region":{"code":"32","nom":"Hauts-de-France"}},{"nom":"Guisy","code":"62398","codesPostaux":["62140"],"centre":{"type":"Point","coordinates":[2.0043,50.3877]},"surface":116.79,"population":270,"departement":{"code":"62","nom":"Pas-de-Calais"},"region":{"code":"32","nom":"Hauts-de-France"}},{"nom":"Habarcq","code":"62399","codesPostaux":["62123"],"centre":{"type":"Point","coordinates":[2.6035,50.31]},"surface":707.79,"population":657,"departement":{"code":"62","nom":"Pas-de-Calais"},"region":{"code":"32","nom":"Hauts-de-France"}},{"nom":"Haillicourt","code":"62400","codesPostaux":["62940"],"centre":{"type":"Point","coordinates":[2.5796,50.4747]},"surface":446.47,"population":4884,"departement":{"code":"62","nom":"Pas-de-Calais"},"region":{"code":"32","nom":"Hauts-de-France"}},{"nom":"Haisnes","code":"62401","codesPostaux":["62138"],"centre":{"type":"Point","coordinates":[2.7948,50.5007]},"surface":561.88,"population":4427,"departement":{"code":"62","nom":"Pas-de-Calais"},"region":{"code":"32","nom":"Hauts-de-France"}},{"nom":"Halinghen","code":"62402","codesPostaux":["62830"],"centre":{"type":"Point","coordinates":[1.6795,50.6072]},"surface":563.98,"population":312,"departement":{"code":"62","nom":"Pas-de-Calais"},"region":{"code":"32","nom":"Hauts-de-France"}},{"nom":"Hallines","code":"62403","codesPostaux":["62570"],"centre":{"type":"Point","coordinates":[2.2104,50.7017]},"surface":570.28,"population":1207,"departement":{"code":"62","nom":"Pas-de-Calais"},"region":{"code":"32","nom":"Hauts-de-France"}},{"nom":"Halloy","code":"62404","codesPostaux":["62760"],"centre":{"type":"Point","coordinates":[2.4256,50.1613]},"surface":341.59,"population":199,"departement":{"code":"62","nom":"Pas-de-Calais"},"region":{"code":"32","nom":"Hauts-de-France"}},{"nom":"Hamblain-les-Prés","code":"62405","codesPostaux":["62118"],"centre":{"type":"Point","coordinates":[2.9585,50.2911]},"surface":489.15,"population":464,"departement":{"code":"62","nom":"Pas-de-Calais"},"region":{"code":"32","nom":"Hauts-de-France"}},{"nom":"Hamelincourt","code":"62406","codesPostaux":["62121"],"centre":{"type":"Point","coordinates":[2.804,50.1837]},"surface":662.65,"population":265,"departement":{"code":"62","nom":"Pas-de-Calais"},"region":{"code":"32","nom":"Hauts-de-France"}},{"nom":"Ham-en-Artois","code":"62407","codesPostaux":["62190"],"centre":{"type":"Point","coordinates":[2.4562,50.5928]},"surface":331.01,"population":944,"departement":{"code":"62","nom":"Pas-de-Calais"},"region":{"code":"32","nom":"Hauts-de-France"}},{"nom":"Hames-Boucres","code":"62408","codesPostaux":["62340"],"centre":{"type":"Point","coordinates":[1.8468,50.8854]},"surface":1325.17,"population":1447,"departement":{"code":"62","nom":"Pas-de-Calais"},"region":{"code":"32","nom":"Hauts-de-France"}},{"nom":"Hannescamps","code":"62409","codesPostaux":["62111"],"centre":{"type":"Point","coordinates":[2.6395,50.1622]},"surface":317.72,"population":194,"departement":{"code":"62","nom":"Pas-de-Calais"},"region":{"code":"32","nom":"Hauts-de-France"}},{"nom":"Haplincourt","code":"62410","codesPostaux":["62124"],"centre":{"type":"Point","coordinates":[2.938,50.0924]},