[{"nom":"Aiglun","code":"04001","codesPostaux":["04510"],"centre":{"type":"Point","coordinates":[6.1413,44.0632]},"surface":1464.97,"population":1406,"departement":{"code":"04","nom":"Alpes-de-Haute-Provence"},"region":{"code":"93","nom":"Provence-Alpes-Côte d'Azur"}},{"nom":"Allemagne-en-Provence","code":"04004","codesPostaux":["04500"],"centre":{"type":"Point","coordinates":[6.0257,43.7921]},"surface":3313.49,"population":539,"departement":{"code":"04","nom":"Alpes-de-Haute-Provence"},"region":{"code":"93","nom":"Provence-Alpes-Côte d'Azur"}},{"nom":"Allons","code":"04005","codesPostaux":["04170"],"centre":{"type":"Point","coordinates":[6.5929,43.9769]},"surface":4198.16,"population":125,"departement":{"code":"04","nom":"Alpes-de-Haute-Provence"},"region":{"code":"93","nom":"Provence-Alpes-Côte d'Azur"}},{"nom":"Allos","code":"04006","codesPostaux":["04260"],"centre":{"type":"Point","coordinates":[6.6304,44.269]},"surface":11722.66,"population":816,"departement":{"code":"04","nom":"Alpes-de-Haute-Provence"},"region":{"code":"93","nom":"Provence-Alpes-Côte d'Azur"}},{"nom":"Angles","code":"04007","codesPostaux":["04170"],"centre":{"type":"Point","coordinates":[6.5531,43.9442]},"surface":998.46,"population":70,"departement":{"code":"04","nom":"Alpes-de-Haute-Provence"},"region":{"code":"93","nom":"Provence-Alpes-Côte d'Azur"}},{"nom":"Annot","code":"04008","codesPostaux":["04240"],"centre":{"type":"Point","coordinates":[6.6631,43.9631]},"surface":2988.89,"population":1013,"departement":{"code":"04","nom":"Alpes-de-Haute-Provence"},"region":{"code":"93","nom":"Provence-Alpes-Côte d'Azur"}},{"nom":"Archail","code":"04009","codesPostaux":["04420"],"centre":{"type":"Point","coordinates":[6.3309,44.115]},"surface":1298.41,"population":14,"departement":{"code":"04","nom":"Alpes-de-Haute-Provence"},"region":{"code":"93","nom":"Provence-Alpes-Côte d'Azur"}},{"nom":"Aubenas-les-Alpes","code":"04012","codesPostaux":["04110"],"centre":{"type":"Point","coordinates":[5.6757,43.9359]},"surface":797.22,"population":85,"departement":{"code":"04","nom":"Alpes-de-Haute-Provence"},"region":{"code":"93","nom":"Provence-Alpes-Côte d'Azur"}},{"nom":"Aubignosc","code":"04013","codesPostaux":["04200"],"centre":{"type":"Point","coordinates":[5.9542,44.1211]},"surface":1501.79,"population":624,"departement":{"code":"04","nom":"Alpes-de-Haute-Provence"},"region":{"code":"93","nom":"Provence-Alpes-Côte d'Azur"}},{"nom":"Authon","code":"04016","codesPostaux":["04200"],"centre":{"type":"Point","coordinates":[6.1442,44.2475]},"surface":4030.15,"population":59,"departement":{"code":"04","nom":"Alpes-de-Haute-Provence"},"region":{"code":"93","nom":"Provence-Alpes-Côte d'Azur"}},{"nom":"Auzet","code":"04017","codesPostaux":["04140"],"centre":{"type":"Point","coordinates":[6.3169,44.3041]},"surface":3494.57,"population":102,"departement":{"code":"04","nom":"Alpes-de-Haute-Provence"},"region":{"code":"93","nom":"Provence-Alpes-Côte d'Azur"}},{"nom":"Banon","code":"04018","codesPostaux":["04150"],"centre":{"type":"Point","coordinates":[5.6496,44.0244]},"surface":3996.64,"population":1070,"departement":{"code":"04","nom":"Alpes-de-Haute-Provence"},"region":{"code":"93","nom":"Provence-Alpes-Côte d'Azur"}},{"nom":"Barcelonnette","code":"04019","codesPostaux":["04400"],"centre":{"type":"Point","coordinates":[6.6463,44.3751]},"surface":1663.49,"population":2528,"departement":{"code":"04","nom":"Alpes-de-Haute-Provence"},"region":{"code":"93","nom":"Provence-Alpes-Côte d'Azur"}},{"nom":"Barles","code":"04020","codesPostaux":["04140"],"centre":{"type":"Point","coordinates":[6.2532,44.2815]},"surface":5969.54,"population":124,"departement":{"code":"04","nom":"Alpes-de-Haute-Provence"},"region":{"code":"93","nom":"Provence-Alpes-Côte d'Azur"}},{"nom":"Barras","code":"04021","codesPostaux":["04380"],"centre":{"type":"Point","coordinates":[6.0987,44.0949]},"surface":2097.1,"population":142,"departement":{"code":"04","nom":"Alpes-de-Haute-Provence"},"region":{"code":"93","nom":"Provence-Alpes-Côte d'Azur"}},{"nom":"Barrême","code":"04022","codesPostaux":["04330"],"centre":{"type":"Point","coordinates":[6.386,43.9467]},"surface":3735.47,"population":402,"departement":{"code":"04","nom":"Alpes-de-Haute-Provence"},"region":{"code":"93","nom":"Provence-Alpes-Côte d'Azur"}},{"nom":"Bayons","code":"04023","codesPostaux":["04250"],"centre":{"type":"Point","coordinates":[6.1832,44.3233]},"surface":12642.94,"population":202,"departement":{"code":"04","nom":"Alpes-de-Haute-Provence"},"region":{"code":"93","nom":"Provence-Alpes-Côte d'Azur"}},{"nom":"Beaujeu","code":"04024","codesPostaux":["04420"],"centre":{"type":"Point","coordinates":[6.3714,44.2144]},"surface":4607.04,"population":122,"departement":{"code":"04","nom":"Alpes-de-Haute-Provence"},"region":{"code":"93","nom":"Provence-Alpes-Côte d'Azur"}},{"nom":"Beauvezer","code":"04025","codesPostaux":["04370"],"centre":{"type":"Point","coordinates":[6.6051,44.1454]},"surface":2702.74,"population":387,"departement":{"code":"04","nom":"Alpes-de-Haute-Provence"},"region":{"code":"93","nom":"Provence-Alpes-Côte d'Azur"}},{"nom":"Bellaffaire","code":"04026","codesPostaux":["04250"],"centre":{"type":"Point","coordinates":[6.1947,44.4074]},"surface":1321.22,"population":158,"departement":{"code":"04","nom":"Alpes-de-Haute-Provence"},"region":{"code":"93","nom":"Provence-Alpes-Côte d'Azur"}},{"nom":"Bevons","code":"04027","codesPostaux":["04200"],"centre":{"type":"Point","coordinates":[5.8772,44.1753]},"surface":1140.83,"population":256,"departement":{"code":"04","nom":"Alpes-de-Haute-Provence"},"region":{"code":"93","nom":"Provence-Alpes-Côte d'Azur"}},{"nom":"Beynes","code":"04028","codesPostaux":["04270"],"centre":{"type":"Point","coordinates":[6.2422,43.9802]},"surface":4125.7,"population":121,"departement":{"code":"04","nom":"Alpes-de-Haute-Provence"},"region":{"code":"93","nom":"Provence-Alpes-Côte d'Azur"}},{"nom":"Blieux","code":"04030","codesPostaux":["04330"],"centre":{"type":"Point","coordinates":[6.3671,43.8772]},"surface":5824.58,"population":52,"departement":{"code":"04","nom":"Alpes-de-Haute-Provence"},"region":{"code":"93","nom":"Provence-Alpes-Côte d'Azur"}},{"nom":"Bras-d'Asse","code":"04031","codesPostaux":["04270"],"centre":{"type":"Point","coordinates":[6.1278,43.9284]},"surface":2625.39,"population":559,"departement":{"code":"04","nom":"Alpes-de-Haute-Provence"},"region":{"code":"93","nom":"Provence-Alpes-Côte d'Azur"}},{"nom":"Braux","code":"04032","codesPostaux":["04240"],"centre":{"type":"Point","coordinates":[6.6982,43.9902]},"surface":1177.16,"population":134,"departement":{"code":"04","nom":"Alpes-de-Haute-Provence"},"region":{"code":"93","nom":"Provence-Alpes-Côte d'Azur"}},{"nom":"Ubaye-Serre-Ponçon","code":"04033","codesPostaux":["04340"],"centre":{"type":"Point","coordinates":[6.319,44.4447]},"surface":6757.89,"population":796,"departement":{"code":"04","nom":"Alpes-de-Haute-Provence"},"region":{"code":"93","nom":"Provence-Alpes-Côte d'Azur"}},{"nom":"La Brillanne","code":"04034","codesPostaux":["04700"],"centre":{"type":"Point","coordinates":[5.8822,43.93]},"surface":693.74,"population":1114,"departement":{"code":"04","nom":"Alpes-de-Haute-Provence"},"region":{"code":"93","nom":"Provence-Alpes-Côte d'Azur"}},{"nom":"Brunet","code":"04035","codesPostaux":["04210"],"centre":{"type":"Point","coordinates":[6.0256,43.8854]},"surface":2884.09,"population":293,"departement":{"code":"04","nom":"Alpes-de-Haute-Provence"},"region":{"code":"93","nom":"Provence-Alpes-Côte d'Azur"}},{"nom":"Le Brusquet","code":"04036","codesPostaux":["04420"],"centre":{"type":"Point","coordinates":[6.3036,44.1725]},"surface":2230.24,"population":967,"departement":{"code":"04","nom":"Alpes-de-Haute-Provence"},"region":{"code":"93","nom":"Provence-Alpes-Côte d'Azur"}},{"nom":"Le Caire","code":"04037","codesPostaux":["04250"],"centre":{"type":"Point","coordinates":[6.0706,44.3776]},"surface":1770.34,"population":77,"departement":{"code":"04","nom":"Alpes-de-Haute-Provence"},"region":{"code":"93","nom":"Provence-Alpes-Côte d'Azur"}},{"nom":"Castellane","code":"04039","codesPostaux":["04120"],"centre":{"type":"Point","coordinates":[6.4871,43.8485]},"surface":12217.09,"population":1454,"departement":{"code":"04","nom":"Alpes-de-Haute-Provence"},"region":{"code":"93","nom":"Provence-Alpes-Côte d'Azur"}},{"nom":"Le Castellard-Mélan","code":"04040","codesPostaux":["04380"],"centre":{"type":"Point","coordinates":[6.135,44.1995]},"surface":2596.83,"population":62,"departement":{"code":"04","nom":"Alpes-de-Haute-Provence"},"region":{"code":"93","nom":"Provence-Alpes-Côte d'Azur"}},{"nom":"Le Castellet","code":"04041","codesPostaux":["04700"],"centre":{"type":"Point","coordinates":[5.9798,43.9218]},"surface":1896.35,"population":300,"departement":{"code":"04","nom":"Alpes-de-Haute-Provence"},"region":{"code":"93","nom":"Provence-Alpes-Côte d'Azur"}},{"nom":"Castellet-lès-Sausses","code":"04042","codesPostaux":["04320"],"centre":{"type":"Point","coordinates":[6.7436,44.0442]},"surface":5449.68,"population":140,"departement":{"code":"04","nom":"Alpes-de-Haute-Provence"},"region":{"code":"93","nom":"Provence-Alpes-Côte d'Azur"}},{"nom":"Val-de-Chalvagne","code":"04043","codesPostaux":["04320"],"centre":{"type":"Point","coordinates":[6.7745,43.9036]},"surface":3266.63,"population":83,"departement":{"code":"04","nom":"Alpes-de-Haute-Provence"},"region":{"code":"93","nom":"Provence-Alpes-Côte d'Azur"}},{"nom":"Céreste-en-Luberon","code":"04045","codesPostaux":["04280"],"centre":{"type":"Point","coordinates":[5.5883,43.853]},"surface":3260.42,"population":1195,"departement":{"code":"04","nom":"Alpes-de-Haute-Provence"},"region":{"code":"93","nom":"Provence-Alpes-Côte d'Azur"}},{"nom":"Le Chaffaut-Saint-Jurson","code":"04046","codesPostaux":["04510"],"centre":{"type":"Point","coordinates":[6.1459,44.025]},"surface":2942.68,"population":689,"departement":{"code":"04","nom":"Alpes-de-Haute-Provence"},"region":{"code":"93","nom":"Provence-Alpes-Côte d'Azur"}},{"nom":"Champtercier","code":"04047","codesPostaux":["04660"],"centre":{"type":"Point","coordinates":[6.145,44.0977]},"surface":1873.55,"population":785,"departement":{"code":"04","nom":"Alpes-de-Haute-Provence"},"region":{"code":"93","nom":"Provence-Alpes-Côte d'Azur"}},{"nom":"Château-Arnoux-Saint-Auban","code":"04049","codesPostaux":["04160","04600"],"centre":{"type":"Point","coordinates":[5.9942,44.0801]},"surface":1853.4,"population":5095,"departement":{"code":"04","nom":"Alpes-de-Haute-Provence"},"region":{"code":"93","nom":"Provence-Alpes-Côte d'Azur"}},{"nom":"Châteaufort","code":"04050","codesPostaux":["04250"],"centre":{"type":"Point","coordinates":[6.0263,44.2762]},"surface":1380.78,"population":25,"departement":{"code":"04","nom":"Alpes-de-Haute-Provence"},"region":{"code":"93","nom":"Provence-Alpes-Côte d'Azur"}},{"nom":"Châteauneuf-Miravail","code":"04051","codesPostaux":["04200"],"centre":{"type":"Point","coordinates":[5.7142,44.1521]},"surface":1964.27,"population":75,"departement":{"code":"04","nom":"Alpes-de-Haute-Provence"},"region":{"code":"93","nom":"Provence-Alpes-Côte d'Azur"}},{"nom":"Châteauneuf-Val-Saint-Donat","code":"04053","codesPostaux":["04200"],"centre":{"type":"Point","coordinates":[5.9289,44.0951]},"surface":2121.2,"population":529,"departement":{"code":"04","nom":"Alpes-de-Haute-Provence"},"region":{"code":"93","nom":"Provence-Alpes-Côte d'Azur"}},{"nom":"Châteauredon","code":"04054","codesPostaux":["04270"],"centre":{"type":"Point","coordinates":[6.2239,44.0264]},"surface":1064.29,"population":74,"departement":{"code":"04","nom":"Alpes-de-Haute-Provence"},"region":{"code":"93","nom":"Provence-Alpes-Côte d'Azur"}},{"nom":"Chaudon-Norante","code":"04055","codesPostaux":["04330"],"centre":{"type":"Point","coordinates":[6.3208,43.9884]},"surface":3764.17,"population":180,"departement":{"code":"04","nom":"Alpes-de-Haute-Provence"},"region":{"code":"93","nom":"Provence-Alpes-Côte d'Azur"}},{"nom":"Clamensane","code":"04057","codesPostaux":["04250"],"centre":{"type":"Point","coordinates":[6.0784,44.3301]},"surface":2394.61,"population":180,"departement":{"code":"04","nom":"Alpes-de-Haute-Provence"},"region":{"code":"93","nom":"Provence-Alpes-Côte d'Azur"}},{"nom":"Claret","code":"04058","codesPostaux":["05110"],"centre":{"type":"Point","coordinates":[5.9662,44.3728]},"surface":2097.47,"population":296,"departement":{"code":"04","nom":"Alpes-de-Haute-Provence"},"region":{"code":"93","nom":"Provence-Alpes-Côte d'Azur"}},{"nom":"Clumanc","code":"04059","codesPostaux":["04330"],"centre":{"type":"Point","coordinates":[6.3783,44.022]},"surface":5397.72,"population":221,"departement":{"code":"04","nom":"Alpes-de-Haute-Provence"},"region":{"code":"93","nom":"Provence-Alpes-Côte d'Azur"}},{"nom":"Colmars","code":"04061","codesPostaux":["04370"],"centre":{"type":"Point","coordinates":[6.6585,44.1602]},"surface":8171.05,"population":548,"departement":{"code":"04","nom":"Alpes-de-Haute-Provence"},"region":{"code":"93","nom":"Provence-Alpes-Côte d'Azur"}},{"nom":"La Condamine-Châtelard","code":"04062","codesPostaux":["04530"],"centre":{"type":"Point","coordinates":[6.7054,44.4678]},"surface":5664.09,"population":156,"departement":{"code":"04","nom":"Alpes-de-Haute-Provence"},"region":{"code":"93","nom":"Provence-Alpes-Côte d'Azur"}},{"nom":"Corbières-en-Provence","code":"04063","codesPostaux":["04220"],"centre":{"type":"Point","coordinates":[5.7481,43.7593]},"surface":1879.32,"population":1285,"departement":{"code":"04","nom":"Alpes-de-Haute-Provence"},"region":{"code":"93","nom":"Provence-Alpes-Côte d'Azur"}},{"nom":"Cruis","code":"04065","codesPostaux":["04230"],"centre":{"type":"Point","coordinates":[5.8397,44.0845]},"surface":3659.91,"population":646,"departement":{"code":"04","nom":"Alpes-de-Haute-Provence"},"region":{"code":"93","nom":"Provence-Alpes-Côte d'Azur"}},{"nom":"Curbans","code":"04066","codesPostaux":["05110"],"centre":{"type":"Point","coordinates":[6.0189,44.4132]},"surface":2909.04,"population":577,"departement":{"code":"04","nom":"Alpes-de-Haute-Provence"},"region":{"code":"93","nom":"Provence-Alpes-Côte d'Azur"}},{"nom":"Curel","code":"04067","codesPostaux":["04200"],"centre":{"type":"Point","coordinates":[5.6717,44.1765]},"surface":1064.56,"population":59,"departement":{"code":"04","nom":"Alpes-de-Haute-Provence"},"region":{"code":"93","nom":"Provence-Alpes-Côte d'Azur"}},{"nom":"Dauphin","code":"04068","codesPostaux":["04300"],"centre":{"type":"Point","coordinates":[5.7765,43.8947]},"surface":982.85,"population":837,"departement":{"code":"04","nom":"Alpes-de-Haute-Provence"},"region":{"code":"93","nom":"Provence-Alpes-Côte d'Azur"}},{"nom":"Demandolx","code":"04069","codesPostaux":["04120"],"centre":{"type":"Point","coordinates":[6.5768,43.8685]},"surface":2054.52,"population":111,"departement":{"code":"04","nom":"Alpes-de-Haute-Provence"},"region":{"code":"93","nom":"Provence-Alpes-Côte d'Azur"}},{"nom":"Digne-les-Bains","code":"04070","codesPostaux":["04000"],"centre":{"type":"Point","coordinates":[6.2495,44.0954]},"surface":10541.75,"population":17694,"departement":{"code":"04","nom":"Alpes-de-Haute-Provence"},"region":{"code":"93","nom":"Provence-Alpes-Côte d'Azur"}},{"nom":"Draix","code":"04072","codesPostaux":["04420"],"centre":{"type":"Point","coordinates":[6.375,44.1331]},"surface":2315,"population":113,"departement":{"code":"04","nom":"Alpes-de-Haute-Provence"},"region":{"code":"93","nom":"Provence-Alpes-Côte d'Azur"}},{"nom":"Enchastrayes","code":"04073","codesPostaux":["04400"],"centre":{"type":"Point","coordinates":[6.7129,44.3684]},"surface":4455.06,"population":397,"departement":{"code":"04","nom":"Alpes-de-Haute-Provence"},"region":{"code":"93","nom":"Provence-Alpes-Côte d'Azur"}},{"nom":"Entrages","code":"04074","codesPostaux":["04000","04270"],"centre":{"type":"Point","coordinates":[6.2732,44.0398]},"surface":2262.42,"population":100,"departement":{"code":"04","nom":"Alpes-de-Haute-Provence"},"region":{"code":"93","nom":"Provence-Alpes-Côte d'Azur"}},{"nom":"Entrepierres","code":"04075","codesPostaux":["04200"],"centre":{"type":"Point","coordinates":[6.0254,44.195]},"surface":4857.12,"population":409,"departement":{"code":"04","nom":"Alpes-de-Haute-Provence"},"region":{"code":"93","nom":"Provence-Alpes-Côte d'Azur"}},{"nom":"Entrevaux","code":"04076","codesPostaux":["04320"],"centre":{"type":"Point","coordinates":[6.8067,43.9522]},"surface":6087.55,"population":791,"departement":{"code":"04","nom":"Alpes-de-Haute-Provence"},"region":{"code":"93","nom":"Provence-Alpes-Côte d'Azur"}},{"nom":"Entrevennes","code":"04077","codesPostaux":["04700"],"centre":{"type":"Point","coordinates":[6.0366,43.9393]},"surface":2990.53,"population":169,"departement":{"code":"04","nom":"Alpes-de-Haute-Provence"},"region":{"code":"93","nom":"Provence-Alpes-Côte d'Azur"}},{"nom":"L'Escale","code":"04079","codesPostaux":["04160"],"centre":{"type":"Point","coordinates":[6.0363,44.0777]},"surface":2028.75,"population":1402,"departement":{"code":"04","nom":"Alpes-de-Haute-Provence"},"region":{"code":"93","nom":"Provence-Alpes-Côte d'Azur"}},{"nom":"Esparron-de-Verdon","code":"04081","codesPostaux":["04800"],"centre":{"type":"Point","coordinates":[5.9948,43.74]},"surface":3639.67,"population":382,"departement":{"code":"04","nom":"Alpes-de-Haute-Provence"},"region":{"code":"93","nom":"Provence-Alpes-Côte d'Azur"}},{"nom":"Estoublon","code":"04084","codesPostaux":["04270"],"centre":{"type":"Point","coordinates":[6.2004,43.9487]},"surface":3441.86,"population":480,"departement":{"code":"04","nom":"Alpes-de-Haute-Provence"},"region":{"code":"93","nom":"Provence-Alpes-Côte d'Azur"}},{"nom":"Faucon-du-Caire","code":"04085","codesPostaux":["04250"],"centre":{"type":"Point","coordinates":[6.0998,44.3952]},"surface":2005.54,"population":62,"departement":{"code":"04","nom":"Alpes-de-Haute-Provence"},"region":{"code":"93","nom":"Provence-Alpes-Côte d'Azur"}},{"nom":"Faucon-de-Barcelonnette","code":"04086","codesPostaux":["04400"],"centre":{"type":"Point","coordinates":[6.684,44.4137]},"surface":1712.98,"population":293,"departement":{"code":"04","nom":"Alpes-de-Haute-Provence"},"region":{"code":"93","nom":"Provence-Alpes-Côte d'Azur"}},{"nom":"Fontienne","code":"04087","codesPostaux":["04230"],"centre":{"type":"Point","coordinates":[5.7897,44.0076]},"surface":821.61,"population":131,"departement":{"code":"04","nom":"Alpes-de-Haute-Provence"},"region":{"code":"93","nom":"Provence-Alpes-Côte d'Azur"}},{"nom":"Forcalquier","code":"04088","codesPostaux":["04300"],"centre":{"type":"Point","coordinates":[5.7842,43.9582]},"surface":4330.81,"population":5142,"departement":{"code":"04","nom":"Alpes-de-Haute-Provence"},"region":{"code":"93","nom":"Provence-Alpes-Côte d'Azur"}},{"nom":"Le Fugeret","code":"04090","codesPostaux":["04240"],"centre":{"type":"Point","coordinates":[6.6627,44.0183]},"surface":2842.29,"population":200,"departement":{"code":"04","nom":"Alpes-de-Haute-Provence"},"region":{"code":"93","nom":"Provence-Alpes-Côte d'Azur"}},{"nom":"Ganagobie","code":"04091","codesPostaux":["04310"],"centre":{"type":"Point","coordinates":[5.9113,44.0026]},"surface":1057.64,"population":90,"departement":{"code":"04","nom":"Alpes-de-Haute-Provence"},"region":{"code":"93","nom":"Provence-Alpes-Côte d'Azur"}},{"nom":"La Garde","code":"04092","codesPostaux":["04120"],"centre":{"type":"Point","coordinates":[6.5662,43.8256]},"surface":1679.11,"population":126,"departement":{"code":"04","nom":"Alpes-de-Haute-Provence"},"region":{"code":"93","nom":"Provence-Alpes-Côte d'Azur"}},{"nom":"Gigors","code":"04093","codesPostaux":["04250"],"centre":{"type":"Point","coordinates":[6.1422,44.4243]},"surface":1380.1,"population":59,"departement":{"code":"04","nom":"Alpes-de-Haute-Provence"},"region":{"code":"93","nom":"Provence-Alpes-Côte d'Azur"}},{"nom":"Gréoux-les-Bains","code":"04094","codesPostaux":["04800"],"centre":{"type":"Point","coordinates":[5.8597,43.7628]},"surface":6959.17,"population":3088,"departement":{"code":"04","nom":"Alpes-de-Haute-Provence"},"region":{"code":"93","nom":"Provence-Alpes-Côte d'Azur"}},{"nom":"L'Hospitalet","code":"04095","codesPostaux":["04150"],"centre":{"type":"Point","coordinates":[5.7078,44.1068]},"surface":1963.82,"population":96,"departement":{"code":"04","nom":"Alpes-de-Haute-Provence"},"region":{"code":"93","nom":"Provence-Alpes-Côte d'Azur"}},{"nom":"Jausiers","code":"04096","codesPostaux":["04850"],"centre":{"type":"Point","coordinates":[6.7745,44.3795]},"surface":10830.31,"population":1142,"departement":{"code":"04","nom":"Alpes-de-Haute-Provence"},"region":{"code":"93","nom":"Provence-Alpes-Côte d'Azur"}},{"nom":"La Javie","code":"04097","codesPostaux":["04000","04420"],"centre":{"type":"Point","coordinates":[6.3183,44.197]},"surface":3742.31,"population":374,"departement":{"code":"04","nom":"Alpes-de-Haute-Provence"},"region":{"code":"93","nom":"Provence-Alpes-Côte d'Azur"}},{"nom":"Lambruisse","code":"04099","codesPostaux":["04170"],"centre":{"type":"Point","coordinates":[6.4538,44.0484]},"surface":2196.69,"population":81,"departement":{"code":"04","nom":"Alpes-de-Haute-Provence"},"region":{"code":"93","nom":"Provence-Alpes-Côte d'Azur"}},{"nom":"Lardiers","code":"04101","codesPostaux":["04230"],"centre":{"type":"Point","coordinates":[5.7228,44.0846]},"surface":3021.93,"population":139,"departement":{"code":"04","nom":"Alpes-de-Haute-Provence"},"region":{"code":"93","nom":"Provence-Alpes-Côte d'Azur"}},{"nom":"Le Lauzet-Ubaye","code":"04102","codesPostaux":["04340"],"centre":{"type":"Point","coordinates":[6.4052,44.4255]},"surface":6733.48,"population":212,"departement":{"code":"04","nom":"Alpes-de-Haute-Provence"},"region":{"code":"93","nom":"Provence-Alpes-Côte d'Azur"}},{"nom":"Limans","code":"04104","codesPostaux":["04300"],"centre":{"type":"Point","coordinates":[5.7188,43.986]},"surface":2097.48,"population":387,"departement":{"code":"04","nom":"Alpes-de-Haute-Provence"},"region":{"code":"93","nom":"Provence-Alpes-Côte d'Azur"}},{"nom":"Lurs","code":"04106","codesPostaux":["04700"],"centre":{"type":"Point","coordinates":[5.878,43.9674]},"surface":2250.66,"population":373,"departement":{"code":"04","nom":"Alpes-de-Haute-Provence"},"region":{"code":"93","nom":"Provence-Alpes-Côte d'Azur"}},{"nom":"Majastres","code":"04107","codesPostaux":["04270"],"centre":{"type":"Point","coordinates":[6.2773,43.8937]},"surface":3019.05,"population":5,"departement":{"code":"04","nom":"Alpes-de-Haute-Provence"},"region":{"code":"93","nom":"Provence-Alpes-Côte d'Azur"}},{"nom":"Malijai","code":"04108","codesPostaux":["04350","04510"],"centre":{"type":"Point","coordinates":[6.052,44.0392]},"surface":2663.5,"population":2019,"departement":{"code":"04","nom":"Alpes-de-Haute-Provence"},"region":{"code":"93","nom":"Provence-Alpes-Côte d'Azur"}},{"nom":"Mallefougasse-Augès","code":"04109","codesPostaux":["04230"],"centre":{"type":"Point","coordinates":[5.8998,44.0766]},"surface":1949.21,"population":325,"departement":{"code":"04","nom":"Alpes-de-Haute-Provence"},"region":{"code":"93","nom":"Provence-Alpes-Côte d'Azur"}},{"nom":"Mallemoisson","code":"04110","codesPostaux":["04510"],"centre":{"type":"Point","coordinates":[6.1201,44.0432]},"surface":645.07,"population":968,"departement":{"code":"04","nom":"Alpes-de-Haute-Provence"},"region":{"code":"93","nom":"Provence-Alpes-Côte d'Azur"}},{"nom":"Mane","code":"04111","codesPostaux":["04300"],"centre":{"type":"Point","coordinates":[5.7419,43.9426]},"surface":2193.43,"population":1390,"departement":{"code":"04","nom":"Alpes-de-Haute-Provence"},"region":{"code":"93","nom":"Provence-Alpes-Côte d'Azur"}},{"nom":"Manosque","code":"04112","codesPostaux":["04100"],"centre":{"type":"Point","coordinates":[5.7896,43.8293]},"surface":5675.64,"population":22807,"departement":{"code":"04","nom":"Alpes-de-Haute-Provence"},"region":{"code":"93","nom":"Provence-Alpes-Côte d'Azur"}},{"nom":"Marcoux","code":"04113","codesPostaux":["04420"],"centre":{"type":"Point","coordinates":[6.2818,44.1287]},"surface":3285.68,"population":460,"departement":{"code":"04","nom":"Alpes-de-Haute-Provence"},"region":{"code":"93","nom":"Provence-Alpes-Côte d'Azur"}},{"nom":"Méailles","code":"04115","codesPostaux":["04240"],"centre":{"type":"Point","coordinates":[6.6475,44.0432]},"surface":3287.6,"population":118,"departement":{"code":"04","nom":"Alpes-de-Haute-Provence"},"region":{"code":"93","nom":"Provence-Alpes-Côte d'Azur"}},{"nom":"Les Mées","code":"04116","codesPostaux":["04190"],"centre":{"type":"Point","coordinates":[5.9679,43.9956]},"surface":6470.17,"population":3992,"departement":{"code":"04","nom":"Alpes-de-Haute-Provence"},"region":{"code":"93","nom":"Provence-Alpes-Côte d'Azur"}},{"nom":"Melve","code":"04118","codesPostaux":["04250"],"centre":{"type":"Point","coordinates":[5.9895,44.3546]},"surface":1420.08,"population":127,"departement":{"code":"04","nom":"Alpes-de-Haute-Provence"},"region":{"code":"93","nom":"Provence-Alpes-Côte d'Azur"}},{"nom":"Val d'Oronaye","code":"04120","codesPostaux":["04530"],"centre":{"type":"Point","coordinates":[6.8559,44.43]},"surface":11093.81,"population":98,"departement":{"code":"04","nom":"Alpes-de-Haute-Provence"},"region":{"code":"93","nom":"Provence-Alpes-Côte d'Azur"}},{"nom":"Mézel","code":"04121","codesPostaux":["04270"],"centre":{"type":"Point","coordinates":[6.1799,43.9979]},"surface":2170.68,"population":617,"departement":{"code":"04","nom":"Alpes-de-Haute-Provence"},"region":{"code":"93","nom":"Provence-Alpes-Côte d'Azur"}},{"nom":"Mirabeau","code":"04122","codesPostaux":["04510"],"centre":{"type":"Point","coordinates":[6.0826,44.0608]},"surface":1906.01,"population":508,"departement":{"code":"04","nom":"Alpes-de-Haute-Provence"},"region":{"code":"93","nom":"Provence-Alpes-Côte d'Azur"}},{"nom":"Mison","code":"04123","codesPostaux":["04200"],"centre":{"type":"Point","coordinates":[5.8676,44.2629]},"surface":3163.91,"population":1115,"departement":{"code":"04","nom":"Alpes-de-Haute-Provence"},"region":{"code":"93","nom":"Provence-Alpes-Côte d'Azur"}},{"nom":"Montagnac-Montpezat","code":"04124","codesPostaux":["04500"],"centre":{"type":"Point","coordinates":[6.0944,43.7631]},"surface":3508.55,"population":405,"departement":{"code":"04","nom":"Alpes-de-Haute-Provence"},"region":{"code":"93","nom":"Provence-Alpes-Côte d'Azur"}},{"nom":"Montclar","code":"04126","codesPostaux":["04140"],"centre":{"type":"Point","coordinates":[6.3428,44.4004]},"surface":2337.51,"population":397,"departement":{"code":"04","nom":"Alpes-de-Haute-Provence"},"region":{"code":"93","nom":"Provence-Alpes-Côte d'Azur"}},{"nom":"Montfort","code":"04127","codesPostaux":["04600"],"centre":{"type":"Point","coordinates":[5.9505,44.0551]},"surface":1249.46,"population":333,"departement":{"code":"04","nom":"Alpes-de-Haute-Provence"},"region":{"code":"93","nom":"Provence-Alpes-Côte d'Azur"}},{"nom":"Montfuron","code":"04128","codesPostaux":["04110"],"centre":{"type":"Point","coordinates":[5.6901,43.8289]},"surface":1891.37,"population":220,"departement":{"code":"04","nom":"Alpes-de-Haute-Provence"},"region":{"code":"93","nom":"Provence-Alpes-Côte d'Azur"}},{"nom":"Montjustin","code":"04129","codesPostaux":["04110"],"centre":{"type":"Point","coordinates":[5.6584,43.8436]},"surface":1017.95,"population":57,"departement":{"code":"04","nom":"Alpes-de-Haute-Provence"},"region":{"code":"93","nom":"Provence-Alpes-Côte d'Azur"}},{"nom":"Montlaux","code":"04130","codesPostaux":["04230"],"centre":{"type":"Point","coordinates":[5.8443,44.0405]},"surface":1983.3,"population":211,"departement":{"code":"04","nom":"Alpes-de-Haute-Provence"},"region":{"code":"93","nom":"Provence-Alpes-Côte d'Azur"}},{"nom":"Montsalier","code":"04132","codesPostaux":["04150"],"centre":{"type":"Point","coordinates":[5.5896,44.0232]},"surface":2395.64,"population":167,"departement":{"code":"04","nom":"Alpes-de-Haute-Provence"},"region":{"code":"93","nom":"Provence-Alpes-Côte d'Azur"}},{"nom":"Moriez","code":"04133","codesPostaux":["04170"],"centre":{"type":"Point","coordinates":[6.462,43.963]},"surface":3738.1,"population":238,"departement":{"code":"04","nom":"Alpes-de-Haute-Provence"},"region":{"code":"93","nom":"Provence-Alpes-Côte d'Azur"}},{"nom":"La Motte-du-Caire","code":"04134","codesPostaux":["04250"],"centre":{"type":"Point","coordinates":[6.0406,44.3412]},"surface":2735.15,"population":544,"departement":{"code":"04","nom":"Alpes-de-Haute-Provence"},"region":{"code":"93","nom":"Provence-Alpes-Côte d'Azur"}},{"nom":"Moustiers-Sainte-Marie","code":"04135","codesPostaux":["04360"],"centre":{"type":"Point","coordinates":[6.2289,43.837]},"surface":9046.72,"population":695,"departement":{"code":"04","nom":"Alpes-de-Haute-Provence"},"region":{"code":"93","nom":"Provence-Alpes-Côte d'Azur"}},{"nom":"La Mure-Argens","code":"04136","codesPostaux":["04170"],"centre":{"type":"Point","coordinates":[6.5295,44.0186]},"surface":3498.39,"population":333,"departement":{"code":"04","nom":"Alpes-de-Haute-Provence"},"region":{"code":"93","nom":"Provence-Alpes-Côte d'Azur"}},{"nom":"Nibles","code":"04137","codesPostaux":["04250"],"centre":{"type":"Point","coordinates":[6.0095,44.2882]},"surface":1234.42,"population":54,"departement":{"code":"04","nom":"Alpes-de-Haute-Provence"},"region":{"code":"93","nom":"Provence-Alpes-Côte d'Azur"}},{"nom":"Niozelles","code":"04138","codesPostaux":["04300"],"centre":{"type":"Point","coordinates":[5.8445,43.933]},"surface":1060.78,"population":278,"departement":{"code":"04","nom":"Alpes-de-Haute-Provence"},"region":{"code":"93","nom":"Provence-Alpes-Côte d'Azur"}},{"nom":"Noyers-sur-Jabron","code":"04139","codesPostaux":["04200"],"centre":{"type":"Point","coordinates":[5.8078,44.1644]},"surface":5673.73,"population":527,"departement":{"code":"04","nom":"Alpes-de-Haute-Provence"},"region":{"code":"93","nom":"Provence-Alpes-Côte d'Azur"}},{"nom":"Les Omergues","code":"04140","codesPostaux":["04200"],"centre":{"type":"Point","coordinates":[5.5933,44.1513]},"surface":3433.63,"population":128,"departement":{"code":"04","nom":"Alpes-de-Haute-Provence"},"region":{"code":"93","nom":"Provence-Alpes-Côte d'Azur"}},{"nom":"Ongles","code":"04141","codesPostaux":["04230"],"centre":{"type":"Point","coordinates":[5.7249,44.039]},"surface":3171.34,"population":359,"departement":{"code":"04","nom":"Alpes-de-Haute-Provence"},"region":{"code":"93","nom":"Provence-Alpes-Côte d'Azur"}},{"nom":"Oppedette","code":"04142","codesPostaux":["04110"],"centre":{"type":"Point","coordinates":[5.5906,43.9304]},"surface":859.41,"population":44,"departement":{"code":"04","nom":"Alpes-de-Haute-Provence"},"region":{"code":"93","nom":"Provence-Alpes-Côte d'Azur"}},{"nom":"Oraison","code":"04143","codesPostaux":["04700"],"centre":{"type":"Point","coordinates":[5.9232,43.9116]},"surface":3867.95,"population":6042,"departement":{"code":"04","nom":"Alpes-de-Haute-Provence"},"region":{"code":"93","nom":"Provence-Alpes-Côte d'Azur"}},{"nom":"La Palud-sur-Verdon","code":"04144","codesPostaux":["04120"],"centre":{"type":"Point","coordinates":[6.323,43.801]},"surface":8172.77,"population":350,"departement":{"code":"04","nom":"Alpes-de-Haute-Provence"},"region":{"code":"93","nom":"Provence-Alpes-Côte d'Azur"}},{"nom":"Peipin","code":"04145","codesPostaux":["04200"],"centre":{"type":"Point","coordinates":[5.9447,44.1407]},"surface":1348.34,"population":1496,"departement":{"code":"04","nom":"Alpes-de-Haute-Provence"},"region":{"code":"93","nom":"Provence-Alpes-Côte d'Azur"}},{"nom":"Peyroules","code":"04148","codesPostaux":["04120"],"centre":{"type":"Point","coordinates":[6.6495,43.8168]},"surface":3343.94,"population":248,"departement":{"code":"04","nom":"Alpes-de-Haute-Provence"},"region":{"code":"93","nom":"Provence-Alpes-Côte d'Azur"}},{"nom":"Peyruis","code":"04149","codesPostaux":["04310"],"centre":{"type":"Point","coordinates":[5.9306,44.0351]},"surface":2335.04,"population":2796,"departement":{"code":"04","nom":"Alpes-de-Haute-Provence"},"region":{"code":"93","nom":"Provence-Alpes-Côte d'Azur"}},{"nom":"Piégut","code":"04150","codesPostaux":["05130"],"centre":{"type":"Point","coordinates":[6.1321,44.4546]},"surface":1111.45,"population":208,"departement":{"code":"04","nom":"Alpes-de-Haute-Provence"},"region":{"code":"93","nom":"Provence-Alpes-Côte d'Azur"}},{"nom":"Pierrerue","code":"04151","codesPostaux":["04300"],"centre":{"type":"Point","coordinates":[5.8394,43.9645]},"surface":1097.16,"population":530,"departement":{"code":"04","nom":"Alpes-de-Haute-Provence"},"region":{"code":"93","nom":"Provence-Alpes-Côte d'Azur"}},{"nom":"Pierrevert","code":"04152","codesPostaux":["04860"],"centre":{"type":"Point","coordinates":[5.725,43.808]},"surface":2786.59,"population":3943,"departement":{"code":"04","nom":"Alpes-de-Haute-Provence"},"region":{"code":"93","nom":"Provence-Alpes-Côte d'Azur"}},{"nom":"Pontis","code":"04154","codesPostaux":["05160"],"centre":{"type":"Point","coordinates":[6.3704,44.4984]},"surface":1610.19,"population":95,"departement":{"code":"04","nom":"Alpes-de-Haute-Provence"},"region":{"code":"93","nom":"Provence-Alpes-Côte d'Azur"}},{"nom":"Prads-Haute-Bléone","code":"04155","codesPostaux":["04420"],"centre":{"type":"Point","coordinates":[6.4598,44.2135]},"surface":16692.96,"population":174,"departement":{"code":"04","nom":"Alpes-de-Haute-Provence"},"region":{"code":"93","nom":"Provence-Alpes-Côte d'Azur"}},{"nom":"Puimichel","code":"04156","codesPostaux":["04700"],"centre":{"type":"Point","coordinates":[6.0245,43.9803]},"surface":3711.48,"population":254,"departement":{"code":"04","nom":"Alpes-de-Haute-Provence"},"region":{"code":"93","nom":"Provence-Alpes-Côte d'Azur"}},{"nom":"Puimoisson","code":"04157","codesPostaux":["04410"],"centre":{"type":"Point","coordinates":[6.1216,43.8687]},"surface":3553.46,"population":666,"departement":{"code":"04","nom":"Alpes-de-Haute-Provence"},"region":{"code":"93","nom":"Provence-Alpes-Côte d'Azur"}},{"nom":"Quinson","code":"04158","codesPostaux":["04500"],"centre":{"type":"Point","coordinates":[6.0236,43.7048]},"surface":2851.66,"population":388,"departement":{"code":"04","nom":"Alpes-de-Haute-Provence"},"region":{"code":"93","nom":"Provence-Alpes-Côte d'Azur"}},{"nom":"Redortiers","code":"04159","codesPostaux":["04150"],"centre":{"type":"Point","coordinates":[5.6111,44.0982]},"surface":4610.04,"population":89,"departement":{"code":"04","nom":"Alpes-de-Haute-Provence"},"region":{"code":"93","nom":"Provence-Alpes-Côte d'Azur"}},{"nom":"Reillanne","code":"04160","codesPostaux":["04110"],"centre":{"type":"Point","coordinates":[5.6565,43.8884]},"surface":3910.35,"population":1730,"departement":{"code":"04","nom":"Alpes-de-Haute-Provence"},"region":{"code":"93","nom":"Provence-Alpes-Côte d'Azur"}},{"nom":"Méolans-Revel","code":"04161","codesPostaux":["04340"],"centre":{"type":"Point","coordinates":[6.4988,44.3688]},"surface":12802.81,"population":323,"departement":{"code":"04","nom":"Alpes-de-Haute-Provence"},"region":{"code":"93","nom":"Provence-Alpes-Côte d'Azur"}},{"nom":"Revest-des-Brousses","code":"04162","codesPostaux":["04150"],"centre":{"type":"Point","coordinates":[5.6742,43.9805]},"surface":2305.73,"population":264,"departement":{"code":"04","nom":"Alpes-de-Haute-Provence"},"region":{"code":"93","nom":"Provence-Alpes-Côte d'Azur"}},{"nom":"Revest-du-Bion","code":"04163","codesPostaux":["04150"],"centre":{"type":"Point","coordinates":[5.5439,44.1024]},"surface":4380.02,"population":487,"departement":{"code":"04","nom":"Alpes-de-Haute-Provence"},"region":{"code":"93","nom":"Provence-Alpes-Côte d'Azur"}},{"nom":"Revest-Saint-Martin","code":"04164","codesPostaux":["04230"],"centre":{"type":"Point","coordinates":[5.8258,44.0228]},"surface":756.22,"population":82,"departement":{"code":"04","nom":"Alpes-de-Haute-Provence"},"region":{"code":"93","nom":"Provence-Alpes-Côte d'Azur"}},{"nom":"Riez","code":"04166","codesPostaux":["04500"],"centre":{"type":"Point","coordinates":[6.0849,43.8358]},"surface":4036.96,"population":1625,"departement":{"code":"04","nom":"Alpes-de-Haute-Provence"},"region":{"code":"93","nom":"Provence-Alpes-Côte d'Azur"}},{"nom":"La Robine-sur-Galabre","code":"04167","codesPostaux":["04000"],"centre":{"type":"Point","coordinates":[6.2328,44.1883]},"surface":6076.69,"population":292,"departement":{"code":"04","nom":"Alpes-de-Haute-Provence"},"region":{"code":"93","nom":"Provence-Alpes-Côte d'Azur"}},{"nom":"La Rochegiron","code":"04169","codesPostaux":["04150"],"centre":{"type":"Point","coordinates":[5.6654,44.1061]},"surface":3016.55,"population":108,"departement":{"code":"04","nom":"Alpes-de-Haute-Provence"},"region":{"code":"93","nom":"Provence-Alpes-Côte d'Azur"}},{"nom":"La Rochette","code":"04170","codesPostaux":["06260"],"centre":{"type":"Point","coordinates":[6.875,43.9097]},"surface":1868.45,"population":72,"departement":{"code":"04","nom":"Alpes-de-Haute-Provence"},"region":{"code":"93","nom":"Provence-Alpes-Côte d'Azur"}},{"nom":"Rougon","code":"04171","codesPostaux":["04120"],"centre":{"type":"Point","coordinates":[6.3951,43.7866]},"surface":3600.14,"population":120,"departement":{"code":"04","nom":"Alpes-de-Haute-Provence"},"region":{"code":"93","nom":"Provence-Alpes-Côte d'Azur"}},{"nom":"Roumoules","code":"04172","codesPostaux":["04500"],"centre":{"type":"Point","coordinates":[6.1526,43.8196]},"surface":2619.62,"population":732,"departement":{"code":"04","nom":"Alpes-de-Haute-Provence"},"region":{"code":"93","nom":"Provence-Alpes-Côte d'Azur"}},{"nom":"Saint-André-les-Alpes","code":"04173","codesPostaux":["04170"],"centre":{"type":"Point","coordinates":[6.5043,43.9711]},"surface":4919.53,"population":1030,"departement":{"code":"04","nom":"Alpes-de-Haute-Provence"},"region":{"code":"93","nom":"Provence-Alpes-Côte d'Azur"}},{"nom":"Saint-Benoît","code":"04174","codesPostaux":["04240"],"centre":{"type":"Point","coordinates":[6.7282,43.96]},"surface":2094.67,"population":166,"departement":{"code":"04","nom":"Alpes-de-Haute-Provence"},"region":{"code":"93","nom":"Provence-Alpes-Côte d'Azur"}},{"nom":"Sainte-Croix-à-Lauze","code":"04175","codesPostaux":["04110"],"centre":{"type":"Point","coordinates":[5.6152,43.9054]},"surface":868.84,"population":86,"departement":{"code":"04","nom":"Alpes-de-Haute-Provence"},"region":{"code":"93","nom":"Provence-Alpes-Côte d'Azur"}},{"nom":"Sainte-Croix-du-Verdon","code":"04176","codesPostaux":["04500"],"centre":{"type":"Point","coordinates":[6.1502,43.762]},"surface":1988.73,"population":115,"departement":{"code":"04","nom":"Alpes-de-Haute-Provence"},"region":{"code":"93","nom":"Provence-Alpes-Côte d'Azur"}},{"nom":"Hautes-Duyes","code":"04177","codesPostaux":["04380"],"centre":{"type":"Point","coordinates":[6.1719,44.1969]},"surface":2307.47,"population":50,"departement":{"code":"04","nom":"Alpes-de-Haute-Provence"},"region":{"code":"93","nom":"Provence-Alpes-Côte d'Azur"}},{"nom":"Saint-Étienne-les-Orgues","code":"04178","codesPostaux":["04230"],"centre":{"type":"Point","coordinates":[5.7798,44.0648]},"surface":4875.07,"population":1297,"departement":{"code":"04","nom":"Alpes-de-Haute-Provence"},"region":{"code":"93","nom":"Provence-Alpes-Côte d'Azur"}},{"nom":"Saint-Geniez","code":"04179","codesPostaux":["04200"],"centre":{"type":"Point","coordinates":[6.0526,44.2368]},"surface":3893.12,"population":107,"departement":{"code":"04","nom":"Alpes-de-Haute-Provence"},"region":{"code":"93","nom":"Provence-Alpes-Côte d'Azur"}},{"nom":"Saint-Jacques","code":"04180","codesPostaux":["04330"],"centre":{"type":"Point","coordinates":[6.369,43.9759]},"surface":470.03,"population":72,"departement":{"code":"04","nom":"Alpes-de-Haute-Provence"},"region":{"code":"93","nom":"Provence-Alpes-Côte d'Azur"}},{"nom":"Saint-Jeannet","code":"04181","codesPostaux":["04270"],"centre":{"type":"Point","coordinates":[6.1119,43.9778]},"surface":2914.46,"population":48,"departement":{"code":"04","nom":"Alpes-de-Haute-Provence"},"region":{"code":"93","nom":"Provence-Alpes-Côte d'Azur"}},{"nom":"Saint-Julien-d'Asse","code":"04182","codesPostaux":["04270"],"centre":{"type":"Point","coordinates":[6.071,43.9386]},"surface":2569.43,"population":226,"departement":{"code":"04","nom":"Alpes-de-Haute-Provence"},"region":{"code":"93","nom":"Provence-Alpes-Côte d'Azur"}},{"nom":"Saint-Julien-du-Verdon","code":"04183","codesPostaux":["04170"],"centre":{"type":"Point","coordinates":[6.5472,43.9122]},"surface":751.04,"population":176,"departement":{"code":"04","nom":"Alpes-de-Haute-Provence"},"region":{"code":"93","nom":"Provence-Alpes-Côte d'Azur"}},{"nom":"Saint-Jurs","code":"04184","codesPostaux":["04410"],"centre":{"type":"Point","coordinates":[6.1987,43.8972]},"surface":3354.71,"population":137,"departement":{"code":"04","nom":"Alpes-de-Haute-Provence"},"region":{"code":"93","nom":"Provence-Alpes-Côte d'Azur"}},{"nom":"Saint-Laurent-du-Verdon","code":"04186","codesPostaux":["04500"],"centre":{"type":"Point","coordinates":[6.0702,43.721]},"surface":954.35,"population":89,"departement":{"code":"04","nom":"Alpes-de-Haute-Provence"},"region":{"code":"93","nom":"Provence-Alpes-Côte d'Azur"}},{"nom":"Saint-Lions","code":"04187","codesPostaux":["04330"],"centre":{"type":"Point","coordinates":[6.4045,43.978]},"surface":1156.4,"population":38,"departement":{"code":"04","nom":"Alpes-de-Haute-Provence"},"region":{"code":"93","nom":"Provence-Alpes-Côte d'Azur"}},{"nom":"Saint-Maime","code":"04188","codesPostaux":["04300"],"centre":{"type":"Point","coordinates":[5.7988,43.8981]},"surface":764.76,"population":904,"departement":{"code":"04","nom":"Alpes-de-Haute-Provence"},"region":{"code":"93","nom":"Provence-Alpes-Côte d'Azur"}},{"nom":"Saint-Martin-de-Brômes","code":"04189","codesPostaux":["04800"],"centre":{"type":"Point","coordinates":[5.9622,43.782]},"surface":2127.54,"population":632,"departement":{"code":"04","nom":"Alpes-de-Haute-Provence"},"region":{"code":"93","nom":"Provence-Alpes-Côte d'Azur"}},{"nom":"Saint-Martin-les-Eaux","code":"04190","codesPostaux":["04300"],"centre":{"type":"Point","coordinates":[5.7429,43.8693]},"surface":919.99,"population":123,"departement":{"code":"04","nom":"Alpes-de-Haute-Provence"},"region":{"code":"93","nom":"Provence-Alpes-Côte d'Azur"}},{"nom":"Saint-Martin-lès-Seyne","code":"04191","codesPostaux":["04140"],"centre":{"type":"Point","coordinates":[6.2527,44.3858]},"surface":1221.65,"population":9,"departement":{"code":"04","nom":"Alpes-de-Haute-Provence"},"region":{"code":"93","nom":"Provence-Alpes-Côte d'Azur"}},{"nom":"Saint-Michel-l'Observatoire","code":"04192","codesPostaux":["04870"],"centre":{"type":"Point","coordinates":[5.7276,43.9135]},"surface":2821.09,"population":1278,"departement":{"code":"04","nom":"Alpes-de-Haute-Provence"},"region":{"code":"93","nom":"Provence-Alpes-Côte d'Azur"}},{"nom":"Saint-Paul-sur-Ubaye","code":"04193","codesPostaux":["04530"],"centre":{"type":"Point","coordinates":[6.8188,44.5647]},"surface":20610.69,"population":195,"departement":{"code":"04","nom":"Alpes-de-Haute-Provence"},"region":{"code":"93","nom":"Provence-Alpes-Côte d'Azur"}},{"nom":"Saint-Pierre","code":"04194","codesPostaux":["06260"],"centre":{"type":"Point","coordinates":[6.922,43.9114]},"surface":548.23,"population":97,"departement":{"code":"04","nom":"Alpes-de-Haute-Provence"},"region":{"code":"93","nom":"Provence-Alpes-Côte d'Azur"}},{"nom":"Saint-Pons","code":"04195","codesPostaux":["04400"],"centre":{"type":"Point","coordinates":[6.6163,44.416]},"surface":3208.03,"population":613,"departement":{"code":"04","nom":"Alpes-de-Haute-Provence"},"region":{"code":"93","nom":"Provence-Alpes-Côte d'Azur"}},{"nom":"Sainte-Tulle","code":"04197","codesPostaux":["04220"],"centre":{"type":"Point","coordinates":[5.7662,43.7822]},"surface":1708.77,"population":3530,"departement":{"code":"04","nom":"Alpes-de-Haute-Provence"},"region":{"code":"93","nom":"Provence-Alpes-Côte d'Azur"}},{"nom":"Saint-Vincent-sur-Jabron","code":"04199","codesPostaux":["04200"],"centre":{"type":"Point","coordinates":[5.7425,44.1674]},"surface":3036.99,"population":168,"departement":{"code":"04","nom":"Alpes-de-Haute-Provence"},"region":{"code":"93","nom":"Provence-Alpes-Côte d'Azur"}},{"nom":"Salignac","code":"04200","codesPostaux":["04290"],"centre":{"type":"Point","coordinates":[5.9889,44.1546]},"surface":1438.51,"population":679,"departement":{"code":"04","nom":"Alpes-de-Haute-Provence"},"region":{"code":"93","nom":"Provence-Alpes-Côte d'Azur"}},{"nom":"Saumane","code":"04201","codesPostaux":["04150"],"centre":{"type":"Point","coordinates":[5.6808,44.0829]},"surface":322.45,"population":125,"departement":{"code":"04","nom":"Alpes-de-Haute-Provence"},"region":{"code":"93","nom":"Provence-Alpes-Côte d'Azur"}},{"nom":"Sausses","code":"04202","codesPostaux":["04320"],"centre":{"type":"Point","coordinates":[6.7861,44.013]},"surface":1490.98,"population":129,"departement":{"code":"04","nom":"Alpes-de-Haute-Provence"},"region":{"code":"93","nom":"Provence-Alpes-Côte d'Azur"}},{"nom":"Selonnet","code":"04203","codesPostaux":["04140"],"centre":{"type":"Point","coordinates":[6.299,44.3713]},"surface":2975.76,"population":451,"departement":{"code":"04","nom":"Alpes-de-Haute-Provence"},"region":{"code":"93","nom":"Provence-Alpes-Côte d'Azur"}},{"nom":"Senez","code":"04204","codesPostaux":["04270","04330"],"centre":{"type":"Point","coordinates":[6.3645,43.9229]},"surface":7122.98,"population":156,"departement":{"code":"04","nom":"Alpes-de-Haute-Provence"},"region":{"code":"93","nom":"Provence-Alpes-Côte d'Azur"}},{"nom":"Seyne","code":"04205","codesPostaux":["04140"],"centre":{"type":"Point","coordinates":[6.3802,44.3435]},"surface":8632.77,"population":1365,"departement":{"code":"04","nom":"Alpes-de-Haute-Provence"},"region":{"code":"93","nom":"Provence-Alpes-Côte d'Azur"}},{"nom":"Sigonce","code":"04206","codesPostaux":["04300"],"centre":{"type":"Point","coordinates":[5.8505,44.0087]},"surface":2031.7,"population":421,"departement":{"code":"04","nom":"Alpes-de-Haute-Provence"},"region":{"code":"93","nom":"Provence-Alpes-Côte d'Azur"}},{"nom":"Sigoyer","code":"04207","codesPostaux":["04200"],"centre":{"type":"Point","coordinates":[5.9648,44.3231]},"surface":1540.6,"population":101,"departement":{"code":"04","nom":"Alpes-de-Haute-Provence"},"region":{"code":"93","nom":"Provence-Alpes-Côte d'Azur"}},{"nom":"Simiane-la-Rotonde","code":"04208","codesPostaux":["04150"],"centre":{"type":"Point","coordinates":[5.5659,44.0047]},"surface":6811.01,"population":608,"departement":{"code":"04","nom":"Alpes-de-Haute-Provence"},"region":{"code":"93","nom":"Provence-Alpes-Côte d'Azur"}},{"nom":"Sisteron","code":"04209","codesPostaux":["04200"],"centre":{"type":"Point","coordinates":[5.9276,44.1993]},"surface":5054.24,"population":7776,"departement":{"code":"04","nom":"Alpes-de-Haute-Provence"},"region":{"code":"93","nom":"Provence-Alpes-Côte d'Azur"}},{"nom":"Soleilhas","code":"04210","codesPostaux":["04120"],"centre":{"type":"Point","coordinates":[6.6521,43.8611]},"surface":3467.86,"population":91,"departement":{"code":"04","nom":"Alpes-de-Haute-Provence"},"region":{"code":"93","nom":"Provence-Alpes-Côte d'Azur"}},{"nom":"Sourribes","code":"04211","codesPostaux":["04290"],"centre":{"type":"Point","coordinates":[6.0433,44.1582]},"surface":2006.58,"population":179,"departement":{"code":"04","nom":"Alpes-de-Haute-Provence"},"region":{"code":"93","nom":"Provence-Alpes-Côte d'Azur"}},{"nom":"Tartonne","code":"04214","codesPostaux":["04330"],"centre":{"type":"Point","coordinates":[6.3798,44.0803]},"surface":4529.61,"population":127,"departement":{"code":"04","nom":"Alpes-de-Haute-Provence"},"region":{"code":"93","nom":"Provence-Alpes-Côte d'Azur"}},{"nom":"Thèze","code":"04216","codesPostaux":["04200"],"centre":{"type":"Point","coordinates":[5.9248,44.3303]},"surface":1123.33,"population":256,"departement":{"code":"04","nom":"Alpes-de-Haute-Provence"},"region":{"code":"93","nom":"Provence-Alpes-Côte d'Azur"}},{"nom":"Thoard","code":"04217","codesPostaux":["04380"],"centre":{"type":"Point","coordinates":[6.1258,44.1495]},"surface":4420.05,"population":741,"departement":{"code":"04","nom":"Alpes-de-Haute-Provence"},"region":{"code":"93","nom":"Provence-Alpes-Côte d'Azur"}},{"nom":"Thorame-Basse","code":"04218","codesPostaux":["04170"],"centre":{"type":"Point","coordinates":[6.4854,44.1019]},"surface":9864.93,"population":208,"departement":{"code":"04","nom":"Alpes-de-Haute-Provence"},"region":{"code":"93","nom":"Provence-Alpes-Côte d'Azur"}},{"nom":"Thorame-Haute","code":"04219","codesPostaux":["04170"],"centre":{"type":"Point","coordinates":[6.6152,44.083]},"surface":10959.53,"population":247,"departement":{"code":"04","nom":"Alpes-de-Haute-Provence"},"region":{"code":"93","nom":"Provence-Alpes-Côte d'Azur"}},{"nom":"Les Thuiles","code":"04220","codesPostaux":["04400"],"centre":{"type":"Point","coordinates":[6.5584,44.3917]},"surface":3268.94,"population":365,"departement":{"code":"04","nom":"Alpes-de-Haute-Provence"},"region":{"code":"93","nom":"Provence-Alpes-Côte d'Azur"}},{"nom":"Turriers","code":"04222","codesPostaux":["04250"],"centre":{"type":"Point","coordinates":[6.1596,44.3934]},"surface":1999.52,"population":345,"departement":{"code":"04","nom":"Alpes-de-Haute-Provence"},"region":{"code":"93","nom":"Provence-Alpes-Côte d'Azur"}},{"nom":"Ubraye","code":"04224","codesPostaux":["04240"],"centre":{"type":"Point","coordinates":[6.6862,43.9092]},"surface":3577.7,"population":99,"departement":{"code":"04","nom":"Alpes-de-Haute-Provence"},"region":{"code":"93","nom":"Provence-Alpes-Côte d'Azur"}},{"nom":"Uvernet-Fours","code":"04226","codesPostaux":["04400"],"centre":{"type":"Point","coordinates":[6.6708,44.3202]},"surface":13572.14,"population":502,"departement":{"code":"04","nom":"Alpes-de-Haute-Provence"},"region":{"code":"93","nom":"Provence-Alpes-Côte d'Azur"}},{"nom":"Vachères","code":"04227","codesPostaux":["04110"],"centre":{"type":"Point","coordinates":[5.6397,43.9489]},"surface":2356.22,"population":318,"departement":{"code":"04","nom":"Alpes-de-Haute-Provence"},"region":{"code":"93","nom":"Provence-Alpes-Côte d'Azur"}},{"nom":"Valavoire","code":"04228","codesPostaux":["04250"],"centre":{"type":"Point","coordinates":[6.0787,44.2793]},"surface":1673.92,"population":39,"departement":{"code":"04","nom":"Alpes-de-Haute-Provence"},"region":{"code":"93","nom":"Provence-Alpes-Côte d'Azur"}},{"nom":"Valbelle","code":"04229","codesPostaux":["04200"],"centre":{"type":"Point","coordinates":[5.8753,44.1398]},"surface":3313.78,"population":239,"departement":{"code":"04","nom":"Alpes-de-Haute-Provence"},"region":{"code":"93","nom":"Provence-Alpes-Côte d'Azur"}},{"nom":"Valensole","code":"04230","codesPostaux":["04210"],"centre":{"type":"Point","coordinates":[5.9392,43.8386]},"surface":12787.58,"population":3151,"departement":{"code":"04","nom":"Alpes-de-Haute-Provence"},"region":{"code":"93","nom":"Provence-Alpes-Côte d'Azur"}},{"nom":"Valernes","code":"04231","codesPostaux":["04200"],"centre":{"type":"Point","coordinates":[5.9777,44.2561]},"surface":2877.87,"population":242,"departement":{"code":"04","nom":"Alpes-de-Haute-Provence"},"region":{"code":"93","nom":"Provence-Alpes-Côte d'Azur"}},{"nom":"Vaumeilh","code":"04233","codesPostaux":["04200"],"centre":{"type":"Point","coordinates":[5.9589,44.289]},"surface":2572.87,"population":268,"departement":{"code":"04","nom":"Alpes-de-Haute-Provence"},"region":{"code":"93","nom":"Provence-Alpes-Côte d'Azur"}},{"nom":"Venterol","code":"04234","codesPostaux":["05130"],"centre":{"type":"Point","coordinates":[6.0869,44.4399]},"surface":2265.05,"population":226,"departement":{"code":"04","nom":"Alpes-de-Haute-Provence"},"region":{"code":"93","nom":"Provence-Alpes-Côte d'Azur"}},{"nom":"Verdaches","code":"04235","codesPostaux":["04140"],"centre":{"type":"Point","coordinates":[6.3432,44.2718]},"surface":2392.04,"population":60,"departement":{"code":"04","nom":"Alpes-de-Haute-Provence"},"region":{"code":"93","nom":"Provence-Alpes-Côte d'Azur"}},{"nom":"Vergons","code":"04236","codesPostaux":["04170"],"centre":{"type":"Point","coordinates":[6.602,43.9158]},"surface":4600.86,"population":114,"departement":{"code":"04","nom":"Alpes-de-Haute-Provence"},"region":{"code":"93","nom":"Provence-Alpes-Côte d'Azur"}},{"nom":"Le Vernet","code":"04237","codesPostaux":["04140"],"centre":{"type":"Point","coordinates":[6.4153,44.2762]},"surface":2326.76,"population":124,"departement":{"code":"04","nom":"Alpes-de-Haute-Provence"},"region":{"code":"93","nom":"Provence-Alpes-Côte d'Azur"}},{"nom":"Villars-Colmars","code":"04240","codesPostaux":["04370"],"centre":{"type":"Point","coordinates":[6.5713,44.1952]},"surface":4103.08,"population":254,"departement":{"code":"04","nom":"Alpes-de-Haute-Provence"},"region":{"code":"93","nom":"Provence-Alpes-Côte d'Azur"}},{"nom":"Villemus","code":"04241","codesPostaux":["04110"],"centre":{"type":"Point","coordinates":[5.7065,43.8627]},"surface":965.66,"population":193,"departement":{"code":"04","nom":"Alpes-de-Haute-Provence"},"region":{"code":"93","nom":"Provence-Alpes-Côte d'Azur"}},{"nom":"Villeneuve","code":"04242","codesPostaux":["04180"],"centre":{"type":"Point","coordinates":[5.8509,43.8848]},"surface":2552.1,"population":4386,"departement":{"code":"04","nom":"Alpes-de-Haute-Provence"},"region":{"code":"93","nom":"Provence-Alpes-Côte d'Azur"}},{"nom":"Volonne","code":"04244","codesPostaux":["04290"],"centre":{"type":"Point","coordinates":[6.0333,44.1232]},"surface":2526.42,"population":1637,"departement":{"code":"04","nom":"Alpes-de-Haute-Provence"},"region":{"code":"93","nom":"Provence-Alpes-Côte d'Azur"}},{"nom":"Volx","code":"04245","codesPostaux":["04130"],"centre":{"type":"Point","coordinates":[5.8252,43.8677]},"surface":1869.06,"population":3227,"departement":{"code":"04","nom":"Alpes-de-Haute-Provence"},"region":{"code":"93","nom":"Provence-Alpes-Côte d'Azur"}}]