[{"nom":"Albefeuille-Lagarde","code":"82001","codesPostaux":["82290"],"centre":{"type":"Point","coordinates":[1.2718,44.0491]},"surface":809.05,"population":590,"departement":{"code":"82","nom":"Tarn-et-Garonne"},"region":{"code":"76","nom":"Occitanie"}},{"nom":"Albias","code":"82002","codesPostaux":["82350"],"centre":{"type":"Point","coordinates":[1.4508,44.0845]},"surface":2170.24,"population":3272,"departement":{"code":"82","nom":"Tarn-et-Garonne"},"region":{"code":"76","nom":"Occitanie"}},{"nom":"Angeville","code":"82003","codesPostaux":["82210"],"centre":{"type":"Point","coordinates":[1.0341,43.9886]},"surface":837.77,"population":238,"departement":{"code":"82","nom":"Tarn-et-Garonne"},"region":{"code":"76","nom":"Occitanie"}},{"nom":"Asques","code":"82004","codesPostaux":["82120"],"centre":{"type":"Point","coordinates":[0.9509,44.0084]},"surface":1062.59,"population":132,"departement":{"code":"82","nom":"Tarn-et-Garonne"},"region":{"code":"76","nom":"Occitanie"}},{"nom":"Aucamville","code":"82005","codesPostaux":["82600"],"centre":{"type":"Point","coordinates":[1.2278,43.7932]},"surface":2323.34,"population":1552,"departement":{"code":"82","nom":"Tarn-et-Garonne"},"region":{"code":"76","nom":"Occitanie"}},{"nom":"Auterive","code":"82006","codesPostaux":["82500"],"centre":{"type":"Point","coordinates":[0.968,43.8555]},"surface":368.52,"population":65,"departement":{"code":"82","nom":"Tarn-et-Garonne"},"region":{"code":"76","nom":"Occitanie"}},{"nom":"Auty","code":"82007","codesPostaux":["82220"],"centre":{"type":"Point","coordinates":[1.4682,44.1896]},"surface":739.18,"population":144,"departement":{"code":"82","nom":"Tarn-et-Garonne"},"region":{"code":"76","nom":"Occitanie"}},{"nom":"Auvillar","code":"82008","codesPostaux":["82340"],"centre":{"type":"Point","coordinates":[0.8864,44.066]},"surface":1564.7,"population":909,"departement":{"code":"82","nom":"Tarn-et-Garonne"},"region":{"code":"76","nom":"Occitanie"}},{"nom":"Balignac","code":"82009","codesPostaux":["82120"],"centre":{"type":"Point","coordinates":[0.8781,43.956]},"surface":406.78,"population":40,"departement":{"code":"82","nom":"Tarn-et-Garonne"},"region":{"code":"76","nom":"Occitanie"}},{"nom":"Bardigues","code":"82010","codesPostaux":["82340"],"centre":{"type":"Point","coordinates":[0.8887,44.0283]},"surface":1172.97,"population":239,"departement":{"code":"82","nom":"Tarn-et-Garonne"},"region":{"code":"76","nom":"Occitanie"}},{"nom":"Barry-d'Islemade","code":"82011","codesPostaux":["82290"],"centre":{"type":"Point","coordinates":[1.2518,44.0755]},"surface":1136.78,"population":931,"departement":{"code":"82","nom":"Tarn-et-Garonne"},"region":{"code":"76","nom":"Occitanie"}},{"nom":"Les Barthes","code":"82012","codesPostaux":["82100"],"centre":{"type":"Point","coordinates":[1.1713,44.092]},"surface":823.53,"population":586,"departement":{"code":"82","nom":"Tarn-et-Garonne"},"region":{"code":"76","nom":"Occitanie"}},{"nom":"Beaumont-de-Lomagne","code":"82013","codesPostaux":["82500"],"centre":{"type":"Point","coordinates":[1.0145,43.884]},"surface":4646.34,"population":3754,"departement":{"code":"82","nom":"Tarn-et-Garonne"},"region":{"code":"76","nom":"Occitanie"}},{"nom":"Beaupuy","code":"82014","codesPostaux":["82600"],"centre":{"type":"Point","coordinates":[1.1164,43.8152]},"surface":1192.65,"population":274,"departement":{"code":"82","nom":"Tarn-et-Garonne"},"region":{"code":"76","nom":"Occitanie"}},{"nom":"Belbèze-en-Lomagne","code":"82015","codesPostaux":["82500"],"centre":{"type":"Point","coordinates":[1.0697,43.9057]},"surface":367.4,"population":168,"departement":{"code":"82","nom":"Tarn-et-Garonne"},"region":{"code":"76","nom":"Occitanie"}},{"nom":"Belvèze","code":"82016","codesPostaux":["82150"],"centre":{"type":"Point","coordinates":[1.0916,44.3303]},"surface":1395.21,"population":221,"departement":{"code":"82","nom":"Tarn-et-Garonne"},"region":{"code":"76","nom":"Occitanie"}},{"nom":"Bessens","code":"82017","codesPostaux":["82170"],"centre":{"type":"Point","coordinates":[1.2685,43.8859]},"surface":962.46,"population":1470,"departement":{"code":"82","nom":"Tarn-et-Garonne"},"region":{"code":"76","nom":"Occitanie"}},{"nom":"Bioule","code":"82018","codesPostaux":["82800"],"centre":{"type":"Point","coordinates":[1.5432,44.0994]},"surface":2050.44,"population":1194,"departement":{"code":"82","nom":"Tarn-et-Garonne"},"region":{"code":"76","nom":"Occitanie"}},{"nom":"Boudou","code":"82019","codesPostaux":["82200"],"centre":{"type":"Point","coordinates":[1.0189,44.1058]},"surface":1247.12,"population":755,"departement":{"code":"82","nom":"Tarn-et-Garonne"},"region":{"code":"76","nom":"Occitanie"}},{"nom":"Bouillac","code":"82020","codesPostaux":["82600"],"centre":{"type":"Point","coordinates":[1.1118,43.848]},"surface":3050.68,"population":577,"departement":{"code":"82","nom":"Tarn-et-Garonne"},"region":{"code":"76","nom":"Occitanie"}},{"nom":"Bouloc-en-Quercy","code":"82021","codesPostaux":["82110"],"centre":{"type":"Point","coordinates":[1.1166,44.2982]},"surface":1478.88,"population":189,"departement":{"code":"82","nom":"Tarn-et-Garonne"},"region":{"code":"76","nom":"Occitanie"}},{"nom":"Bourg-de-Visa","code":"82022","codesPostaux":["82190"],"centre":{"type":"Point","coordinates":[0.9525,44.2485]},"surface":1447.86,"population":389,"departement":{"code":"82","nom":"Tarn-et-Garonne"},"region":{"code":"76","nom":"Occitanie"}},{"nom":"Bourret","code":"82023","codesPostaux":["82700"],"centre":{"type":"Point","coordinates":[1.1543,43.9444]},"surface":1653.15,"population":974,"departement":{"code":"82","nom":"Tarn-et-Garonne"},"region":{"code":"76","nom":"Occitanie"}},{"nom":"Brassac","code":"82024","codesPostaux":["82190"],"centre":{"type":"Point","coordinates":[0.977,44.223]},"surface":2027.84,"population":252,"departement":{"code":"82","nom":"Tarn-et-Garonne"},"region":{"code":"76","nom":"Occitanie"}},{"nom":"Bressols","code":"82025","codesPostaux":["82710"],"centre":{"type":"Point","coordinates":[1.317,43.9523]},"surface":2043.55,"population":3883,"departement":{"code":"82","nom":"Tarn-et-Garonne"},"region":{"code":"76","nom":"Occitanie"}},{"nom":"Bruniquel","code":"82026","codesPostaux":["82800"],"centre":{"type":"Point","coordinates":[1.6571,44.0535]},"surface":3319.82,"population":639,"departement":{"code":"82","nom":"Tarn-et-Garonne"},"region":{"code":"76","nom":"Occitanie"}},{"nom":"Campsas","code":"82027","codesPostaux":["82370"],"centre":{"type":"Point","coordinates":[1.3291,43.889]},"surface":1518.9,"population":1472,"departement":{"code":"82","nom":"Tarn-et-Garonne"},"region":{"code":"76","nom":"Occitanie"}},{"nom":"Canals","code":"82028","codesPostaux":["82170"],"centre":{"type":"Point","coordinates":[1.2976,43.8606]},"surface":738.84,"population":807,"departement":{"code":"82","nom":"Tarn-et-Garonne"},"region":{"code":"76","nom":"Occitanie"}},{"nom":"Castanet","code":"82029","codesPostaux":["82160"],"centre":{"type":"Point","coordinates":[1.9233,44.2597]},"surface":2217.46,"population":275,"departement":{"code":"82","nom":"Tarn-et-Garonne"},"region":{"code":"76","nom":"Occitanie"}},{"nom":"Castelferrus","code":"82030","codesPostaux":["82100"],"centre":{"type":"Point","coordinates":[1.0906,44.0089]},"surface":847.47,"population":490,"departement":{"code":"82","nom":"Tarn-et-Garonne"},"region":{"code":"76","nom":"Occitanie"}},{"nom":"Castelmayran","code":"82031","codesPostaux":["82210"],"centre":{"type":"Point","coordinates":[1.0527,44.0295]},"surface":1596.84,"population":1191,"departement":{"code":"82","nom":"Tarn-et-Garonne"},"region":{"code":"76","nom":"Occitanie"}},{"nom":"Castelsagrat","code":"82032","codesPostaux":["82400"],"centre":{"type":"Point","coordinates":[0.9513,44.1727]},"surface":2265.91,"population":540,"departement":{"code":"82","nom":"Tarn-et-Garonne"},"region":{"code":"76","nom":"Occitanie"}},{"nom":"Castelsarrasin","code":"82033","codesPostaux":["82100"],"centre":{"type":"Point","coordinates":[1.1211,44.0536]},"surface":7674.38,"population":14335,"departement":{"code":"82","nom":"Tarn-et-Garonne"},"region":{"code":"76","nom":"Occitanie"}},{"nom":"Castéra-Bouzet","code":"82034","codesPostaux":["82120"],"centre":{"type":"Point","coordinates":[0.9165,44.0059]},"surface":1796.79,"population":122,"departement":{"code":"82","nom":"Tarn-et-Garonne"},"region":{"code":"76","nom":"Occitanie"}},{"nom":"Caumont","code":"82035","codesPostaux":["82210"],"centre":{"type":"Point","coordinates":[0.9966,44.0234]},"surface":1521.89,"population":346,"departement":{"code":"82","nom":"Tarn-et-Garonne"},"region":{"code":"76","nom":"Occitanie"}},{"nom":"Le Causé","code":"82036","codesPostaux":["82500"],"centre":{"type":"Point","coordinates":[0.9714,43.802]},"surface":939.69,"population":131,"departement":{"code":"82","nom":"Tarn-et-Garonne"},"region":{"code":"76","nom":"Occitanie"}},{"nom":"Caussade","code":"82037","codesPostaux":["82300"],"centre":{"type":"Point","coordinates":[1.5426,44.1582]},"surface":4592.8,"population":6858,"departement":{"code":"82","nom":"Tarn-et-Garonne"},"region":{"code":"76","nom":"Occitanie"}},{"nom":"Caylus","code":"82038","codesPostaux":["82160"],"centre":{"type":"Point","coordinates":[1.767,44.2475]},"surface":9780.4,"population":1463,"departement":{"code":"82","nom":"Tarn-et-Garonne"},"region":{"code":"76","nom":"Occitanie"}},{"nom":"Cayrac","code":"82039","codesPostaux":["82440"],"centre":{"type":"Point","coordinates":[1.4795,44.1043]},"surface":624.53,"population":562,"departement":{"code":"82","nom":"Tarn-et-Garonne"},"region":{"code":"76","nom":"Occitanie"}},{"nom":"Cayriech","code":"82040","codesPostaux":["82240"],"centre":{"type":"Point","coordinates":[1.6079,44.2146]},"surface":773.37,"population":273,"departement":{"code":"82","nom":"Tarn-et-Garonne"},"region":{"code":"76","nom":"Occitanie"}},{"nom":"Cazals","code":"82041","codesPostaux":["82140"],"centre":{"type":"Point","coordinates":[1.6861,44.1251]},"surface":1154,"population":240,"departement":{"code":"82","nom":"Tarn-et-Garonne"},"region":{"code":"76","nom":"Occitanie"}},{"nom":"Cazes-Mondenard","code":"82042","codesPostaux":["82110"],"centre":{"type":"Point","coordinates":[1.219,44.2114]},"surface":5825.13,"population":1226,"departement":{"code":"82","nom":"Tarn-et-Garonne"},"region":{"code":"76","nom":"Occitanie"}},{"nom":"Comberouger","code":"82043","codesPostaux":["82600"],"centre":{"type":"Point","coordinates":[1.0952,43.8723]},"surface":1237.69,"population":268,"departement":{"code":"82","nom":"Tarn-et-Garonne"},"region":{"code":"76","nom":"Occitanie"}},{"nom":"Corbarieu","code":"82044","codesPostaux":["82370"],"centre":{"type":"Point","coordinates":[1.3855,43.9405]},"surface":1305.95,"population":1707,"departement":{"code":"82","nom":"Tarn-et-Garonne"},"region":{"code":"76","nom":"Occitanie"}},{"nom":"Cordes-Tolosannes","code":"82045","codesPostaux":["82700"],"centre":{"type":"Point","coordinates":[1.1366,43.9744]},"surface":1564.15,"population":359,"departement":{"code":"82","nom":"Tarn-et-Garonne"},"region":{"code":"76","nom":"Occitanie"}},{"nom":"Coutures","code":"82046","codesPostaux":["82210"],"centre":{"type":"Point","coordinates":[0.9874,43.9602]},"surface":694.55,"population":108,"departement":{"code":"82","nom":"Tarn-et-Garonne"},"region":{"code":"76","nom":"Occitanie"}},{"nom":"Cumont","code":"82047","codesPostaux":["82500"],"centre":{"type":"Point","coordinates":[0.9041,43.8722]},"surface":738.84,"population":51,"departement":{"code":"82","nom":"Tarn-et-Garonne"},"region":{"code":"76","nom":"Occitanie"}},{"nom":"Dieupentale","code":"82048","codesPostaux":["82170"],"centre":{"type":"Point","coordinates":[1.2816,43.8686]},"surface":618.74,"population":1644,"departement":{"code":"82","nom":"Tarn-et-Garonne"},"region":{"code":"76","nom":"Occitanie"}},{"nom":"Donzac","code":"82049","codesPostaux":["82340"],"centre":{"type":"Point","coordinates":[0.8169,44.0993]},"surface":1333.39,"population":1039,"departement":{"code":"82","nom":"Tarn-et-Garonne"},"region":{"code":"76","nom":"Occitanie"}},{"nom":"Dunes","code":"82050","codesPostaux":["82340"],"centre":{"type":"Point","coordinates":[0.776,44.0866]},"surface":2313.29,"population":1218,"departement":{"code":"82","nom":"Tarn-et-Garonne"},"region":{"code":"76","nom":"Occitanie"}},{"nom":"Durfort-Lacapelette","code":"82051","codesPostaux":["82390"],"centre":{"type":"Point","coordinates":[1.141,44.1823]},"surface":3558.71,"population":842,"departement":{"code":"82","nom":"Tarn-et-Garonne"},"region":{"code":"76","nom":"Occitanie"}},{"nom":"Escatalens","code":"82052","codesPostaux":["82700"],"centre":{"type":"Point","coordinates":[1.1919,43.9851]},"surface":1800.7,"population":1139,"departement":{"code":"82","nom":"Tarn-et-Garonne"},"region":{"code":"76","nom":"Occitanie"}},{"nom":"Escazeaux","code":"82053","codesPostaux":["82500"],"centre":{"type":"Point","coordinates":[1.0326,43.8394]},"surface":1622.03,"population":289,"departement":{"code":"82","nom":"Tarn-et-Garonne"},"region":{"code":"76","nom":"Occitanie"}},{"nom":"Espalais","code":"82054","codesPostaux":["82400"],"centre":{"type":"Point","coordinates":[0.9159,44.0801]},"surface":779.64,"population":380,"departement":{"code":"82","nom":"Tarn-et-Garonne"},"region":{"code":"76","nom":"Occitanie"}},{"nom":"Esparsac","code":"82055","codesPostaux":["82500"],"centre":{"type":"Point","coordinates":[0.9489,43.9136]},"surface":1755.67,"population":254,"departement":{"code":"82","nom":"Tarn-et-Garonne"},"region":{"code":"76","nom":"Occitanie"}},{"nom":"Espinas","code":"82056","codesPostaux":["82160"],"centre":{"type":"Point","coordinates":[1.7899,44.1974]},"surface":1619.83,"population":210,"departement":{"code":"82","nom":"Tarn-et-Garonne"},"region":{"code":"76","nom":"Occitanie"}},{"nom":"Fabas","code":"82057","codesPostaux":["82170"],"centre":{"type":"Point","coordinates":[1.3408,43.8621]},"surface":633.96,"population":695,"departement":{"code":"82","nom":"Tarn-et-Garonne"},"region":{"code":"76","nom":"Occitanie"}},{"nom":"Fajolles","code":"82058","codesPostaux":["82210"],"centre":{"type":"Point","coordinates":[1.0137,43.9686]},"surface":934.95,"population":109,"departement":{"code":"82","nom":"Tarn-et-Garonne"},"region":{"code":"76","nom":"Occitanie"}},{"nom":"Faudoas","code":"82059","codesPostaux":["82500"],"centre":{"type":"Point","coordinates":[0.9689,43.8354]},"surface":1911.26,"population":292,"departement":{"code":"82","nom":"Tarn-et-Garonne"},"region":{"code":"76","nom":"Occitanie"}},{"nom":"Fauroux","code":"82060","codesPostaux":["82190"],"centre":{"type":"Point","coordinates":[1.0045,44.2517]},"surface":1317.73,"population":182,"departement":{"code":"82","nom":"Tarn-et-Garonne"},"region":{"code":"76","nom":"Occitanie"}},{"nom":"Féneyrols","code":"82061","codesPostaux":["82140"],"centre":{"type":"Point","coordinates":[1.8259,44.1408]},"surface":1483.04,"population":164,"departement":{"code":"82","nom":"Tarn-et-Garonne"},"region":{"code":"76","nom":"Occitanie"}},{"nom":"Finhan","code":"82062","codesPostaux":["82700"],"centre":{"type":"Point","coordinates":[1.2218,43.9126]},"surface":1197.1,"population":1475,"departement":{"code":"82","nom":"Tarn-et-Garonne"},"region":{"code":"76","nom":"Occitanie"}},{"nom":"Garganvillar","code":"82063","codesPostaux":["82100"],"centre":{"type":"Point","coordinates":[1.0717,43.972]},"surface":2232.08,"population":677,"departement":{"code":"82","nom":"Tarn-et-Garonne"},"region":{"code":"76","nom":"Occitanie"}},{"nom":"Gariès","code":"82064","codesPostaux":["82500"],"centre":{"type":"Point","coordinates":[1.0349,43.8111]},"surface":1427.89,"population":128,"departement":{"code":"82","nom":"Tarn-et-Garonne"},"region":{"code":"76","nom":"Occitanie"}},{"nom":"Gasques","code":"82065","codesPostaux":["82400"],"centre":{"type":"Point","coordinates":[0.9099,44.1509]},"surface":1337.76,"population":406,"departement":{"code":"82","nom":"Tarn-et-Garonne"},"region":{"code":"76","nom":"Occitanie"}},{"nom":"Génébrières","code":"82066","codesPostaux":["82230"],"centre":{"type":"Point","coordinates":[1.4914,44.0032]},"surface":1849.59,"population":636,"departement":{"code":"82","nom":"Tarn-et-Garonne"},"region":{"code":"76","nom":"Occitanie"}},{"nom":"Gensac","code":"82067","codesPostaux":["82120"],"centre":{"type":"Point","coordinates":[0.9571,43.9508]},"surface":1161.18,"population":103,"departement":{"code":"82","nom":"Tarn-et-Garonne"},"region":{"code":"76","nom":"Occitanie"}},{"nom":"Gimat","code":"82068","codesPostaux":["82500"],"centre":{"type":"Point","coordinates":[0.9398,43.8654]},"surface":1016.47,"population":231,"departement":{"code":"82","nom":"Tarn-et-Garonne"},"region":{"code":"76","nom":"Occitanie"}},{"nom":"Ginals","code":"82069","codesPostaux":["82330"],"centre":{"type":"Point","coordinates":[1.8865,44.2189]},"surface":2418.53,"population":195,"departement":{"code":"82","nom":"Tarn-et-Garonne"},"region":{"code":"76","nom":"Occitanie"}},{"nom":"Glatens","code":"82070","codesPostaux":["82500"],"centre":{"type":"Point","coordinates":[0.9202,43.8943]},"surface":233.54,"population":68,"departement":{"code":"82","nom":"Tarn-et-Garonne"},"region":{"code":"76","nom":"Occitanie"}},{"nom":"Goas","code":"82071","codesPostaux":["82500"],"centre":{"type":"Point","coordinates":[0.9619,43.8158]},"surface":270.64,"population":37,"departement":{"code":"82","nom":"Tarn-et-Garonne"},"region":{"code":"76","nom":"Occitanie"}},{"nom":"Golfech","code":"82072","codesPostaux":["82400"],"centre":{"type":"Point","coordinates":[0.8572,44.1105]},"surface":954.96,"population":1010,"departement":{"code":"82","nom":"Tarn-et-Garonne"},"region":{"code":"76","nom":"Occitanie"}},{"nom":"Goudourville","code":"82073","codesPostaux":["82400"],"centre":{"type":"Point","coordinates":[0.9304,44.113]},"surface":1130.46,"population":970,"departement":{"code":"82","nom":"Tarn-et-Garonne"},"region":{"code":"76","nom":"Occitanie"}},{"nom":"Gramont","code":"82074","codesPostaux":["82120"],"centre":{"type":"Point","coordinates":[0.7863,43.9443]},"surface":1348.43,"population":132,"departement":{"code":"82","nom":"Tarn-et-Garonne"},"region":{"code":"76","nom":"Occitanie"}},{"nom":"Grisolles","code":"82075","codesPostaux":["82170"],"centre":{"type":"Point","coordinates":[1.2923,43.824]},"surface":1754.52,"population":4206,"departement":{"code":"82","nom":"Tarn-et-Garonne"},"region":{"code":"76","nom":"Occitanie"}},{"nom":"L'Honor-de-Cos","code":"82076","codesPostaux":["82130"],"centre":{"type":"Point","coordinates":[1.3694,44.1138]},"surface":3201.27,"population":1608,"departement":{"code":"82","nom":"Tarn-et-Garonne"},"region":{"code":"76","nom":"Occitanie"}},{"nom":"Labarthe","code":"82077","codesPostaux":["82220"],"centre":{"type":"Point","coordinates":[1.314,44.2031]},"surface":2328.35,"population":390,"departement":{"code":"82","nom":"Tarn-et-Garonne"},"region":{"code":"76","nom":"Occitanie"}},{"nom":"Labastide-de-Penne","code":"82078","codesPostaux":["82240"],"centre":{"type":"Point","coordinates":[1.5895,44.2808]},"surface":1366.51,"population":126,"departement":{"code":"82","nom":"Tarn-et-Garonne"},"region":{"code":"76","nom":"Occitanie"}},{"nom":"Labastide-Saint-Pierre","code":"82079","codesPostaux":["82370"],"centre":{"type":"Point","coordinates":[1.3438,43.9231]},"surface":2069.61,"population":3763,"departement":{"code":"82","nom":"Tarn-et-Garonne"},"region":{"code":"76","nom":"Occitanie"}},{"nom":"Labastide-du-Temple","code":"82080","codesPostaux":["82100"],"centre":{"type":"Point","coordinates":[1.2007,44.0819]},"surface":1094.35,"population":1137,"departement":{"code":"82","nom":"Tarn-et-Garonne"},"region":{"code":"76","nom":"Occitanie"}},{"nom":"Labourgade","code":"82081","codesPostaux":["82100"],"centre":{"type":"Point","coordinates":[1.0901,43.9541]},"surface":551.34,"population":162,"departement":{"code":"82","nom":"Tarn-et-Garonne"},"region":{"code":"76","nom":"Occitanie"}},{"nom":"Lacapelle-Livron","code":"82082","codesPostaux":["82160"],"centre":{"type":"Point","coordinates":[1.7895,44.2726]},"surface":1383.86,"population":207,"departement":{"code":"82","nom":"Tarn-et-Garonne"},"region":{"code":"76","nom":"Occitanie"}},{"nom":"Lachapelle","code":"82083","codesPostaux":["82120"],"centre":{"type":"Point","coordinates":[0.8425,43.9857]},"surface":1090.54,"population":119,"departement":{"code":"82","nom":"Tarn-et-Garonne"},"region":{"code":"76","nom":"Occitanie"}},{"nom":"Lacour","code":"82084","codesPostaux":["82190"],"centre":{"type":"Point","coordinates":[0.9615,44.2845]},"surface":1444.25,"population":171,"departement":{"code":"82","nom":"Tarn-et-Garonne"},"region":{"code":"76","nom":"Occitanie"}},{"nom":"Lacourt-Saint-Pierre","code":"82085","codesPostaux":["82290"],"centre":{"type":"Point","coordinates":[1.2715,43.9879]},"surface":1489.99,"population":1265,"departement":{"code":"82","nom":"Tarn-et-Garonne"},"region":{"code":"76","nom":"Occitanie"}},{"nom":"Lafitte","code":"82086","codesPostaux":["82100"],"centre":{"type":"Point","coordinates":[1.1039,43.9758]},"surface":468.87,"population":235,"departement":{"code":"82","nom":"Tarn-et-Garonne"},"region":{"code":"76","nom":"Occitanie"}},{"nom":"Lafrançaise","code":"82087","codesPostaux":["82130"],"centre":{"type":"Point","coordinates":[1.2375,44.1319]},"surface":5040.42,"population":2839,"departement":{"code":"82","nom":"Tarn-et-Garonne"},"region":{"code":"76","nom":"Occitanie"}},{"nom":"Laguépie","code":"82088","codesPostaux":["82250"],"centre":{"type":"Point","coordinates":[1.96,44.1637]},"surface":1501.26,"population":653,"departement":{"code":"82","nom":"Tarn-et-Garonne"},"region":{"code":"76","nom":"Occitanie"}},{"nom":"Lamagistère","code":"82089","codesPostaux":["82360"],"centre":{"type":"Point","coordinates":[0.8228,44.1309]},"surface":913.21,"population":1213,"departement":{"code":"82","nom":"Tarn-et-Garonne"},"region":{"code":"76","nom":"Occitanie"}},{"nom":"Lamothe-Capdeville","code":"82090","codesPostaux":["82130"],"centre":{"type":"Point","coordinates":[1.3901,44.0955]},"surface":1197.27,"population":1076,"departement":{"code":"82","nom":"Tarn-et-Garonne"},"region":{"code":"76","nom":"Occitanie"}},{"nom":"Lamothe-Cumont","code":"82091","codesPostaux":["82500"],"centre":{"type":"Point","coordinates":[0.915,43.8818]},"surface":540.87,"population":126,"departement":{"code":"82","nom":"Tarn-et-Garonne"},"region":{"code":"76","nom":"Occitanie"}},{"nom":"Lapenche","code":"82092","codesPostaux":["82240"],"centre":{"type":"Point","coordinates":[1.5682,44.2249]},"surface":807.04,"population":282,"departement":{"code":"82","nom":"Tarn-et-Garonne"},"region":{"code":"76","nom":"Occitanie"}},{"nom":"Larrazet","code":"82093","codesPostaux":["82500"],"centre":{"type":"Point","coordinates":[1.0809,43.9303]},"surface":1506.54,"population":686,"departement":{"code":"82","nom":"Tarn-et-Garonne"},"region":{"code":"76","nom":"Occitanie"}},{"nom":"Lauzerte","code":"82094","codesPostaux":["82110"],"centre":{"type":"Point","coordinates":[1.1231,44.264]},"surface":4460.91,"population":1447,"departement":{"code":"82","nom":"Tarn-et-Garonne"},"region":{"code":"76","nom":"Occitanie"}},{"nom":"Lavaurette","code":"82095","codesPostaux":["82240"],"centre":{"type":"Point","coordinates":[1.6702,44.2097]},"surface":1372.95,"population":214,"departement":{"code":"82","nom":"Tarn-et-Garonne"},"region":{"code":"76","nom":"Occitanie"}},{"nom":"La Ville-Dieu-du-Temple","code":"82096","codesPostaux":["82290"],"centre":{"type":"Point","coordinates":[1.221,44.0417]},"surface":2620.4,"population":3305,"departement":{"code":"82","nom":"Tarn-et-Garonne"},"region":{"code":"76","nom":"Occitanie"}},{"nom":"Lavit","code":"82097","codesPostaux":["82120"],"centre":{"type":"Point","coordinates":[0.9276,43.9542]},"surface":2645.28,"population":1606,"departement":{"code":"82","nom":"Tarn-et-Garonne"},"region":{"code":"76","nom":"Occitanie"}},{"nom":"Léojac","code":"82098","codesPostaux":["82230"],"centre":{"type":"Point","coordinates":[1.4494,44.0055]},"surface":1290.53,"population":1279,"departement":{"code":"82","nom":"Tarn-et-Garonne"},"region":{"code":"76","nom":"Occitanie"}},{"nom":"Lizac","code":"82099","codesPostaux":["82200"],"centre":{"type":"Point","coordinates":[1.1876,44.1123]},"surface":953.35,"population":545,"departement":{"code":"82","nom":"Tarn-et-Garonne"},"region":{"code":"76","nom":"Occitanie"}},{"nom":"Loze","code":"82100","codesPostaux":["82160"],"centre":{"type":"Point","coordinates":[1.7463,44.2898]},"surface":1111.05,"population":121,"departement":{"code":"82","nom":"Tarn-et-Garonne"},"region":{"code":"76","nom":"Occitanie"}},{"nom":"Malause","code":"82101","codesPostaux":["82200"],"centre":{"type":"Point","coordinates":[0.9704,44.0921]},"surface":1183.7,"population":1245,"departement":{"code":"82","nom":"Tarn-et-Garonne"},"region":{"code":"76","nom":"Occitanie"}},{"nom":"Mansonville","code":"82102","codesPostaux":["82120"],"centre":{"type":"Point","coordinates":[0.85,44.0168]},"surface":1541.23,"population":310,"departement":{"code":"82","nom":"Tarn-et-Garonne"},"region":{"code":"76","nom":"Occitanie"}},{"nom":"Marignac","code":"82103","codesPostaux":["82500"],"centre":{"type":"Point","coordinates":[0.9191,43.8411]},"surface":507.39,"population":102,"departement":{"code":"82","nom":"Tarn-et-Garonne"},"region":{"code":"76","nom":"Occitanie"}},{"nom":"Marsac","code":"82104","codesPostaux":["82120"],"centre":{"type":"Point","coordinates":[0.8265,43.946]},"surface":1495.45,"population":184,"departement":{"code":"82","nom":"Tarn-et-Garonne"},"region":{"code":"76","nom":"Occitanie"}},{"nom":"Mas-Grenier","code":"82105","codesPostaux":["82600"],"centre":{"type":"Point","coordinates":[1.1836,43.8986]},"surface":2449.89,"population":1303,"departement":{"code":"82","nom":"Tarn-et-Garonne"},"region":{"code":"76","nom":"Occitanie"}},{"nom":"Maubec","code":"82106","codesPostaux":["82500"],"centre":{"type":"Point","coordinates":[0.9266,43.8091]},"surface":1282.51,"population":152,"departement":{"code":"82","nom":"Tarn-et-Garonne"},"region":{"code":"76","nom":"Occitanie"}},{"nom":"Maumusson","code":"82107","codesPostaux":["82120"],"centre":{"type":"Point","coordinates":[0.9064,43.9121]},"surface":510.26,"population":51,"departement":{"code":"82","nom":"Tarn-et-Garonne"},"region":{"code":"76","nom":"Occitanie"}},{"nom":"Meauzac","code":"82108","codesPostaux":["82290"],"centre":{"type":"Point","coordinates":[1.231,44.0915]},"surface":1181.7,"population":1464,"departement":{"code":"82","nom":"Tarn-et-Garonne"},"region":{"code":"76","nom":"Occitanie"}},{"nom":"Merles","code":"82109","codesPostaux":["82210"],"centre":{"type":"Point","coordinates":[0.9644,44.0668]},"surface":728.21,"population":201,"departement":{"code":"82","nom":"Tarn-et-Garonne"},"region":{"code":"76","nom":"Occitanie"}},{"nom":"Mirabel","code":"82110","codesPostaux":["82440"],"centre":{"type":"Point","coordinates":[1.4071,44.1398]},"surface":3222.5,"population":1042,"departement":{"code":"82","nom":"Tarn-et-Garonne"},"region":{"code":"76","nom":"Occitanie"}},{"nom":"Miramont-de-Quercy","code":"82111","codesPostaux":["82190"],"centre":{"type":"Point","coordinates":[1.052,44.2259]},"surface":1488.96,"population":307,"departement":{"code":"82","nom":"Tarn-et-Garonne"},"region":{"code":"76","nom":"Occitanie"}},{"nom":"Moissac","code":"82112","codesPostaux":["82200"],"centre":{"type":"Point","coordinates":[1.1002,44.1219]},"surface":8594.11,"population":13652,"departement":{"code":"82","nom":"Tarn-et-Garonne"},"region":{"code":"76","nom":"Occitanie"}},{"nom":"Molières","code":"82113","codesPostaux":["82220"],"centre":{"type":"Point","coordinates":[1.393,44.1944]},"surface":3851.59,"population":1274,"departement":{"code":"82","nom":"Tarn-et-Garonne"},"region":{"code":"76","nom":"Occitanie"}},{"nom":"Monbéqui","code":"82114","codesPostaux":["82170"],"centre":{"type":"Point","coordinates":[1.2322,43.8907]},"surface":693.89,"population":656,"departement":{"code":"82","nom":"Tarn-et-Garonne"},"region":{"code":"76","nom":"Occitanie"}},{"nom":"Monclar-de-Quercy","code":"82115","codesPostaux":["82230"],"centre":{"type":"Point","coordinates":[1.5816,43.9912]},"surface":3772.39,"population":2039,"departement":{"code":"82","nom":"Tarn-et-Garonne"},"region":{"code":"76","nom":"Occitanie"}},{"nom":"Montagudet","code":"82116","codesPostaux":["82110"],"centre":{"type":"Point","coordinates":[1.087,44.2468]},"surface":1225.04,"population":197,"departement":{"code":"82","nom":"Tarn-et-Garonne"},"region":{"code":"76","nom":"Occitanie"}},{"nom":"Montaigu-de-Quercy","code":"82117","codesPostaux":["82150"],"centre":{"type":"Point","coordinates":[1.0395,44.3414]},"surface":7675.89,"population":1295,"departement":{"code":"82","nom":"Tarn-et-Garonne"},"region":{"code":"76","nom":"Occitanie"}},{"nom":"Montaïn","code":"82118","codesPostaux":["82100"],"centre":{"type":"Point","coordinates":[1.1131,43.9398]},"surface":402.24,"population":92,"departement":{"code":"82","nom":"Tarn-et-Garonne"},"region":{"code":"76","nom":"Occitanie"}},{"nom":"Montalzat","code":"82119","codesPostaux":["82270"],"centre":{"type":"Point","coordinates":[1.5191,44.2041]},"surface":2754.82,"population":654,"departement":{"code":"82","nom":"Tarn-et-Garonne"},"region":{"code":"76","nom":"Occitanie"}},{"nom":"Montastruc","code":"82120","codesPostaux":["82130"],"centre":{"type":"Point","coordinates":[1.2932,44.1073]},"surface":466.85,"population":297,"departement":{"code":"82","nom":"Tarn-et-Garonne"},"region":{"code":"76","nom":"Occitanie"}},{"nom":"Montauban","code":"82121","codesPostaux":["82000"],"centre":{"type":"Point","coordinates":[1.3646,44.0217]},"surface":13592.48,"population":62487,"departement":{"code":"82","nom":"Tarn-et-Garonne"},"region":{"code":"76","nom":"Occitanie"}},{"nom":"Montbarla","code":"82122","codesPostaux":["82110"],"centre":{"type":"Point","coordinates":[1.0776,44.2161]},"surface":739.95,"population":160,"departement":{"code":"82","nom":"Tarn-et-Garonne"},"region":{"code":"76","nom":"Occitanie"}},{"nom":"Montbartier","code":"82123","codesPostaux":["82700"],"centre":{"type":"Point","coordinates":[1.2865,43.9162]},"surface":1508.61,"population":1727,"departement":{"code":"82","nom":"Tarn-et-Garonne"},"region":{"code":"76","nom":"Occitanie"}},{"nom":"Montbeton","code":"82124","codesPostaux":["82290"],"centre":{"type":"Point","coordinates":[1.2661,44.0139]},"surface":1625.75,"population":4335,"departement":{"code":"82","nom":"Tarn-et-Garonne"},"region":{"code":"76","nom":"Occitanie"}},{"nom":"Montech","code":"82125","codesPostaux":["82700"],"centre":{"type":"Point","coordinates":[1.2363,43.9623]},"surface":4993.42,"population":6657,"departement":{"code":"82","nom":"Tarn-et-Garonne"},"region":{"code":"76","nom":"Occitanie"}},{"nom":"Monteils","code":"82126","codesPostaux":["82300"],"centre":{"type":"Point","coordinates":[1.5641,44.1732]},"surface":1216.29,"population":1354,"departement":{"code":"82","nom":"Tarn-et-Garonne"},"region":{"code":"76","nom":"Occitanie"}},{"nom":"Montesquieu","code":"82127","codesPostaux":["82200"],"centre":{"type":"Point","coordinates":[1.0599,44.1803]},"surface":2865.1,"population":747,"departement":{"code":"82","nom":"Tarn-et-Garonne"},"region":{"code":"76","nom":"Occitanie"}},{"nom":"Montfermier","code":"82128","codesPostaux":["82270"],"centre":{"type":"Point","coordinates":[1.4171,44.2274]},"surface":656.37,"population":109,"departement":{"code":"82","nom":"Tarn-et-Garonne"},"region":{"code":"76","nom":"Occitanie"}},{"nom":"Montgaillard","code":"82129","codesPostaux":["82120"],"centre":{"type":"Point","coordinates":[0.8777,43.9312]},"surface":958.43,"population":143,"departement":{"code":"82","nom":"Tarn-et-Garonne"},"region":{"code":"76","nom":"Occitanie"}},{"nom":"Montjoi","code":"82130","codesPostaux":["82400"],"centre":{"type":"Point","coordinates":[0.9331,44.2029]},"surface":1478.1,"population":171,"departement":{"code":"82","nom":"Tarn-et-Garonne"},"region":{"code":"76","nom":"Occitanie"}},{"nom":"Montpezat-de-Quercy","code":"82131","codesPostaux":["82270"],"centre":{"type":"Point","coordinates":[1.4738,44.2392]},"surface":4396.64,"population":1600,"departement":{"code":"82","nom":"Tarn-et-Garonne"},"region":{"code":"76","nom":"Occitanie"}},{"nom":"Montricoux","code":"82132","codesPostaux":["82800"],"centre":{"type":"Point","coordinates":[1.6223,44.1059]},"surface":2645.77,"population":1175,"departement":{"code":"82","nom":"Tarn-et-Garonne"},"region":{"code":"76","nom":"Occitanie"}},{"nom":"Mouillac","code":"82133","codesPostaux":["82160"],"centre":{"type":"Point","coordinates":[1.6723,44.2734]},"surface":913.6,"population":91,"departement":{"code":"82","nom":"Tarn-et-Garonne"},"region":{"code":"76","nom":"Occitanie"}},{"nom":"Nègrepelisse","code":"82134","codesPostaux":["82800"],"centre":{"type":"Point","coordinates":[1.5373,44.0629]},"surface":4893.4,"population":5839,"departement":{"code":"82","nom":"Tarn-et-Garonne"},"region":{"code":"76","nom":"Occitanie"}},{"nom":"Nohic","code":"82135","codesPostaux":["82370"],"centre":{"type":"Point","coordinates":[1.4389,43.8889]},"surface":1261.17,"population":1384,"departement":{"code":"82","nom":"Tarn-et-Garonne"},"region":{"code":"76","nom":"Occitanie"}},{"nom":"Orgueil","code":"82136","codesPostaux":["82370"],"centre":{"type":"Point","coordinates":[1.3975,43.8987]},"surface":1398.93,"population":1721,"departement":{"code":"82","nom":"Tarn-et-Garonne"},"region":{"code":"76","nom":"Occitanie"}},{"nom":"Parisot","code":"82137","codesPostaux":["82160"],"centre":{"type":"Point","coordinates":[1.8682,44.2607]},"surface":2811.11,"population":559,"departement":{"code":"82","nom":"Tarn-et-Garonne"},"region":{"code":"76","nom":"Occitanie"}},{"nom":"Perville","code":"82138","codesPostaux":["82400"],"centre":{"type":"Point","coordinates":[0.8801,44.1788]},"surface":929.87,"population":169,"departement":{"code":"82","nom":"Tarn-et-Garonne"},"region":{"code":"76","nom":"Occitanie"}},{"nom":"Le Pin","code":"82139","codesPostaux":["82340"],"centre":{"type":"Point","coordinates":[0.9759,44.0368]},"surface":472.35,"population":115,"departement":{"code":"82","nom":"Tarn-et-Garonne"},"region":{"code":"76","nom":"Occitanie"}},{"nom":"Piquecos","code":"82140","codesPostaux":["82130"],"centre":{"type":"Point","coordinates":[1.3227,44.1084]},"surface":797.39,"population":455,"departement":{"code":"82","nom":"Tarn-et-Garonne"},"region":{"code":"76","nom":"Occitanie"}},{"nom":"Pommevic","code":"82141","codesPostaux":["82400"],"centre":{"type":"Point","coordinates":[0.9354,44.0947]},"surface":580.86,"population":580,"departement":{"code":"82","nom":"Tarn-et-Garonne"},"region":{"code":"76","nom":"Occitanie"}},{"nom":"Pompignan","code":"82142","codesPostaux":["82170"],"centre":{"type":"Point","coordinates":[1.329,43.8192]},"surface":1210.54,"population":1810,"departement":{"code":"82","nom":"Tarn-et-Garonne"},"region":{"code":"76","nom":"Occitanie"}},{"nom":"Poupas","code":"82143","codesPostaux":["82120"],"centre":{"type":"Point","coordinates":[0.8319,43.9625]},"surface":1018.51,"population":88,"departement":{"code":"82","nom":"Tarn-et-Garonne"},"region":{"code":"76","nom":"Occitanie"}},{"nom":"Puycornet","code":"82144","codesPostaux":["82220"],"centre":{"type":"Point","coordinates":[1.3233,44.153]},"surface":2740.04,"population":772,"departement":{"code":"82","nom":"Tarn-et-Garonne"},"region":{"code":"76","nom":"Occitanie"}},{"nom":"Puygaillard-de-Quercy","code":"82145","codesPostaux":["82800"],"centre":{"type":"Point","coordinates":[1.6344,44.0327]},"surface":1738.38,"population":379,"departement":{"code":"82","nom":"Tarn-et-Garonne"},"region":{"code":"76","nom":"Occitanie"}},{"nom":"Puygaillard-de-Lomagne","code":"82146","codesPostaux":["82120"],"centre":{"type":"Point","coordinates":[0.885,43.9726]},"surface":713.59,"population":55,"departement":{"code":"82","nom":"Tarn-et-Garonne"},"region":{"code":"76","nom":"Occitanie"}},{"nom":"Puylagarde","code":"82147","codesPostaux":["82160"],"centre":{"type":"Point","coordinates":[1.8502,44.3079]},"surface":2322.66,"population":345,"departement":{"code":"82","nom":"Tarn-et-Garonne"},"region":{"code":"76","nom":"Occitanie"}},{"nom":"Puylaroque","code":"82148","codesPostaux":["82240"],"centre":{"type":"Point","coordinates":[1.636,44.2559]},"surface":3550.33,"population":698,"departement":{"code":"82","nom":"Tarn-et-Garonne"},"region":{"code":"76","nom":"Occitanie"}},{"nom":"Réalville","code":"82149","codesPostaux":["82440"],"centre":{"type":"Point","coordinates":[1.4836,44.126]},"surface":2541.99,"population":1867,"departement":{"code":"82","nom":"Tarn-et-Garonne"},"region":{"code":"76","nom":"Occitanie"}},{"nom":"Reyniès","code":"82150","codesPostaux":["82370"],"centre":{"type":"Point","coordinates":[1.4149,43.9262]},"surface":1004.91,"population":878,"departement":{"code":"82","nom":"Tarn-et-Garonne"},"region":{"code":"76","nom":"Occitanie"}},{"nom":"Roquecor","code":"82151","codesPostaux":["82150"],"centre":{"type":"Point","coordinates":[0.9463,44.3182]},"surface":2097.68,"population":401,"departement":{"code":"82","nom":"Tarn-et-Garonne"},"region":{"code":"76","nom":"Occitanie"}},{"nom":"Saint-Aignan","code":"82152","codesPostaux":["82100"],"centre":{"type":"Point","coordinates":[1.0741,44.0215]},"surface":326.22,"population":407,"departement":{"code":"82","nom":"Tarn-et-Garonne"},"region":{"code":"76","nom":"Occitanie"}},{"nom":"Saint-Amans-du-Pech","code":"82153","codesPostaux":["82150"],"centre":{"type":"Point","coordinates":[0.8927,44.3128]},"surface":676.82,"population":232,"departement":{"code":"82","nom":"Tarn-et-Garonne"},"region":{"code":"76","nom":"Occitanie"}},{"nom":"Saint-Amans-de-Pellagal","code":"82154","codesPostaux":["82110"],"centre":{"type":"Point","coordinates":[1.1312,44.2228]},"surface":1453.34,"population":214,"departement":{"code":"82","nom":"Tarn-et-Garonne"},"region":{"code":"76","nom":"Occitanie"}},{"nom":"Saint-Antonin-Noble-Val","code":"82155","codesPostaux":["82140"],"centre":{"type":"Point","coordinates":[1.7338,44.1508]},"surface":10549.38,"population":1951,"departement":{"code":"82","nom":"Tarn-et-Garonne"},"region":{"code":"76","nom":"Occitanie"}},{"nom":"Saint-Arroumex","code":"82156","codesPostaux":["82210"],"centre":{"type":"Point","coordinates":[0.9891,43.9904]},"surface":972.07,"population":145,"departement":{"code":"82","nom":"Tarn-et-Garonne"},"region":{"code":"76","nom":"Occitanie"}},{"nom":"Saint-Beauzeil","code":"82157","codesPostaux":["82150"],"centre":{"type":"Point","coordinates":[0.9106,44.3338]},"surface":985.58,"population":113,"departement":{"code":"82","nom":"Tarn-et-Garonne"},"region":{"code":"76","nom":"Occitanie"}},{"nom":"Saint-Cirice","code":"82158","codesPostaux":["82340"],"centre":{"type":"Point","coordinates":[0.8376,44.0608]},"surface":896.28,"population":148,"departement":{"code":"82","nom":"Tarn-et-Garonne"},"region":{"code":"76","nom":"Occitanie"}},{"nom":"Saint-Cirq","code":"82159","codesPostaux":["82300"],"centre":{"type":"Point","coordinates":[1.6068,44.1298]},"surface":1605.54,"population":569,"departement":{"code":"82","nom":"Tarn-et-Garonne"},"region":{"code":"76","nom":"Occitanie"}},{"nom":"Saint-Clair","code":"82160","codesPostaux":["82400"],"centre":{"type":"Point","coordinates":[0.9447,44.1522]},"surface":841.27,"population":258,"departement":{"code":"82","nom":"Tarn-et-Garonne"},"region":{"code":"76","nom":"Occitanie"}},{"nom":"Saint-Étienne-de-Tulmont","code":"82161","codesPostaux":["82410"],"centre":{"type":"Point","coordinates":[1.4575,44.048]},"surface":2141.15,"population":4050,"departement":{"code":"82","nom":"Tarn-et-Garonne"},"region":{"code":"76","nom":"Occitanie"}},{"nom":"Saint-Georges","code":"82162","codesPostaux":["82240"],"centre":{"type":"Point","coordinates":[1.6365,44.2168]},"surface":919.7,"population":271,"departement":{"code":"82","nom":"Tarn-et-Garonne"},"region":{"code":"76","nom":"Occitanie"}},{"nom":"Saint-Jean-du-Bouzet","code":"82163","codesPostaux":["82120"],"centre":{"type":"Point","coordinates":[0.8782,43.9867]},"surface":774.73,"population":53,"departement":{"code":"82","nom":"Tarn-et-Garonne"},"region":{"code":"76","nom":"Occitanie"}},{"nom":"Sainte-Juliette","code":"82164","codesPostaux":["82110"],"centre":{"type":"Point","coordinates":[1.1642,44.2928]},"surface":736.03,"population":126,"departement":{"code":"82","nom":"Tarn-et-Garonne"},"region":{"code":"76","nom":"Occitanie"}},{"nom":"Saint-Loup","code":"82165","codesPostaux":["82340"],"centre":{"type":"Point","coordinates":[0.8551,44.0812]},"surface":1412.48,"population":535,"departement":{"code":"82","nom":"Tarn-et-Garonne"},"region":{"code":"76","nom":"Occitanie"}},{"nom":"Saint-Michel","code":"82166","codesPostaux":["82340"],"centre":{"type":"Point","coordinates":[0.9377,44.0479]},"surface":1339.26,"population":274,"departement":{"code":"82","nom":"Tarn-et-Garonne"},"region":{"code":"76","nom":"Occitanie"}},{"nom":"Saint-Nauphary","code":"82167","codesPostaux":["82370"],"centre":{"type":"Point","coordinates":[1.4469,43.9583]},"surface":2470.81,"population":1934,"departement":{"code":"82","nom":"Tarn-et-Garonne"},"region":{"code":"76","nom":"Occitanie"}},{"nom":"Saint-Nazaire-de-Valentane","code":"82168","codesPostaux":["82190"],"centre":{"type":"Point","coordinates":[1.0184,44.2071]},"surface":1732.64,"population":311,"departement":{"code":"82","nom":"Tarn-et-Garonne"},"region":{"code":"76","nom":"Occitanie"}},{"nom":"Saint-Nicolas-de-la-Grave","code":"82169","codesPostaux":["82210"],"centre":{"type":"Point","coordinates":[1.0262,44.0627]},"surface":2916.04,"population":2287,"departement":{"code":"82","nom":"Tarn-et-Garonne"},"region":{"code":"76","nom":"Occitanie"}},{"nom":"Saint-Paul-d'Espis","code":"82170","codesPostaux":["82400"],"centre":{"type":"Point","coordinates":[1.0017,44.1417]},"surface":2607.41,"population":561,"departement":{"code":"82","nom":"Tarn-et-Garonne"},"region":{"code":"76","nom":"Occitanie"}},{"nom":"Saint-Porquier","code":"82171","codesPostaux":["82700"],"centre":{"type":"Point","coordinates":[1.1792,44.0079]},"surface":1641.06,"population":1340,"departement":{"code":"82","nom":"Tarn-et-Garonne"},"region":{"code":"76","nom":"Occitanie"}},{"nom":"Saint-Projet","code":"82172","codesPostaux":["82160"],"centre":{"type":"Point","coordinates":[1.7499,44.3132]},"surface":2631.86,"population":288,"departement":{"code":"82","nom":"Tarn-et-Garonne"},"region":{"code":"76","nom":"Occitanie"}},{"nom":"Saint-Sardos","code":"82173","codesPostaux":["82600"],"centre":{"type":"Point","coordinates":[1.1215,43.9052]},"surface":2686.6,"population":1135,"departement":{"code":"82","nom":"Tarn-et-Garonne"},"region":{"code":"76","nom":"Occitanie"}},{"nom":"Saint-Vincent-d'Autéjac","code":"82174","codesPostaux":["82300"],"centre":{"type":"Point","coordinates":[1.465,44.1632]},"surface":1639.91,"population":283,"departement":{"code":"82","nom":"Tarn-et-Garonne"},"region":{"code":"76","nom":"Occitanie"}},{"nom":"Saint-Vincent-Lespinasse","code":"82175","codesPostaux":["82400"],"centre":{"type":"Point","coordinates":[0.9693,44.1216]},"surface":932.23,"population":285,"departement":{"code":"82","nom":"Tarn-et-Garonne"},"region":{"code":"76","nom":"Occitanie"}},{"nom":"La Salvetat-Belmontet","code":"82176","codesPostaux":["82230"],"centre":{"type":"Point","coordinates":[1.514,43.9659]},"surface":1869.44,"population":967,"departement":{"code":"82","nom":"Tarn-et-Garonne"},"region":{"code":"76","nom":"Occitanie"}},{"nom":"Sauveterre","code":"82177","codesPostaux":["82110"],"centre":{"type":"Point","coordinates":[1.2703,44.2671]},"surface":1746.28,"population":152,"departement":{"code":"82","nom":"Tarn-et-Garonne"},"region":{"code":"76","nom":"Occitanie"}},{"nom":"Savenès","code":"82178","codesPostaux":["82600"],"centre":{"type":"Point","coordinates":[1.1853,43.8306]},"surface":2242.09,"population":828,"departement":{"code":"82","nom":"Tarn-et-Garonne"},"region":{"code":"76","nom":"Occitanie"}},{"nom":"Septfonds","code":"82179","codesPostaux":["82240"],"centre":{"type":"Point","coordinates":[1.6214,44.178]},"surface":2722.85,"population":2254,"departement":{"code":"82","nom":"Tarn-et-Garonne"},"region":{"code":"76","nom":"Occitanie"}},{"nom":"Sérignac","code":"82180","codesPostaux":["82500"],"centre":{"type":"Point","coordinates":[1.0325,43.9277]},"surface":3269.15,"population":521,"departement":{"code":"82","nom":"Tarn-et-Garonne"},"region":{"code":"76","nom":"Occitanie"}},{"nom":"Sistels","code":"82181","codesPostaux":["82340"],"centre":{"type":"Point","coordinates":[0.784,44.0509]},"surface":1356.77,"population":206,"departement":{"code":"82","nom":"Tarn-et-Garonne"},"region":{"code":"76","nom":"Occitanie"}},{"nom":"Touffailles","code":"82182","codesPostaux":["82190"],"centre":{"type":"Point","coordinates":[1.0324,44.2729]},"surface":2476.9,"population":336,"departement":{"code":"82","nom":"Tarn-et-Garonne"},"region":{"code":"76","nom":"Occitanie"}},{"nom":"Tréjouls","code":"82183","codesPostaux":["82110"],"centre":{"type":"Point","coordinates":[1.2021,44.2691]},"surface":1393.3,"population":221,"departement":{"code":"82","nom":"Tarn-et-Garonne"},"region":{"code":"76","nom":"Occitanie"}},{"nom":"Vaïssac","code":"82184","codesPostaux":["82800"],"centre":{"type":"Point","coordinates":[1.5588,44.033]},"surface":3762.62,"population":952,"departement":{"code":"82","nom":"Tarn-et-Garonne"},"region":{"code":"76","nom":"Occitanie"}},{"nom":"Valeilles","code":"82185","codesPostaux":["82150"],"centre":{"type":"Point","coordinates":[0.9139,44.3623]},"surface":1386.29,"population":244,"departement":{"code":"82","nom":"Tarn-et-Garonne"},"region":{"code":"76","nom":"Occitanie"}},{"nom":"Valence","code":"82186","codesPostaux":["82400"],"centre":{"type":"Point","coordinates":[0.9043,44.1064]},"surface":1356.72,"population":5287,"departement":{"code":"82","nom":"Tarn-et-Garonne"},"region":{"code":"76","nom":"Occitanie"}},{"nom":"Varen","code":"82187","codesPostaux":["82330"],"centre":{"type":"Point","coordinates":[1.8858,44.1605]},"surface":2353.64,"population":646,"departement":{"code":"82","nom":"Tarn-et-Garonne"},"region":{"code":"76","nom":"Occitanie"}},{"nom":"Varennes","code":"82188","codesPostaux":["82370"],"centre":{"type":"Point","coordinates":[1.4897,43.9143]},"surface":1467.23,"population":640,"departement":{"code":"82","nom":"Tarn-et-Garonne"},"region":{"code":"76","nom":"Occitanie"}},{"nom":"Vazerac","code":"82189","codesPostaux":["82220"],"centre":{"type":"Point","coordinates":[1.2774,44.2074]},"surface":3272.18,"population":767,"departement":{"code":"82","nom":"Tarn-et-Garonne"},"region":{"code":"76","nom":"Occitanie"}},{"nom":"Verdun-sur-Garonne","code":"82190","codesPostaux":["82600"],"centre":{"type":"Point","coordinates":[1.2169,43.841]},"surface":3962.14,"population":4914,"departement":{"code":"82","nom":"Tarn-et-Garonne"},"region":{"code":"76","nom":"Occitanie"}},{"nom":"Verfeil","code":"82191","codesPostaux":["82330"],"centre":{"type":"Point","coordinates":[1.8752,44.1859]},"surface":1863.11,"population":406,"departement":{"code":"82","nom":"Tarn-et-Garonne"},"region":{"code":"76","nom":"Occitanie"}},{"nom":"Verlhac-Tescou","code":"82192","codesPostaux":["82230"],"centre":{"type":"Point","coordinates":[1.5257,43.932]},"surface":2255.23,"population":565,"departement":{"code":"82","nom":"Tarn-et-Garonne"},"region":{"code":"76","nom":"Occitanie"}},{"nom":"Vigueron","code":"82193","codesPostaux":["82500"],"centre":{"type":"Point","coordinates":[1.0546,43.8946]},"surface":634.88,"population":120,"departement":{"code":"82","nom":"Tarn-et-Garonne"},"region":{"code":"76","nom":"Occitanie"}},{"nom":"Villebrumier","code":"82194","codesPostaux":["82370"],"centre":{"type":"Point","coordinates":[1.453,43.9206]},"surface":1130.53,"population":1349,"departement":{"code":"82","nom":"Tarn-et-Garonne"},"region":{"code":"76","nom":"Occitanie"}},{"nom":"Villemade","code":"82195","codesPostaux":["82130"],"centre":{"type":"Point","coordinates":[1.2901,44.0787]},"surface":922.72,"population":824,"departement":{"code":"82","nom":"Tarn-et-Garonne"},"region":{"code":"76","nom":"Occitanie"}}]