[{"nom":"Affoux","code":"69001","codesPostaux":["69170"],"centre":{"type":"Point","coordinates":[4.4116,45.8448]},"surface":1063.77,"population":397,"departement":{"code":"69","nom":"Rhône"},"region":{"code":"84","nom":"Auvergne-Rhône-Alpes"}},{"nom":"Aigueperse","code":"69002","codesPostaux":["69790"],"centre":{"type":"Point","coordinates":[4.4268,46.2822]},"surface":1293.9,"population":239,"departement":{"code":"69","nom":"Rhône"},"region":{"code":"84","nom":"Auvergne-Rhône-Alpes"}},{"nom":"Albigny-sur-Saône","code":"69003","codesPostaux":["69250"],"centre":{"type":"Point","coordinates":[4.8284,45.8666]},"surface":262.02,"population":3013,"departement":{"code":"69","nom":"Rhône"},"region":{"code":"84","nom":"Auvergne-Rhône-Alpes"}},{"nom":"Alix","code":"69004","codesPostaux":["69380"],"centre":{"type":"Point","coordinates":[4.6534,45.9162]},"surface":361.21,"population":772,"departement":{"code":"69","nom":"Rhône"},"region":{"code":"84","nom":"Auvergne-Rhône-Alpes"}},{"nom":"Ambérieux","code":"69005","codesPostaux":["69480"],"centre":{"type":"Point","coordinates":[4.7427,45.9264]},"surface":461.01,"population":629,"departement":{"code":"69","nom":"Rhône"},"region":{"code":"84","nom":"Auvergne-Rhône-Alpes"}},{"nom":"Amplepuis","code":"69006","codesPostaux":["69550"],"centre":{"type":"Point","coordinates":[4.317,45.966]},"surface":3876.98,"population":4858,"departement":{"code":"69","nom":"Rhône"},"region":{"code":"84","nom":"Auvergne-Rhône-Alpes"}},{"nom":"Ampuis","code":"69007","codesPostaux":["69420"],"centre":{"type":"Point","coordinates":[4.8079,45.5034]},"surface":1557.11,"population":2760,"departement":{"code":"69","nom":"Rhône"},"region":{"code":"84","nom":"Auvergne-Rhône-Alpes"}},{"nom":"Ancy","code":"69008","codesPostaux":["69490"],"centre":{"type":"Point","coordinates":[4.5098,45.8362]},"surface":1183.62,"population":674,"departement":{"code":"69","nom":"Rhône"},"region":{"code":"84","nom":"Auvergne-Rhône-Alpes"}},{"nom":"Anse","code":"69009","codesPostaux":["69480"],"centre":{"type":"Point","coordinates":[4.7049,45.9451]},"surface":1527.91,"population":8139,"departement":{"code":"69","nom":"Rhône"},"region":{"code":"84","nom":"Auvergne-Rhône-Alpes"}},{"nom":"L'Arbresle","code":"69010","codesPostaux":["69210"],"centre":{"type":"Point","coordinates":[4.6102,45.8347]},"surface":335.51,"population":6469,"departement":{"code":"69","nom":"Rhône"},"region":{"code":"84","nom":"Auvergne-Rhône-Alpes"}},{"nom":"Les Ardillats","code":"69012","codesPostaux":["69430"],"centre":{"type":"Point","coordinates":[4.5293,46.1885]},"surface":2295.13,"population":616,"departement":{"code":"69","nom":"Rhône"},"region":{"code":"84","nom":"Auvergne-Rhône-Alpes"}},{"nom":"Arnas","code":"69013","codesPostaux":["69400"],"centre":{"type":"Point","coordinates":[4.7102,46.0194]},"surface":1785.24,"population":4408,"departement":{"code":"69","nom":"Rhône"},"region":{"code":"84","nom":"Auvergne-Rhône-Alpes"}},{"nom":"Aveize","code":"69014","codesPostaux":["69610"],"centre":{"type":"Point","coordinates":[4.4744,45.6799]},"surface":1686.56,"population":1108,"departement":{"code":"69","nom":"Rhône"},"region":{"code":"84","nom":"Auvergne-Rhône-Alpes"}},{"nom":"Azolette","code":"69016","codesPostaux":["69790"],"centre":{"type":"Point","coordinates":[4.4146,46.1917]},"surface":425.76,"population":122,"departement":{"code":"69","nom":"Rhône"},"region":{"code":"84","nom":"Auvergne-Rhône-Alpes"}},{"nom":"Bagnols","code":"69017","codesPostaux":["69620"],"centre":{"type":"Point","coordinates":[4.6205,45.9104]},"surface":745.58,"population":758,"departement":{"code":"69","nom":"Rhône"},"region":{"code":"84","nom":"Auvergne-Rhône-Alpes"}},{"nom":"Beaujeu","code":"69018","codesPostaux":["69430"],"centre":{"type":"Point","coordinates":[4.5802,46.1585]},"surface":1773.62,"population":2103,"departement":{"code":"69","nom":"Rhône"},"region":{"code":"84","nom":"Auvergne-Rhône-Alpes"}},{"nom":"Belleville-en-Beaujolais","code":"69019","codesPostaux":["69220"],"centre":{"type":"Point","coordinates":[4.7291,46.1145]},"surface":2282.19,"population":13767,"departement":{"code":"69","nom":"Rhône"},"region":{"code":"84","nom":"Auvergne-Rhône-Alpes"}},{"nom":"Belmont-d'Azergues","code":"69020","codesPostaux":["69380"],"centre":{"type":"Point","coordinates":[4.6685,45.8673]},"surface":156.12,"population":717,"departement":{"code":"69","nom":"Rhône"},"region":{"code":"84","nom":"Auvergne-Rhône-Alpes"}},{"nom":"Bessenay","code":"69021","codesPostaux":["69690"],"centre":{"type":"Point","coordinates":[4.5484,45.7712]},"surface":1398.72,"population":2351,"departement":{"code":"69","nom":"Rhône"},"region":{"code":"84","nom":"Auvergne-Rhône-Alpes"}},{"nom":"Bibost","code":"69022","codesPostaux":["69690"],"centre":{"type":"Point","coordinates":[4.5494,45.7976]},"surface":534.86,"population":543,"departement":{"code":"69","nom":"Rhône"},"region":{"code":"84","nom":"Auvergne-Rhône-Alpes"}},{"nom":"Blacé","code":"69023","codesPostaux":["69460"],"centre":{"type":"Point","coordinates":[4.6308,46.0364]},"surface":1099.73,"population":1692,"departement":{"code":"69","nom":"Rhône"},"region":{"code":"84","nom":"Auvergne-Rhône-Alpes"}},{"nom":"Val d'Oingt","code":"69024","codesPostaux":["69620"],"centre":{"type":"Point","coordinates":[4.5668,45.9386]},"surface":1828.23,"population":4143,"departement":{"code":"69","nom":"Rhône"},"region":{"code":"84","nom":"Auvergne-Rhône-Alpes"}},{"nom":"Le Breuil","code":"69026","codesPostaux":["69620"],"centre":{"type":"Point","coordinates":[4.5889,45.8909]},"surface":565.55,"population":528,"departement":{"code":"69","nom":"Rhône"},"region":{"code":"84","nom":"Auvergne-Rhône-Alpes"}},{"nom":"Brignais","code":"69027","codesPostaux":["69530"],"centre":{"type":"Point","coordinates":[4.7527,45.6751]},"surface":1030.75,"population":12330,"departement":{"code":"69","nom":"Rhône"},"region":{"code":"84","nom":"Auvergne-Rhône-Alpes"}},{"nom":"Brindas","code":"69028","codesPostaux":["69126"],"centre":{"type":"Point","coordinates":[4.703,45.7183]},"surface":1140.46,"population":6718,"departement":{"code":"69","nom":"Rhône"},"region":{"code":"84","nom":"Auvergne-Rhône-Alpes"}},{"nom":"Bron","code":"69029","codesPostaux":["69500"],"centre":{"type":"Point","coordinates":[4.9116,45.7355]},"surface":1030.24,"population":42850,"departement":{"code":"69","nom":"Rhône"},"region":{"code":"84","nom":"Auvergne-Rhône-Alpes"}},{"nom":"Brullioles","code":"69030","codesPostaux":["69690"],"centre":{"type":"Point","coordinates":[4.49,45.7617]},"surface":1252.93,"population":823,"departement":{"code":"69","nom":"Rhône"},"region":{"code":"84","nom":"Auvergne-Rhône-Alpes"}},{"nom":"Brussieu","code":"69031","codesPostaux":["69690"],"centre":{"type":"Point","coordinates":[4.5201,45.745]},"surface":681.52,"population":1378,"departement":{"code":"69","nom":"Rhône"},"region":{"code":"84","nom":"Auvergne-Rhône-Alpes"}},{"nom":"Bully","code":"69032","codesPostaux":["69210"],"centre":{"type":"Point","coordinates":[4.5786,45.8595]},"surface":1277.8,"population":2144,"departement":{"code":"69","nom":"Rhône"},"region":{"code":"84","nom":"Auvergne-Rhône-Alpes"}},{"nom":"Cailloux-sur-Fontaines","code":"69033","codesPostaux":["69270"],"centre":{"type":"Point","coordinates":[4.8817,45.8592]},"surface":846.14,"population":2951,"departement":{"code":"69","nom":"Rhône"},"region":{"code":"84","nom":"Auvergne-Rhône-Alpes"}},{"nom":"Caluire-et-Cuire","code":"69034","codesPostaux":["69300"],"centre":{"type":"Point","coordinates":[4.8494,45.7986]},"surface":1043.7,"population":43479,"departement":{"code":"69","nom":"Rhône"},"region":{"code":"84","nom":"Auvergne-Rhône-Alpes"}},{"nom":"Cenves","code":"69035","codesPostaux":["69840"],"centre":{"type":"Point","coordinates":[4.6632,46.2801]},"surface":2641.52,"population":393,"departement":{"code":"69","nom":"Rhône"},"region":{"code":"84","nom":"Auvergne-Rhône-Alpes"}},{"nom":"Cercié","code":"69036","codesPostaux":["69220"],"centre":{"type":"Point","coordinates":[4.6702,46.1251]},"surface":499.22,"population":1135,"departement":{"code":"69","nom":"Rhône"},"region":{"code":"84","nom":"Auvergne-Rhône-Alpes"}},{"nom":"Chambost-Allières","code":"69037","codesPostaux":["69870"],"centre":{"type":"Point","coordinates":[4.509,46.017]},"surface":1395.13,"population":819,"departement":{"code":"69","nom":"Rhône"},"region":{"code":"84","nom":"Auvergne-Rhône-Alpes"}},{"nom":"Chambost-Longessaigne","code":"69038","codesPostaux":["69770"],"centre":{"type":"Point","coordinates":[4.3784,45.778]},"surface":1541.71,"population":923,"departement":{"code":"69","nom":"Rhône"},"region":{"code":"84","nom":"Auvergne-Rhône-Alpes"}},{"nom":"Chamelet","code":"69039","codesPostaux":["69620"],"centre":{"type":"Point","coordinates":[4.4973,45.9829]},"surface":1475.53,"population":703,"departement":{"code":"69","nom":"Rhône"},"region":{"code":"84","nom":"Auvergne-Rhône-Alpes"}},{"nom":"Champagne-au-Mont-d'Or","code":"69040","codesPostaux":["69410"],"centre":{"type":"Point","coordinates":[4.7864,45.8006]},"surface":256.66,"population":6124,"departement":{"code":"69","nom":"Rhône"},"region":{"code":"84","nom":"Auvergne-Rhône-Alpes"}},{"nom":"La Chapelle-sur-Coise","code":"69042","codesPostaux":["69590"],"centre":{"type":"Point","coordinates":[4.4959,45.6513]},"surface":660.72,"population":566,"departement":{"code":"69","nom":"Rhône"},"region":{"code":"84","nom":"Auvergne-Rhône-Alpes"}},{"nom":"Chaponost","code":"69043","codesPostaux":["69630"],"centre":{"type":"Point","coordinates":[4.7452,45.7089]},"surface":1625.84,"population":9217,"departement":{"code":"69","nom":"Rhône"},"region":{"code":"84","nom":"Auvergne-Rhône-Alpes"}},{"nom":"Charbonnières-les-Bains","code":"69044","codesPostaux":["69260"],"centre":{"type":"Point","coordinates":[4.743,45.7792]},"surface":410.94,"population":5272,"departement":{"code":"69","nom":"Rhône"},"region":{"code":"84","nom":"Auvergne-Rhône-Alpes"}},{"nom":"Charentay","code":"69045","codesPostaux":["69220"],"centre":{"type":"Point","coordinates":[4.6926,46.0814]},"surface":1397.34,"population":1269,"departement":{"code":"69","nom":"Rhône"},"region":{"code":"84","nom":"Auvergne-Rhône-Alpes"}},{"nom":"Charly","code":"69046","codesPostaux":["69390"],"centre":{"type":"Point","coordinates":[4.7871,45.6527]},"surface":517.21,"population":4670,"departement":{"code":"69","nom":"Rhône"},"region":{"code":"84","nom":"Auvergne-Rhône-Alpes"}},{"nom":"Charnay","code":"69047","codesPostaux":["69380"],"centre":{"type":"Point","coordinates":[4.6602,45.8876]},"surface":722.23,"population":1031,"departement":{"code":"69","nom":"Rhône"},"region":{"code":"84","nom":"Auvergne-Rhône-Alpes"}},{"nom":"Chasselay","code":"69049","codesPostaux":["69380"],"centre":{"type":"Point","coordinates":[4.7699,45.8733]},"surface":1289.26,"population":2901,"departement":{"code":"69","nom":"Rhône"},"region":{"code":"84","nom":"Auvergne-Rhône-Alpes"}},{"nom":"Châtillon","code":"69050","codesPostaux":["69380"],"centre":{"type":"Point","coordinates":[4.6487,45.872]},"surface":1078.22,"population":2184,"departement":{"code":"69","nom":"Rhône"},"region":{"code":"84","nom":"Auvergne-Rhône-Alpes"}},{"nom":"Chaussan","code":"69051","codesPostaux":["69440"],"centre":{"type":"Point","coordinates":[4.6332,45.6387]},"surface":796.66,"population":1215,"departement":{"code":"69","nom":"Rhône"},"region":{"code":"84","nom":"Auvergne-Rhône-Alpes"}},{"nom":"Chazay-d'Azergues","code":"69052","codesPostaux":["69380"],"centre":{"type":"Point","coordinates":[4.71,45.8743]},"surface":597.33,"population":4270,"departement":{"code":"69","nom":"Rhône"},"region":{"code":"84","nom":"Auvergne-Rhône-Alpes"}},{"nom":"Chénas","code":"69053","codesPostaux":["69840"],"centre":{"type":"Point","coordinates":[4.7069,46.2142]},"surface":817.37,"population":534,"departement":{"code":"69","nom":"Rhône"},"region":{"code":"84","nom":"Auvergne-Rhône-Alpes"}},{"nom":"Chénelette","code":"69054","codesPostaux":["69430"],"centre":{"type":"Point","coordinates":[4.4895,46.1707]},"surface":1103.41,"population":365,"departement":{"code":"69","nom":"Rhône"},"region":{"code":"84","nom":"Auvergne-Rhône-Alpes"}},{"nom":"Les Chères","code":"69055","codesPostaux":["69380"],"centre":{"type":"Point","coordinates":[4.7454,45.8948]},"surface":556.77,"population":1504,"departement":{"code":"69","nom":"Rhône"},"region":{"code":"84","nom":"Auvergne-Rhône-Alpes"}},{"nom":"Chessy","code":"69056","codesPostaux":["69380"],"centre":{"type":"Point","coordinates":[4.6168,45.8914]},"surface":454.51,"population":2058,"departement":{"code":"69","nom":"Rhône"},"region":{"code":"84","nom":"Auvergne-Rhône-Alpes"}},{"nom":"Chevinay","code":"69057","codesPostaux":["69210"],"centre":{"type":"Point","coordinates":[4.5988,45.7767]},"surface":877.6,"population":586,"departement":{"code":"69","nom":"Rhône"},"region":{"code":"84","nom":"Auvergne-Rhône-Alpes"}},{"nom":"Chiroubles","code":"69058","codesPostaux":["69115"],"centre":{"type":"Point","coordinates":[4.6495,46.1853]},"surface":728.85,"population":416,"departement":{"code":"69","nom":"Rhône"},"region":{"code":"84","nom":"Auvergne-Rhône-Alpes"}},{"nom":"Civrieux-d'Azergues","code":"69059","codesPostaux":["69380"],"centre":{"type":"Point","coordinates":[4.7121,45.8573]},"surface":497.11,"population":1633,"departement":{"code":"69","nom":"Rhône"},"region":{"code":"84","nom":"Auvergne-Rhône-Alpes"}},{"nom":"Claveisolles","code":"69060","codesPostaux":["69870"],"centre":{"type":"Point","coordinates":[4.5095,46.0966]},"surface":2813.4,"population":557,"departement":{"code":"69","nom":"Rhône"},"region":{"code":"84","nom":"Auvergne-Rhône-Alpes"}},{"nom":"Cogny","code":"69061","codesPostaux":["69640"],"centre":{"type":"Point","coordinates":[4.6012,45.9885]},"surface":585.64,"population":1198,"departement":{"code":"69","nom":"Rhône"},"region":{"code":"84","nom":"Auvergne-Rhône-Alpes"}},{"nom":"Coise","code":"69062","codesPostaux":["69590"],"centre":{"type":"Point","coordinates":[4.4665,45.6133]},"surface":909.84,"population":794,"departement":{"code":"69","nom":"Rhône"},"region":{"code":"84","nom":"Auvergne-Rhône-Alpes"}},{"nom":"Collonges-au-Mont-d'Or","code":"69063","codesPostaux":["69660"],"centre":{"type":"Point","coordinates":[4.8425,45.8188]},"surface":378.09,"population":4604,"departement":{"code":"69","nom":"Rhône"},"region":{"code":"84","nom":"Auvergne-Rhône-Alpes"}},{"nom":"Condrieu","code":"69064","codesPostaux":["69420"],"centre":{"type":"Point","coordinates":[4.7516,45.4748]},"surface":923.78,"population":3945,"departement":{"code":"69","nom":"Rhône"},"region":{"code":"84","nom":"Auvergne-Rhône-Alpes"}},{"nom":"Corcelles-en-Beaujolais","code":"69065","codesPostaux":["69220"],"centre":{"type":"Point","coordinates":[4.7254,46.1538]},"surface":933.9,"population":993,"departement":{"code":"69","nom":"Rhône"},"region":{"code":"84","nom":"Auvergne-Rhône-Alpes"}},{"nom":"Cours","code":"69066","codesPostaux":["69470"],"centre":{"type":"Point","coordinates":[4.3445,46.0968]},"surface":3380.36,"population":4329,"departement":{"code":"69","nom":"Rhône"},"region":{"code":"84","nom":"Auvergne-Rhône-Alpes"}},{"nom":"Courzieu","code":"69067","codesPostaux":["69690"],"centre":{"type":"Point","coordinates":[4.5695,45.7451]},"surface":2685.89,"population":1178,"departement":{"code":"69","nom":"Rhône"},"region":{"code":"84","nom":"Auvergne-Rhône-Alpes"}},{"nom":"Couzon-au-Mont-d'Or","code":"69068","codesPostaux":["69270"],"centre":{"type":"Point","coordinates":[4.8214,45.8479]},"surface":313.5,"population":2541,"departement":{"code":"69","nom":"Rhône"},"region":{"code":"84","nom":"Auvergne-Rhône-Alpes"}},{"nom":"Craponne","code":"69069","codesPostaux":["69290"],"centre":{"type":"Point","coordinates":[4.7294,45.7456]},"surface":470.9,"population":12170,"departement":{"code":"69","nom":"Rhône"},"region":{"code":"84","nom":"Auvergne-Rhône-Alpes"}},{"nom":"Cublize","code":"69070","codesPostaux":["69550"],"centre":{"type":"Point","coordinates":[4.3921,46.0244]},"surface":1566.76,"population":1357,"departement":{"code":"69","nom":"Rhône"},"region":{"code":"84","nom":"Auvergne-Rhône-Alpes"}},{"nom":"Curis-au-Mont-d'Or","code":"69071","codesPostaux":["69250"],"centre":{"type":"Point","coordinates":[4.8201,45.8682]},"surface":308.02,"population":1186,"departement":{"code":"69","nom":"Rhône"},"region":{"code":"84","nom":"Auvergne-Rhône-Alpes"}},{"nom":"Dardilly","code":"69072","codesPostaux":["69570"],"centre":{"type":"Point","coordinates":[4.7466,45.8133]},"surface":1406.98,"population":8980,"departement":{"code":"69","nom":"Rhône"},"region":{"code":"84","nom":"Auvergne-Rhône-Alpes"}},{"nom":"Denicé","code":"69074","codesPostaux":["69640"],"centre":{"type":"Point","coordinates":[4.6503,46.0051]},"surface":945.13,"population":1574,"departement":{"code":"69","nom":"Rhône"},"region":{"code":"84","nom":"Auvergne-Rhône-Alpes"}},{"nom":"Dième","code":"69075","codesPostaux":["69170"],"centre":{"type":"Point","coordinates":[4.4584,45.9615]},"surface":895.22,"population":196,"departement":{"code":"69","nom":"Rhône"},"region":{"code":"84","nom":"Auvergne-Rhône-Alpes"}},{"nom":"Dommartin","code":"69076","codesPostaux":["69380"],"centre":{"type":"Point","coordinates":[4.7122,45.8372]},"surface":723.57,"population":2607,"departement":{"code":"69","nom":"Rhône"},"region":{"code":"84","nom":"Auvergne-Rhône-Alpes"}},{"nom":"Dracé","code":"69077","codesPostaux":["69220"],"centre":{"type":"Point","coordinates":[4.773,46.154]},"surface":1488,"population":1178,"departement":{"code":"69","nom":"Rhône"},"region":{"code":"84","nom":"Auvergne-Rhône-Alpes"}},{"nom":"Duerne","code":"69078","codesPostaux":["69850"],"centre":{"type":"Point","coordinates":[4.5273,45.677]},"surface":1133.71,"population":842,"departement":{"code":"69","nom":"Rhône"},"region":{"code":"84","nom":"Auvergne-Rhône-Alpes"}},{"nom":"Échalas","code":"69080","codesPostaux":["69700"],"centre":{"type":"Point","coordinates":[4.7294,45.5501]},"surface":2099.13,"population":1940,"departement":{"code":"69","nom":"Rhône"},"region":{"code":"84","nom":"Auvergne-Rhône-Alpes"}},{"nom":"Écully","code":"69081","codesPostaux":["69130"],"centre":{"type":"Point","coordinates":[4.7737,45.7822]},"surface":848.08,"population":18019,"departement":{"code":"69","nom":"Rhône"},"region":{"code":"84","nom":"Auvergne-Rhône-Alpes"}},{"nom":"Émeringes","code":"69082","codesPostaux":["69840"],"centre":{"type":"Point","coordinates":[4.6754,46.224]},"surface":300.33,"population":278,"departement":{"code":"69","nom":"Rhône"},"region":{"code":"84","nom":"Auvergne-Rhône-Alpes"}},{"nom":"Éveux","code":"69083","codesPostaux":["69210"],"centre":{"type":"Point","coordinates":[4.6223,45.8256]},"surface":338.25,"population":1169,"departement":{"code":"69","nom":"Rhône"},"region":{"code":"84","nom":"Auvergne-Rhône-Alpes"}},{"nom":"Fleurie","code":"69084","codesPostaux":["69820"],"centre":{"type":"Point","coordinates":[4.6942,46.1953]},"surface":1394.53,"population":1351,"departement":{"code":"69","nom":"Rhône"},"region":{"code":"84","nom":"Auvergne-Rhône-Alpes"}},{"nom":"Fleurieu-sur-Saône","code":"69085","codesPostaux":["69250"],"centre":{"type":"Point","coordinates":[4.8566,45.8582]},"surface":295.38,"population":1549,"departement":{"code":"69","nom":"Rhône"},"region":{"code":"84","nom":"Auvergne-Rhône-Alpes"}},{"nom":"Fleurieux-sur-l'Arbresle","code":"69086","codesPostaux":["69210"],"centre":{"type":"Point","coordinates":[4.6484,45.8406]},"surface":954.16,"population":2299,"departement":{"code":"69","nom":"Rhône"},"region":{"code":"84","nom":"Auvergne-Rhône-Alpes"}},{"nom":"Fontaines-Saint-Martin","code":"69087","codesPostaux":["69270"],"centre":{"type":"Point","coordinates":[4.8521,45.8445]},"surface":272.6,"population":3070,"departement":{"code":"69","nom":"Rhône"},"region":{"code":"84","nom":"Auvergne-Rhône-Alpes"}},{"nom":"Fontaines-sur-Saône","code":"69088","codesPostaux":["69270"],"centre":{"type":"Point","coordinates":[4.8537,45.8268]},"surface":233.59,"population":7005,"departement":{"code":"69","nom":"Rhône"},"region":{"code":"84","nom":"Auvergne-Rhône-Alpes"}},{"nom":"Francheville","code":"69089","codesPostaux":["69340"],"centre":{"type":"Point","coordinates":[4.7537,45.7386]},"surface":824.84,"population":15664,"departement":{"code":"69","nom":"Rhône"},"region":{"code":"84","nom":"Auvergne-Rhône-Alpes"}},{"nom":"Frontenas","code":"69090","codesPostaux":["69620"],"centre":{"type":"Point","coordinates":[4.632,45.9186]},"surface":348.85,"population":905,"departement":{"code":"69","nom":"Rhône"},"region":{"code":"84","nom":"Auvergne-Rhône-Alpes"}},{"nom":"Givors","code":"69091","codesPostaux":["69700"],"centre":{"type":"Point","coordinates":[4.7561,45.5845]},"surface":1745.26,"population":20943,"departement":{"code":"69","nom":"Rhône"},"region":{"code":"84","nom":"Auvergne-Rhône-Alpes"}},{"nom":"Gleizé","code":"69092","codesPostaux":["69400"],"centre":{"type":"Point","coordinates":[4.6883,45.9915]},"surface":1052.66,"population":7824,"departement":{"code":"69","nom":"Rhône"},"region":{"code":"84","nom":"Auvergne-Rhône-Alpes"}},{"nom":"Grandris","code":"69093","codesPostaux":["69870"],"centre":{"type":"Point","coordinates":[4.4599,46.034]},"surface":1514.97,"population":1212,"departement":{"code":"69","nom":"Rhône"},"region":{"code":"84","nom":"Auvergne-Rhône-Alpes"}},{"nom":"Grézieu-la-Varenne","code":"69094","codesPostaux":["69290"],"centre":{"type":"Point","coordinates":[4.6799,45.7469]},"surface":749.31,"population":6284,"departement":{"code":"69","nom":"Rhône"},"region":{"code":"84","nom":"Auvergne-Rhône-Alpes"}},{"nom":"Grézieu-le-Marché","code":"69095","codesPostaux":["69610"],"centre":{"type":"Point","coordinates":[4.4243,45.661]},"surface":1152.38,"population":831,"departement":{"code":"69","nom":"Rhône"},"region":{"code":"84","nom":"Auvergne-Rhône-Alpes"}},{"nom":"Grigny-sur-Rhône","code":"69096","codesPostaux":["69520"],"centre":{"type":"Point","coordinates":[4.7858,45.6104]},"surface":589.88,"population":9941,"departement":{"code":"69","nom":"Rhône"},"region":{"code":"84","nom":"Auvergne-Rhône-Alpes"}},{"nom":"Les Haies","code":"69097","codesPostaux":["69420"],"centre":{"type":"Point","coordinates":[4.7401,45.5122]},"surface":1591.02,"population":739,"departement":{"code":"69","nom":"Rhône"},"region":{"code":"84","nom":"Auvergne-Rhône-Alpes"}},{"nom":"Les Halles","code":"69098","codesPostaux":["69610"],"centre":{"type":"Point","coordinates":[4.4345,45.7175]},"surface":309.64,"population":481,"departement":{"code":"69","nom":"Rhône"},"region":{"code":"84","nom":"Auvergne-Rhône-Alpes"}},{"nom":"Haute-Rivoire","code":"69099","codesPostaux":["69610"],"centre":{"type":"Point","coordinates":[4.4053,45.7172]},"surface":2063.51,"population":1425,"departement":{"code":"69","nom":"Rhône"},"region":{"code":"84","nom":"Auvergne-Rhône-Alpes"}},{"nom":"Irigny","code":"69100","codesPostaux":["69540"],"centre":{"type":"Point","coordinates":[4.8143,45.6747]},"surface":891,"population":8909,"departement":{"code":"69","nom":"Rhône"},"region":{"code":"84","nom":"Auvergne-Rhône-Alpes"}},{"nom":"Joux","code":"69102","codesPostaux":["69170"],"centre":{"type":"Point","coordinates":[4.368,45.8895]},"surface":2504.87,"population":753,"departement":{"code":"69","nom":"Rhône"},"region":{"code":"84","nom":"Auvergne-Rhône-Alpes"}},{"nom":"Juliénas","code":"69103","codesPostaux":["69840"],"centre":{"type":"Point","coordinates":[4.7052,46.2473]},"surface":760.43,"population":883,"departement":{"code":"69","nom":"Rhône"},"region":{"code":"84","nom":"Auvergne-Rhône-Alpes"}},{"nom":"Jullié","code":"69104","codesPostaux":["69840"],"centre":{"type":"Point","coordinates":[4.6632,46.244]},"surface":981.18,"population":496,"departement":{"code":"69","nom":"Rhône"},"region":{"code":"84","nom":"Auvergne-Rhône-Alpes"}},{"nom":"Lacenas","code":"69105","codesPostaux":["69640"],"centre":{"type":"Point","coordinates":[4.6447,45.9867]},"surface":333.38,"population":1029,"departement":{"code":"69","nom":"Rhône"},"region":{"code":"84","nom":"Auvergne-Rhône-Alpes"}},{"nom":"Lachassagne","code":"69106","codesPostaux":["69480"],"centre":{"type":"Point","coordinates":[4.6779,45.9264]},"surface":353.51,"population":1334,"departement":{"code":"69","nom":"Rhône"},"region":{"code":"84","nom":"Auvergne-Rhône-Alpes"}},{"nom":"Lamure-sur-Azergues","code":"69107","codesPostaux":["69870"],"centre":{"type":"Point","coordinates":[4.5088,46.053]},"surface":1551.9,"population":1051,"departement":{"code":"69","nom":"Rhône"},"region":{"code":"84","nom":"Auvergne-Rhône-Alpes"}},{"nom":"Lancié","code":"69108","codesPostaux":["69220"],"centre":{"type":"Point","coordinates":[4.7295,46.1739]},"surface":659.15,"population":1082,"departement":{"code":"69","nom":"Rhône"},"region":{"code":"84","nom":"Auvergne-Rhône-Alpes"}},{"nom":"Lantignié","code":"69109","codesPostaux":["69430"],"centre":{"type":"Point","coordinates":[4.6174,46.1584]},"surface":743.28,"population":851,"departement":{"code":"69","nom":"Rhône"},"region":{"code":"84","nom":"Auvergne-Rhône-Alpes"}},{"nom":"Larajasse","code":"69110","codesPostaux":["69590"],"centre":{"type":"Point","coordinates":[4.5128,45.6073]},"surface":3354.23,"population":1820,"departement":{"code":"69","nom":"Rhône"},"region":{"code":"84","nom":"Auvergne-Rhône-Alpes"}},{"nom":"Légny","code":"69111","codesPostaux":["69620"],"centre":{"type":"Point","coordinates":[4.5742,45.905]},"surface":407.81,"population":699,"departement":{"code":"69","nom":"Rhône"},"region":{"code":"84","nom":"Auvergne-Rhône-Alpes"}},{"nom":"Lentilly","code":"69112","codesPostaux":["69210"],"centre":{"type":"Point","coordinates":[4.6691,45.8166]},"surface":1865.74,"population":6541,"departement":{"code":"69","nom":"Rhône"},"region":{"code":"84","nom":"Auvergne-Rhône-Alpes"}},{"nom":"Létra","code":"69113","codesPostaux":["69620"],"centre":{"type":"Point","coordinates":[4.518,45.9767]},"surface":1470.01,"population":907,"departement":{"code":"69","nom":"Rhône"},"region":{"code":"84","nom":"Auvergne-Rhône-Alpes"}},{"nom":"Porte des Pierres Dorées","code":"69114","codesPostaux":["69400","69640"],"centre":{"type":"Point","coordinates":[4.6509,45.9628]},"surface":1352.23,"population":4079,"departement":{"code":"69","nom":"Rhône"},"region":{"code":"84","nom":"Auvergne-Rhône-Alpes"}},{"nom":"Limas","code":"69115","codesPostaux":["69400"],"centre":{"type":"Point","coordinates":[4.7196,45.9717]},"surface":556.86,"population":4749,"departement":{"code":"69","nom":"Rhône"},"region":{"code":"84","nom":"Auvergne-Rhône-Alpes"}},{"nom":"Limonest","code":"69116","codesPostaux":["69760"],"centre":{"type":"Point","coordinates":[4.7682,45.8267]},"surface":910.05,"population":3933,"departement":{"code":"69","nom":"Rhône"},"region":{"code":"84","nom":"Auvergne-Rhône-Alpes"}},{"nom":"Lissieu","code":"69117","codesPostaux":["69380"],"centre":{"type":"Point","coordinates":[4.7496,45.8582]},"surface":573.6,"population":3193,"departement":{"code":"69","nom":"Rhône"},"region":{"code":"84","nom":"Auvergne-Rhône-Alpes"}},{"nom":"Loire-sur-Rhône","code":"69118","codesPostaux":["69700"],"centre":{"type":"Point","coordinates":[4.7847,45.5482]},"surface":1650.62,"population":2736,"departement":{"code":"69","nom":"Rhône"},"region":{"code":"84","nom":"Auvergne-Rhône-Alpes"}},{"nom":"Longes","code":"69119","codesPostaux":["69420"],"centre":{"type":"Point","coordinates":[4.6861,45.5083]},"surface":2403.29,"population":951,"departement":{"code":"69","nom":"Rhône"},"region":{"code":"84","nom":"Auvergne-Rhône-Alpes"}},{"nom":"Longessaigne","code":"69120","codesPostaux":["69770"],"centre":{"type":"Point","coordinates":[4.4277,45.7833]},"surface":1196.62,"population":592,"departement":{"code":"69","nom":"Rhône"},"region":{"code":"84","nom":"Auvergne-Rhône-Alpes"}},{"nom":"Lozanne","code":"69121","codesPostaux":["69380"],"centre":{"type":"Point","coordinates":[4.6846,45.853]},"surface":552.92,"population":3182,"departement":{"code":"69","nom":"Rhône"},"region":{"code":"84","nom":"Auvergne-Rhône-Alpes"}},{"nom":"Lucenay","code":"69122","codesPostaux":["69480"],"centre":{"type":"Point","coordinates":[4.7095,45.9138]},"surface":646.66,"population":2068,"departement":{"code":"69","nom":"Rhône"},"region":{"code":"84","nom":"Auvergne-Rhône-Alpes"}},{"nom":"Lyon","code":"69123","codesPostaux":["69001","69002","69003","69004","69005","69006","69007","69008","69009"],"centre":{"type":"Point","coordinates":[4.8351,45.758]},"surface":4797.43,"population":520774,"departement":{"code":"69","nom":"Rhône"},"region":{"code":"84","nom":"Auvergne-Rhône-Alpes"}},{"nom":"Marchampt","code":"69124","codesPostaux":["69430"],"centre":{"type":"Point","coordinates":[4.5614,46.1086]},"surface":1777.45,"population":452,"departement":{"code":"69","nom":"Rhône"},"region":{"code":"84","nom":"Auvergne-Rhône-Alpes"}},{"nom":"Marcilly-d'Azergues","code":"69125","codesPostaux":["69380"],"centre":{"type":"Point","coordinates":[4.7301,45.8685]},"surface":423.79,"population":1004,"departement":{"code":"69","nom":"Rhône"},"region":{"code":"84","nom":"Auvergne-Rhône-Alpes"}},{"nom":"Marcy","code":"69126","codesPostaux":["69480"],"centre":{"type":"Point","coordinates":[4.6755,45.9141]},"surface":333.57,"population":879,"departement":{"code":"69","nom":"Rhône"},"region":{"code":"84","nom":"Auvergne-Rhône-Alpes"}},{"nom":"Marcy-l'Étoile","code":"69127","codesPostaux":["69280"],"centre":{"type":"Point","coordinates":[4.7129,45.7855]},"surface":536.55,"population":3711,"departement":{"code":"69","nom":"Rhône"},"region":{"code":"84","nom":"Auvergne-Rhône-Alpes"}},{"nom":"Meaux-la-Montagne","code":"69130","codesPostaux":["69550"],"centre":{"type":"Point","coordinates":[4.4219,46.0444]},"surface":918.14,"population":226,"departement":{"code":"69","nom":"Rhône"},"region":{"code":"84","nom":"Auvergne-Rhône-Alpes"}},{"nom":"Messimy","code":"69131","codesPostaux":["69510"],"centre":{"type":"Point","coordinates":[4.6748,45.6978]},"surface":1110.33,"population":3565,"departement":{"code":"69","nom":"Rhône"},"region":{"code":"84","nom":"Auvergne-Rhône-Alpes"}},{"nom":"Meys","code":"69132","codesPostaux":["69610"],"centre":{"type":"Point","coordinates":[4.4071,45.6813]},"surface":1476.43,"population":855,"departement":{"code":"69","nom":"Rhône"},"region":{"code":"84","nom":"Auvergne-Rhône-Alpes"}},{"nom":"Millery","code":"69133","codesPostaux":["69390"],"centre":{"type":"Point","coordinates":[4.781,45.6307]},"surface":871.54,"population":4323,"departement":{"code":"69","nom":"Rhône"},"region":{"code":"84","nom":"Auvergne-Rhône-Alpes"}},{"nom":"Moiré","code":"69134","codesPostaux":["69620"],"centre":{"type":"Point","coordinates":[4.6034,45.9262]},"surface":204.26,"population":243,"departement":{"code":"69","nom":"Rhône"},"region":{"code":"84","nom":"Auvergne-Rhône-Alpes"}},{"nom":"Deux-Grosnes","code":"69135","codesPostaux":["69430","69860"],"centre":{"type":"Point","coordinates":[4.5631,46.2379]},"surface":8363.72,"population":1923,"departement":{"code":"69","nom":"Rhône"},"region":{"code":"84","nom":"Auvergne-Rhône-Alpes"}},{"nom":"Montagny","code":"69136","codesPostaux":["69700"],"centre":{"type":"Point","coordinates":[4.752,45.6296]},"surface":822.39,"population":3212,"departement":{"code":"69","nom":"Rhône"},"region":{"code":"84","nom":"Auvergne-Rhône-Alpes"}},{"nom":"Montmelas-Saint-Sorlin","code":"69137","codesPostaux":["69640"],"centre":{"type":"Point","coordinates":[4.6035,46.0201]},"surface":419.83,"population":530,"departement":{"code":"69","nom":"Rhône"},"region":{"code":"84","nom":"Auvergne-Rhône-Alpes"}},{"nom":"Montromant","code":"69138","codesPostaux":["69610"],"centre":{"type":"Point","coordinates":[4.541,45.7111]},"surface":1113.45,"population":447,"departement":{"code":"69","nom":"Rhône"},"region":{"code":"84","nom":"Auvergne-Rhône-Alpes"}},{"nom":"Montrottier","code":"69139","codesPostaux":["69770"],"centre":{"type":"Point","coordinates":[4.4654,45.8014]},"surface":2305.83,"population":1393,"departement":{"code":"69","nom":"Rhône"},"region":{"code":"84","nom":"Auvergne-Rhône-Alpes"}},{"nom":"Morancé","code":"69140","codesPostaux":["69480"],"centre":{"type":"Point","coordinates":[4.7016,45.8938]},"surface":929.07,"population":2267,"departement":{"code":"69","nom":"Rhône"},"region":{"code":"84","nom":"Auvergne-Rhône-Alpes"}},{"nom":"Mornant","code":"69141","codesPostaux":["69440"],"centre":{"type":"Point","coordinates":[4.6747,45.6162]},"surface":1578.61,"population":6261,"departement":{"code":"69","nom":"Rhône"},"region":{"code":"84","nom":"Auvergne-Rhône-Alpes"}},{"nom":"La Mulatière","code":"69142","codesPostaux":["69350"],"centre":{"type":"Point","coordinates":[4.8118,45.7338]},"surface":184.31,"population":6554,"departement":{"code":"69","nom":"Rhône"},"region":{"code":"84","nom":"Auvergne-Rhône-Alpes"}},{"nom":"Neuville-sur-Saône","code":"69143","codesPostaux":["69250"],"centre":{"type":"Point","coordinates":[4.8404,45.8821]},"surface":544.65,"population":7807,"departement":{"code":"69","nom":"Rhône"},"region":{"code":"84","nom":"Auvergne-Rhône-Alpes"}},{"nom":"Odenas","code":"69145","codesPostaux":["69460"],"centre":{"type":"Point","coordinates":[4.6417,46.0935]},"surface":908.34,"population":943,"departement":{"code":"69","nom":"Rhône"},"region":{"code":"84","nom":"Auvergne-Rhône-Alpes"}},{"nom":"Orliénas","code":"69148","codesPostaux":["69530"],"centre":{"type":"Point","coordinates":[4.7207,45.6609]},"surface":1040.26,"population":2633,"departement":{"code":"69","nom":"Rhône"},"region":{"code":"84","nom":"Auvergne-Rhône-Alpes"}},{"nom":"Oullins-Pierre-Bénite","code":"69149","codesPostaux":["69310","69600"],"centre":{"type":"Point","coordinates":[4.8112,45.708]},"surface":884.69,"population":37928,"departement":{"code":"69","nom":"Rhône"},"region":{"code":"84","nom":"Auvergne-Rhône-Alpes"}},{"nom":"Le Perréon","code":"69151","codesPostaux":["69460"],"centre":{"type":"Point","coordinates":[4.587,46.0691]},"surface":1451.42,"population":1496,"departement":{"code":"69","nom":"Rhône"},"region":{"code":"84","nom":"Auvergne-Rhône-Alpes"}},{"nom":"Poleymieux-au-Mont-d'Or","code":"69153","codesPostaux":["69250"],"centre":{"type":"Point","coordinates":[4.7927,45.856]},"surface":634.52,"population":1394,"departement":{"code":"69","nom":"Rhône"},"region":{"code":"84","nom":"Auvergne-Rhône-Alpes"}},{"nom":"Pollionnay","code":"69154","codesPostaux":["69290"],"centre":{"type":"Point","coordinates":[4.6585,45.7707]},"surface":1574.21,"population":2966,"departement":{"code":"69","nom":"Rhône"},"region":{"code":"84","nom":"Auvergne-Rhône-Alpes"}},{"nom":"Pomeys","code":"69155","codesPostaux":["69590"],"centre":{"type":"Point","coordinates":[4.4452,45.6466]},"surface":1321.09,"population":1133,"departement":{"code":"69","nom":"Rhône"},"region":{"code":"84","nom":"Auvergne-Rhône-Alpes"}},{"nom":"Pommiers","code":"69156","codesPostaux":["69480"],"centre":{"type":"Point","coordinates":[4.6928,45.9581]},"surface":783.78,"population":2629,"departement":{"code":"69","nom":"Rhône"},"region":{"code":"84","nom":"Auvergne-Rhône-Alpes"}},{"nom":"Vindry-sur-Turdine","code":"69157","codesPostaux":["69490"],"centre":{"type":"Point","coordinates":[4.4948,45.8886]},"surface":2376.69,"population":5283,"departement":{"code":"69","nom":"Rhône"},"region":{"code":"84","nom":"Auvergne-Rhône-Alpes"}},{"nom":"Poule-les-Écharmeaux","code":"69160","codesPostaux":["69870"],"centre":{"type":"Point","coordinates":[4.4698,46.1458]},"surface":3128.49,"population":1027,"departement":{"code":"69","nom":"Rhône"},"region":{"code":"84","nom":"Auvergne-Rhône-Alpes"}},{"nom":"Propières","code":"69161","codesPostaux":["69790"],"centre":{"type":"Point","coordinates":[4.4503,46.1909]},"surface":1627.78,"population":477,"departement":{"code":"69","nom":"Rhône"},"region":{"code":"84","nom":"Auvergne-Rhône-Alpes"}},{"nom":"Quincié-en-Beaujolais","code":"69162","codesPostaux":["69430"],"centre":{"type":"Point","coordinates":[4.614,46.1118]},"surface":2202.28,"population":1382,"departement":{"code":"69","nom":"Rhône"},"region":{"code":"84","nom":"Auvergne-Rhône-Alpes"}},{"nom":"Quincieux","code":"69163","codesPostaux":["69650"],"centre":{"type":"Point","coordinates":[4.7724,45.9168]},"surface":1797.69,"population":3620,"departement":{"code":"69","nom":"Rhône"},"region":{"code":"84","nom":"Auvergne-Rhône-Alpes"}},{"nom":"Ranchal","code":"69164","codesPostaux":["69470"],"centre":{"type":"Point","coordinates":[4.3974,46.125]},"surface":1515.2,"population":311,"departement":{"code":"69","nom":"Rhône"},"region":{"code":"84","nom":"Auvergne-Rhône-Alpes"}},{"nom":"Régnié-Durette","code":"69165","codesPostaux":["69430"],"centre":{"type":"Point","coordinates":[4.6449,46.1531]},"surface":1173.15,"population":1159,"departement":{"code":"69","nom":"Rhône"},"region":{"code":"84","nom":"Auvergne-Rhône-Alpes"}},{"nom":"Riverie","code":"69166","codesPostaux":["69440"],"centre":{"type":"Point","coordinates":[4.5883,45.5985]},"surface":40.74,"population":307,"departement":{"code":"69","nom":"Rhône"},"region":{"code":"84","nom":"Auvergne-Rhône-Alpes"}},{"nom":"Rivolet","code":"69167","codesPostaux":["69640"],"centre":{"type":"Point","coordinates":[4.5829,46.0084]},"surface":1614.29,"population":588,"departement":{"code":"69","nom":"Rhône"},"region":{"code":"84","nom":"Auvergne-Rhône-Alpes"}},{"nom":"Rochetaillée-sur-Saône","code":"69168","codesPostaux":["69270"],"centre":{"type":"Point","coordinates":[4.8396,45.8427]},"surface":138.37,"population":1546,"departement":{"code":"69","nom":"Rhône"},"region":{"code":"84","nom":"Auvergne-Rhône-Alpes"}},{"nom":"Ronno","code":"69169","codesPostaux":["69550"],"centre":{"type":"Point","coordinates":[4.3902,45.9845]},"surface":2297.45,"population":650,"departement":{"code":"69","nom":"Rhône"},"region":{"code":"84","nom":"Auvergne-Rhône-Alpes"}},{"nom":"Rontalon","code":"69170","codesPostaux":["69510"],"centre":{"type":"Point","coordinates":[4.6204,45.6554]},"surface":1263.76,"population":1167,"departement":{"code":"69","nom":"Rhône"},"region":{"code":"84","nom":"Auvergne-Rhône-Alpes"}},{"nom":"Sain-Bel","code":"69171","codesPostaux":["69210"],"centre":{"type":"Point","coordinates":[4.6017,45.8115]},"surface":381.65,"population":2568,"departement":{"code":"69","nom":"Rhône"},"region":{"code":"84","nom":"Auvergne-Rhône-Alpes"}},{"nom":"Salles-Arbuissonnas-en-Beaujolais","code":"69172","codesPostaux":["69460"],"centre":{"type":"Point","coordinates":[4.6317,46.0449]},"surface":436.77,"population":789,"departement":{"code":"69","nom":"Rhône"},"region":{"code":"84","nom":"Auvergne-Rhône-Alpes"}},{"nom":"Sarcey","code":"69173","codesPostaux":["69490"],"centre":{"type":"Point","coordinates":[4.5572,45.8839]},"surface":1005.31,"population":979,"departement":{"code":"69","nom":"Rhône"},"region":{"code":"84","nom":"Auvergne-Rhône-Alpes"}},{"nom":"Les Sauvages","code":"69174","codesPostaux":["69170"],"centre":{"type":"Point","coordinates":[4.3695,45.9245]},"surface":1251.79,"population":621,"departement":{"code":"69","nom":"Rhône"},"region":{"code":"84","nom":"Auvergne-Rhône-Alpes"}},{"nom":"Savigny","code":"69175","codesPostaux":["69210"],"centre":{"type":"Point","coordinates":[4.5599,45.8174]},"surface":2140.81,"population":1970,"departement":{"code":"69","nom":"Rhône"},"region":{"code":"84","nom":"Auvergne-Rhône-Alpes"}},{"nom":"Soucieu-en-Jarrest","code":"69176","codesPostaux":["69510"],"centre":{"type":"Point","coordinates":[4.6907,45.677]},"surface":1432.03,"population":4652,"departement":{"code":"69","nom":"Rhône"},"region":{"code":"84","nom":"Auvergne-Rhône-Alpes"}},{"nom":"Sourcieux-les-Mines","code":"69177","codesPostaux":["69210"],"centre":{"type":"Point","coordinates":[4.6311,45.7979]},"surface":994.72,"population":2098,"departement":{"code":"69","nom":"Rhône"},"region":{"code":"84","nom":"Auvergne-Rhône-Alpes"}},{"nom":"Souzy","code":"69178","codesPostaux":["69610"],"centre":{"type":"Point","coordinates":[4.4505,45.7027]},"surface":510.71,"population":767,"departement":{"code":"69","nom":"Rhône"},"region":{"code":"84","nom":"Auvergne-Rhône-Alpes"}},{"nom":"Beauvallon","code":"69179","codesPostaux":["69700"],"centre":{"type":"Point","coordinates":[4.7041,45.5898]},"surface":2460.65,"population":4198,"departement":{"code":"69","nom":"Rhône"},"region":{"code":"84","nom":"Auvergne-Rhône-Alpes"}},{"nom":"Saint-André-la-Côte","code":"69180","codesPostaux":["69440"],"centre":{"type":"Point","coordinates":[4.5935,45.6313]},"surface":488.27,"population":274,"departement":{"code":"69","nom":"Rhône"},"region":{"code":"84","nom":"Auvergne-Rhône-Alpes"}},{"nom":"Saint-Appolinaire","code":"69181","codesPostaux":["69170"],"centre":{"type":"Point","coordinates":[4.4275,45.9772]},"surface":572.53,"population":235,"departement":{"code":"69","nom":"Rhône"},"region":{"code":"84","nom":"Auvergne-Rhône-Alpes"}},{"nom":"Saint-Bonnet-des-Bruyères","code":"69182","codesPostaux":["69790"],"centre":{"type":"Point","coordinates":[4.4721,46.2669]},"surface":2125.79,"population":372,"departement":{"code":"69","nom":"Rhône"},"region":{"code":"84","nom":"Auvergne-Rhône-Alpes"}},{"nom":"Saint-Bonnet-le-Troncy","code":"69183","codesPostaux":["69870"],"centre":{"type":"Point","coordinates":[4.4172,46.0781]},"surface":1550.47,"population":311,"departement":{"code":"69","nom":"Rhône"},"region":{"code":"84","nom":"Auvergne-Rhône-Alpes"}},{"nom":"Sainte-Catherine","code":"69184","codesPostaux":["69440"],"centre":{"type":"Point","coordinates":[4.5734,45.6036]},"surface":1372.93,"population":981,"departement":{"code":"69","nom":"Rhône"},"region":{"code":"84","nom":"Auvergne-Rhône-Alpes"}},{"nom":"Saint-Clément-de-Vers","code":"69186","codesPostaux":["69790"],"centre":{"type":"Point","coordinates":[4.4157,46.2272]},"surface":894.33,"population":205,"departement":{"code":"69","nom":"Rhône"},"region":{"code":"84","nom":"Auvergne-Rhône-Alpes"}},{"nom":"Saint-Clément-les-Places","code":"69187","codesPostaux":["69930"],"centre":{"type":"Point","coordinates":[4.4207,45.7561]},"surface":1240.93,"population":669,"departement":{"code":"69","nom":"Rhône"},"region":{"code":"84","nom":"Auvergne-Rhône-Alpes"}},{"nom":"Saint-Clément-sur-Valsonne","code":"69188","codesPostaux":["69170"],"centre":{"type":"Point","coordinates":[4.4585,45.926]},"surface":1458.46,"population":904,"departement":{"code":"69","nom":"Rhône"},"region":{"code":"84","nom":"Auvergne-Rhône-Alpes"}},{"nom":"Sainte-Colombe","code":"69189","codesPostaux":["69560"],"centre":{"type":"Point","coordinates":[4.8582,45.5247]},"surface":160.4,"population":1994,"departement":{"code":"69","nom":"Rhône"},"region":{"code":"84","nom":"Auvergne-Rhône-Alpes"}},{"nom":"Sainte-Consorce","code":"69190","codesPostaux":["69280"],"centre":{"type":"Point","coordinates":[4.6959,45.7765]},"surface":589.71,"population":2109,"departement":{"code":"69","nom":"Rhône"},"region":{"code":"84","nom":"Auvergne-Rhône-Alpes"}},{"nom":"Saint-Cyr-au-Mont-d'Or","code":"69191","codesPostaux":["69450"],"centre":{"type":"Point","coordinates":[4.8162,45.8216]},"surface":726.76,"population":6113,"departement":{"code":"69","nom":"Rhône"},"region":{"code":"84","nom":"Auvergne-Rhône-Alpes"}},{"nom":"Saint-Cyr-le-Chatoux","code":"69192","codesPostaux":["69870"],"centre":{"type":"Point","coordinates":[4.5382,46.0335]},"surface":623.61,"population":156,"departement":{"code":"69","nom":"Rhône"},"region":{"code":"84","nom":"Auvergne-Rhône-Alpes"}},{"nom":"Saint-Cyr-sur-le-Rhône","code":"69193","codesPostaux":["69560"],"centre":{"type":"Point","coordinates":[4.8242,45.5154]},"surface":606.36,"population":1273,"departement":{"code":"69","nom":"Rhône"},"region":{"code":"84","nom":"Auvergne-Rhône-Alpes"}},{"nom":"Saint-Didier-au-Mont-d'Or","code":"69194","codesPostaux":["69370"],"centre":{"type":"Point","coordinates":[4.8003,45.8159]},"surface":834.65,"population":7405,"departement":{"code":"69","nom":"Rhône"},"region":{"code":"84","nom":"Auvergne-Rhône-Alpes"}},{"nom":"Saint-Didier-sur-Beaujeu","code":"69196","codesPostaux":["69430"],"centre":{"type":"Point","coordinates":[4.5341,46.1453]},"surface":1452.57,"population":603,"departement":{"code":"69","nom":"Rhône"},"region":{"code":"84","nom":"Auvergne-Rhône-Alpes"}},{"nom":"Saint-Étienne-des-Oullières","code":"69197","codesPostaux":["69460"],"centre":{"type":"Point","coordinates":[4.6557,46.0645]},"surface":965.77,"population":2236,"departement":{"code":"69","nom":"Rhône"},"region":{"code":"84","nom":"Auvergne-Rhône-Alpes"}},{"nom":"Saint-Étienne-la-Varenne","code":"69198","codesPostaux":["69460"],"centre":{"type":"Point","coordinates":[4.6188,46.0765]},"surface":649.69,"population":783,"departement":{"code":"69","nom":"Rhône"},"region":{"code":"84","nom":"Auvergne-Rhône-Alpes"}},{"nom":"Saint-Fons","code":"69199","codesPostaux":["69190"],"centre":{"type":"Point","coordinates":[4.8514,45.6997]},"surface":603.24,"population":19549,"departement":{"code":"69","nom":"Rhône"},"region":{"code":"84","nom":"Auvergne-Rhône-Alpes"}},{"nom":"Saint-Forgeux","code":"69200","codesPostaux":["69490"],"centre":{"type":"Point","coordinates":[4.4583,45.8522]},"surface":2229.37,"population":1538,"departement":{"code":"69","nom":"Rhône"},"region":{"code":"84","nom":"Auvergne-Rhône-Alpes"}},{"nom":"Sainte-Foy-l'Argentière","code":"69201","codesPostaux":["69610"],"centre":{"type":"Point","coordinates":[4.4705,45.7044]},"surface":156.56,"population":1292,"departement":{"code":"69","nom":"Rhône"},"region":{"code":"84","nom":"Auvergne-Rhône-Alpes"}},{"nom":"Sainte-Foy-lès-Lyon","code":"69202","codesPostaux":["69110"],"centre":{"type":"Point","coordinates":[4.7926,45.7362]},"surface":684.11,"population":21893,"departement":{"code":"69","nom":"Rhône"},"region":{"code":"84","nom":"Auvergne-Rhône-Alpes"}},{"nom":"Saint-Genis-l'Argentière","code":"69203","codesPostaux":["69610"],"centre":{"type":"Point","coordinates":[4.4926,45.7145]},"surface":1090.33,"population":986,"departement":{"code":"69","nom":"Rhône"},"region":{"code":"84","nom":"Auvergne-Rhône-Alpes"}},{"nom":"Saint-Genis-Laval","code":"69204","codesPostaux":["69230"],"centre":{"type":"Point","coordinates":[4.7929,45.6922]},"surface":1291.47,"population":21329,"departement":{"code":"69","nom":"Rhône"},"region":{"code":"84","nom":"Auvergne-Rhône-Alpes"}},{"nom":"Saint-Genis-les-Ollières","code":"69205","codesPostaux":["69290"],"centre":{"type":"Point","coordinates":[4.7248,45.7614]},"surface":376.92,"population":5370,"departement":{"code":"69","nom":"Rhône"},"region":{"code":"84","nom":"Auvergne-Rhône-Alpes"}},{"nom":"Saint-Georges-de-Reneins","code":"69206","codesPostaux":["69830"],"centre":{"type":"Point","coordinates":[4.7164,46.0587]},"surface":2737.6,"population":4533,"departement":{"code":"69","nom":"Rhône"},"region":{"code":"84","nom":"Auvergne-Rhône-Alpes"}},{"nom":"Saint-Germain-au-Mont-d'Or","code":"69207","codesPostaux":["69650"],"centre":{"type":"Point","coordinates":[4.8036,45.8842]},"surface":544.3,"population":3037,"departement":{"code":"69","nom":"Rhône"},"region":{"code":"84","nom":"Auvergne-Rhône-Alpes"}},{"nom":"Saint-Germain-Nuelles","code":"69208","codesPostaux":["69210"],"centre":{"type":"Point","coordinates":[4.6167,45.8604]},"surface":864.97,"population":2252,"departement":{"code":"69","nom":"Rhône"},"region":{"code":"84","nom":"Auvergne-Rhône-Alpes"}},{"nom":"Saint-Igny-de-Vers","code":"69209","codesPostaux":["69790"],"centre":{"type":"Point","coordinates":[4.4381,46.2368]},"surface":2720.97,"population":581,"departement":{"code":"69","nom":"Rhône"},"region":{"code":"84","nom":"Auvergne-Rhône-Alpes"}},{"nom":"Saint-Jean-des-Vignes","code":"69212","codesPostaux":["69380"],"centre":{"type":"Point","coordinates":[4.683,45.8746]},"surface":259.31,"population":472,"departement":{"code":"69","nom":"Rhône"},"region":{"code":"84","nom":"Auvergne-Rhône-Alpes"}},{"nom":"Saint-Jean-la-Bussière","code":"69214","codesPostaux":["69550"],"centre":{"type":"Point","coordinates":[4.3341,46.0038]},"surface":1563.62,"population":1175,"departement":{"code":"69","nom":"Rhône"},"region":{"code":"84","nom":"Auvergne-Rhône-Alpes"}},{"nom":"Saint-Julien","code":"69215","codesPostaux":["69640"],"centre":{"type":"Point","coordinates":[4.648,46.0252]},"surface":691.57,"population":936,"departement":{"code":"69","nom":"Rhône"},"region":{"code":"84","nom":"Auvergne-Rhône-Alpes"}},{"nom":"Saint-Julien-sur-Bibost","code":"69216","codesPostaux":["69690"],"centre":{"type":"Point","coordinates":[4.5087,45.7984]},"surface":1332.83,"population":605,"departement":{"code":"69","nom":"Rhône"},"region":{"code":"84","nom":"Auvergne-Rhône-Alpes"}},{"nom":"Saint-Just-d'Avray","code":"69217","codesPostaux":["69870"],"centre":{"type":"Point","coordinates":[4.4576,45.9994]},"surface":1759.12,"population":743,"departement":{"code":"69","nom":"Rhône"},"region":{"code":"84","nom":"Auvergne-Rhône-Alpes"}},{"nom":"Saint-Lager","code":"69218","codesPostaux":["69220"],"centre":{"type":"Point","coordinates":[4.6728,46.1129]},"surface":774.33,"population":1051,"departement":{"code":"69","nom":"Rhône"},"region":{"code":"84","nom":"Auvergne-Rhône-Alpes"}},{"nom":"Saint-Laurent-d'Agny","code":"69219","codesPostaux":["69440"],"centre":{"type":"Point","coordinates":[4.6828,45.6406]},"surface":1064.63,"population":2120,"departement":{"code":"69","nom":"Rhône"},"region":{"code":"84","nom":"Auvergne-Rhône-Alpes"}},{"nom":"Saint-Laurent-de-Chamousset","code":"69220","codesPostaux":["69930"],"centre":{"type":"Point","coordinates":[4.4688,45.7402]},"surface":1733.85,"population":1950,"departement":{"code":"69","nom":"Rhône"},"region":{"code":"84","nom":"Auvergne-Rhône-Alpes"}},{"nom":"Saint-Marcel-l'Éclairé","code":"69225","codesPostaux":["69170"],"centre":{"type":"Point","coordinates":[4.4279,45.8712]},"surface":1185.87,"population":568,"departement":{"code":"69","nom":"Rhône"},"region":{"code":"84","nom":"Auvergne-Rhône-Alpes"}},{"nom":"Saint-Martin-en-Haut","code":"69227","codesPostaux":["69850"],"centre":{"type":"Point","coordinates":[4.5561,45.6583]},"surface":3895.11,"population":3917,"departement":{"code":"69","nom":"Rhône"},"region":{"code":"84","nom":"Auvergne-Rhône-Alpes"}},{"nom":"Chabanière","code":"69228","codesPostaux":["69440"],"centre":{"type":"Point","coordinates":[4.6187,45.5853]},"surface":3489.79,"population":4274,"departement":{"code":"69","nom":"Rhône"},"region":{"code":"84","nom":"Auvergne-Rhône-Alpes"}},{"nom":"Saint-Nizier-d'Azergues","code":"69229","codesPostaux":["69870"],"centre":{"type":"Point","coordinates":[4.4613,46.083]},"surface":2418.7,"population":776,"departement":{"code":"69","nom":"Rhône"},"region":{"code":"84","nom":"Auvergne-Rhône-Alpes"}},{"nom":"Sainte-Paule","code":"69230","codesPostaux":["69620"],"centre":{"type":"Point","coordinates":[4.5634,45.9722]},"surface":766.79,"population":330,"departement":{"code":"69","nom":"Rhône"},"region":{"code":"84","nom":"Auvergne-Rhône-Alpes"}},{"nom":"Saint-Pierre-la-Palud","code":"69231","codesPostaux":["69210"],"centre":{"type":"Point","coordinates":[4.6163,45.7833]},"surface":753.57,"population":2586,"departement":{"code":"69","nom":"Rhône"},"region":{"code":"84","nom":"Auvergne-Rhône-Alpes"}},{"nom":"Saint-Romain-au-Mont-d'Or","code":"69233","codesPostaux":["69270"],"centre":{"type":"Point","coordinates":[4.8224,45.8355]},"surface":261,"population":1241,"departement":{"code":"69","nom":"Rhône"},"region":{"code":"84","nom":"Auvergne-Rhône-Alpes"}},{"nom":"Saint-Romain-de-Popey","code":"69234","codesPostaux":["69490"],"centre":{"type":"Point","coordinates":[4.5291,45.855]},"surface":1708.97,"population":1703,"departement":{"code":"69","nom":"Rhône"},"region":{"code":"84","nom":"Auvergne-Rhône-Alpes"}},{"nom":"Saint-Romain-en-Gal","code":"69235","codesPostaux":["69560"],"centre":{"type":"Point","coordinates":[4.8307,45.5402]},"surface":1364.95,"population":1990,"departement":{"code":"69","nom":"Rhône"},"region":{"code":"84","nom":"Auvergne-Rhône-Alpes"}},{"nom":"Saint-Romain-en-Gier","code":"69236","codesPostaux":["69700"],"centre":{"type":"Point","coordinates":[4.7065,45.5637]},"surface":403.74,"population":598,"departement":{"code":"69","nom":"Rhône"},"region":{"code":"84","nom":"Auvergne-Rhône-Alpes"}},{"nom":"Saint-Symphorien-sur-Coise","code":"69238","codesPostaux":["69590"],"centre":{"type":"Point","coordinates":[4.4456,45.6314]},"surface":407.44,"population":3749,"departement":{"code":"69","nom":"Rhône"},"region":{"code":"84","nom":"Auvergne-Rhône-Alpes"}},{"nom":"Saint-Vérand","code":"69239","codesPostaux":["69620"],"centre":{"type":"Point","coordinates":[4.5208,45.9234]},"surface":1756.88,"population":1147,"departement":{"code":"69","nom":"Rhône"},"region":{"code":"84","nom":"Auvergne-Rhône-Alpes"}},{"nom":"Saint-Vincent-de-Reins","code":"69240","codesPostaux":["69240"],"centre":{"type":"Point","coordinates":[4.3937,46.0715]},"surface":1379.9,"population":627,"departement":{"code":"69","nom":"Rhône"},"region":{"code":"84","nom":"Auvergne-Rhône-Alpes"}},{"nom":"Taluyers","code":"69241","codesPostaux":["69440"],"centre":{"type":"Point","coordinates":[4.7265,45.6343]},"surface":811.57,"population":2657,"departement":{"code":"69","nom":"Rhône"},"region":{"code":"84","nom":"Auvergne-Rhône-Alpes"}},{"nom":"Taponas","code":"69242","codesPostaux":["69220"],"centre":{"type":"Point","coordinates":[4.7648,46.1238]},"surface":759.26,"population":908,"departement":{"code":"69","nom":"Rhône"},"region":{"code":"84","nom":"Auvergne-Rhône-Alpes"}},{"nom":"Tarare","code":"69243","codesPostaux":["69170"],"centre":{"type":"Point","coordinates":[4.4302,45.9071]},"surface":1410.11,"population":10881,"departement":{"code":"69","nom":"Rhône"},"region":{"code":"84","nom":"Auvergne-Rhône-Alpes"}},{"nom":"Tassin-la-Demi-Lune","code":"69244","codesPostaux":["69160"],"centre":{"type":"Point","coordinates":[4.7521,45.7637]},"surface":799.37,"population":22819,"departement":{"code":"69","nom":"Rhône"},"region":{"code":"84","nom":"Auvergne-Rhône-Alpes"}},{"nom":"Ternand","code":"69245","codesPostaux":["69620"],"centre":{"type":"Point","coordinates":[4.5181,45.9508]},"surface":1073.16,"population":747,"departement":{"code":"69","nom":"Rhône"},"region":{"code":"84","nom":"Auvergne-Rhône-Alpes"}},{"nom":"Theizé","code":"69246","codesPostaux":["69620"],"centre":{"type":"Point","coordinates":[4.6277,45.9418]},"surface":1190.23,"population":1293,"departement":{"code":"69","nom":"Rhône"},"region":{"code":"84","nom":"Auvergne-Rhône-Alpes"}},{"nom":"Thizy-les-Bourgs","code":"69248","codesPostaux":["69240"],"centre":{"type":"Point","coordinates":[4.3109,46.0505]},"surface":4453.8,"population":5794,"departement":{"code":"69","nom":"Rhône"},"region":{"code":"84","nom":"Auvergne-Rhône-Alpes"}},{"nom":"Thurins","code":"69249","codesPostaux":["69510"],"centre":{"type":"Point","coordinates":[4.6252,45.6809]},"surface":1934.32,"population":3268,"departement":{"code":"69","nom":"Rhône"},"region":{"code":"84","nom":"Auvergne-Rhône-Alpes"}},{"nom":"La Tour-de-Salvagny","code":"69250","codesPostaux":["69890"],"centre":{"type":"Point","coordinates":[4.7129,45.8086]},"surface":840.12,"population":4460,"departement":{"code":"69","nom":"Rhône"},"region":{"code":"84","nom":"Auvergne-Rhône-Alpes"}},{"nom":"Trèves","code":"69252","codesPostaux":["69420"],"centre":{"type":"Point","coordinates":[4.6918,45.5358]},"surface":762.81,"population":723,"departement":{"code":"69","nom":"Rhône"},"region":{"code":"84","nom":"Auvergne-Rhône-Alpes"}},{"nom":"Tupin-et-Semons","code":"69253","codesPostaux":["69420"],"centre":{"type":"Point","coordinates":[4.7776,45.4941]},"surface":827.26,"population":650,"departement":{"code":"69","nom":"Rhône"},"region":{"code":"84","nom":"Auvergne-Rhône-Alpes"}},{"nom":"Valsonne","code":"69254","codesPostaux":["69170"],"centre":{"type":"Point","coordinates":[4.4264,45.9463]},"surface":1837,"population":994,"departement":{"code":"69","nom":"Rhône"},"region":{"code":"84","nom":"Auvergne-Rhône-Alpes"}},{"nom":"Vaugneray","code":"69255","codesPostaux":["69670"],"centre":{"type":"Point","coordinates":[4.6502,45.73]},"surface":2514.82,"population":6198,"departement":{"code":"69","nom":"Rhône"},"region":{"code":"84","nom":"Auvergne-Rhône-Alpes"}},{"nom":"Vaulx-en-Velin","code":"69256","codesPostaux":["69120"],"centre":{"type":"Point","coordinates":[4.925,45.7776]},"surface":2103.72,"population":52448,"departement":{"code":"69","nom":"Rhône"},"region":{"code":"84","nom":"Auvergne-Rhône-Alpes"}},{"nom":"Vaux-en-Beaujolais","code":"69257","codesPostaux":["69460"],"centre":{"type":"Point","coordinates":[4.5801,46.0459]},"surface":1769.54,"population":1153,"departement":{"code":"69","nom":"Rhône"},"region":{"code":"84","nom":"Auvergne-Rhône-Alpes"}},{"nom":"Vauxrenard","code":"69258","codesPostaux":["69820"],"centre":{"type":"Point","coordinates":[4.6415,46.2207]},"surface":1916.85,"population":315,"departement":{"code":"69","nom":"Rhône"},"region":{"code":"84","nom":"Auvergne-Rhône-Alpes"}},{"nom":"Vénissieux","code":"69259","codesPostaux":["69200"],"centre":{"type":"Point","coordinates":[4.8805,45.7012]},"surface":1545.08,"population":66701,"departement":{"code":"69","nom":"Rhône"},"region":{"code":"84","nom":"Auvergne-Rhône-Alpes"}},{"nom":"Vernaison","code":"69260","codesPostaux":["69390"],"centre":{"type":"Point","coordinates":[4.8121,45.6464]},"surface":421.2,"population":5175,"departement":{"code":"69","nom":"Rhône"},"region":{"code":"84","nom":"Auvergne-Rhône-Alpes"}},{"nom":"Vernay","code":"69261","codesPostaux":["69430"],"centre":{"type":"Point","coordinates":[4.5279,46.1639]},"surface":555.22,"population":117,"departement":{"code":"69","nom":"Rhône"},"region":{"code":"84","nom":"Auvergne-Rhône-Alpes"}},{"nom":"Villechenève","code":"69263","codesPostaux":["69770"],"centre":{"type":"Point","coordinates":[4.4082,45.8144]},"surface":1411.22,"population":908,"departement":{"code":"69","nom":"Rhône"},"region":{"code":"84","nom":"Auvergne-Rhône-Alpes"}},{"nom":"Villefranche-sur-Saône","code":"69264","codesPostaux":["69400"],"centre":{"type":"Point","coordinates":[4.726,45.9837]},"surface":937.29,"population":36224,"departement":{"code":"69","nom":"Rhône"},"region":{"code":"84","nom":"Auvergne-Rhône-Alpes"}},{"nom":"Ville-sur-Jarnioux","code":"69265","codesPostaux":["69640"],"centre":{"type":"Point","coordinates":[4.5942,45.9693]},"surface":1029.1,"population":820,"departement":{"code":"69","nom":"Rhône"},"region":{"code":"84","nom":"Auvergne-Rhône-Alpes"}},{"nom":"Villeurbanne","code":"69266","codesPostaux":["69100"],"centre":{"type":"Point","coordinates":[4.8898,45.7719]},"surface":1490.12,"population":162207,"departement":{"code":"69","nom":"Rhône"},"region":{"code":"84","nom":"Auvergne-Rhône-Alpes"}},{"nom":"Villié-Morgon","code":"69267","codesPostaux":["69910"],"centre":{"type":"Point","coordinates":[4.6621,46.1612]},"surface":1859.96,"population":2132,"departement":{"code":"69","nom":"Rhône"},"region":{"code":"84","nom":"Auvergne-Rhône-Alpes"}},{"nom":"Vourles","code":"69268","codesPostaux":["69390"],"centre":{"type":"Point","coordinates":[4.7691,45.6569]},"surface":560.14,"population":3353,"departement":{"code":"69","nom":"Rhône"},"region":{"code":"84","nom":"Auvergne-Rhône-Alpes"}},{"nom":"Yzeron","code":"69269","codesPostaux":["69510"],"centre":{"type":"Point","coordinates":[4.6038,45.7115]},"surface":1072.68,"population":980,"departement":{"code":"69","nom":"Rhône"},"region":{"code":"84","nom":"Auvergne-Rhône-Alpes"}},{"nom":"Chaponnay","code":"69270","codesPostaux":["69970"],"centre":{"type":"Point","coordinates":[4.9584,45.6315]},"surface":1891.41,"population":4519,"departement":{"code":"69","nom":"Rhône"},"region":{"code":"84","nom":"Auvergne-Rhône-Alpes"}},{"nom":"Chassieu","code":"69271","codesPostaux":["69680"],"centre":{"type":"Point","coordinates":[4.9638,45.7366]},"surface":1157.66,"population":11214,"departement":{"code":"69","nom":"Rhône"},"region":{"code":"84","nom":"Auvergne-Rhône-Alpes"}},{"nom":"Communay","code":"69272","codesPostaux":["69360"],"centre":{"type":"Point","coordinates":[4.8359,45.5977]},"surface":1048.65,"population":4524,"departement":{"code":"69","nom":"Rhône"},"region":{"code":"84","nom":"Auvergne-Rhône-Alpes"}},{"nom":"Corbas","code":"69273","codesPostaux":["69960"],"centre":{"type":"Point","coordinates":[4.9104,45.6654]},"surface":1186.9,"population":11196,"departement":{"code":"69","nom":"Rhône"},"region":{"code":"84","nom":"Auvergne-Rhône-Alpes"}},{"nom":"Décines-Charpieu","code":"69275","codesPostaux":["69150"],"centre":{"type":"Point","coordinates":[4.9589,45.7759]},"surface":1713.88,"population":29905,"departement":{"code":"69","nom":"Rhône"},"region":{"code":"84","nom":"Auvergne-Rhône-Alpes"}},{"nom":"Feyzin","code":"69276","codesPostaux":["69320"],"centre":{"type":"Point","coordinates":[4.8589,45.6736]},"surface":1046.89,"population":9727,"departement":{"code":"69","nom":"Rhône"},"region":{"code":"84","nom":"Auvergne-Rhône-Alpes"}},{"nom":"Genas","code":"69277","codesPostaux":["69740"],"centre":{"type":"Point","coordinates":[5.0172,45.7286]},"surface":2414.79,"population":13446,"departement":{"code":"69","nom":"Rhône"},"region":{"code":"84","nom":"Auvergne-Rhône-Alpes"}},{"nom":"Genay","code":"69278","codesPostaux":["69730"],"centre":{"type":"Point","coordinates":[4.8389,45.8989]},"surface":865.59,"population":5632,"departement":{"code":"69","nom":"Rhône"},"region":{"code":"84","nom":"Auvergne-Rhône-Alpes"}},{"nom":"Jonage","code":"69279","codesPostaux":["69330"],"centre":{"type":"Point","coordinates":[5.0377,45.7886]},"surface":1208.85,"population":6109,"departement":{"code":"69","nom":"Rhône"},"region":{"code":"84","nom":"Auvergne-Rhône-Alpes"}},{"nom":"Jons","code":"69280","codesPostaux":["69330"],"centre":{"type":"Point","coordinates":[5.0798,45.7978]},"surface":730.04,"population":1594,"departement":{"code":"69","nom":"Rhône"},"region":{"code":"84","nom":"Auvergne-Rhône-Alpes"}},{"nom":"Marennes","code":"69281","codesPostaux":["69970"],"centre":{"type":"Point","coordinates":[4.9097,45.6248]},"surface":1240.93,"population":1979,"departement":{"code":"69","nom":"Rhône"},"region":{"code":"84","nom":"Auvergne-Rhône-Alpes"}},{"nom":"Meyzieu","code":"69282","codesPostaux":["69330"],"centre":{"type":"Point","coordinates":[5.0114,45.7785]},"surface":2345.1,"population":36437,"departement":{"code":"69","nom":"Rhône"},"region":{"code":"84","nom":"Auvergne-Rhône-Alpes"}},{"nom":"Mions","code":"69283","codesPostaux":["69780"],"centre":{"type":"Point","coordinates":[4.9467,45.6628]},"surface":1165.85,"population":13716,"departement":{"code":"69","nom":"Rhône"},"region":{"code":"84","nom":"Auvergne-Rhône-Alpes"}},{"nom":"Montanay","code":"69284","codesPostaux":["69250"],"centre":{"type":"Point","coordinates":[4.8657,45.8793]},"surface":726.52,"population":3270,"departement":{"code":"69","nom":"Rhône"},"region":{"code":"84","nom":"Auvergne-Rhône-Alpes"}},{"nom":"Pusignan","code":"69285","codesPostaux":["69330"],"centre":{"type":"Point","coordinates":[5.0659,45.7571]},"surface":1320.87,"population":4145,"departement":{"code":"69","nom":"Rhône"},"region":{"code":"84","nom":"Auvergne-Rhône-Alpes"}},{"nom":"Rillieux-la-Pape","code":"69286","codesPostaux":["69140"],"centre":{"type":"Point","coordinates":[4.895,45.8265]},"surface":1454.98,"population":31479,"departement":{"code":"69","nom":"Rhône"},"region":{"code":"84","nom":"Auvergne-Rhône-Alpes"}},{"nom":"Saint-Bonnet-de-Mure","code":"69287","codesPostaux":["69720"],"centre":{"type":"Point","coordinates":[5.0241,45.6975]},"surface":1661.48,"population":6988,"departement":{"code":"69","nom":"Rhône"},"region":{"code":"84","nom":"Auvergne-Rhône-Alpes"}},{"nom":"Saint-Laurent-de-Mure","code":"69288","codesPostaux":["69720"],"centre":{"type":"Point","coordinates":[5.0597,45.6842]},"surface":1882.31,"population":5651,"departement":{"code":"69","nom":"Rhône"},"region":{"code":"84","nom":"Auvergne-Rhône-Alpes"}},{"nom":"Saint-Pierre-de-Chandieu","code":"69289","codesPostaux":["69780"],"centre":{"type":"Point","coordinates":[5.0085,45.6471]},"surface":2932.09,"population":4588,"departement":{"code":"69","nom":"Rhône"},"region":{"code":"84","nom":"Auvergne-Rhône-Alpes"}},{"nom":"Saint-Priest","code":"69290","codesPostaux":["69800"],"centre":{"type":"Point","coordinates":[4.9474,45.7014]},"surface":2971.93,"population":49193,"departement":{"code":"69","nom":"Rhône"},"region":{"code":"84","nom":"Auvergne-Rhône-Alpes"}},{"nom":"Saint-Symphorien-d'Ozon","code":"69291","codesPostaux":["69360"],"centre":{"type":"Point","coordinates":[4.8666,45.6386]},"surface":1342.47,"population":6076,"departement":{"code":"69","nom":"Rhône"},"region":{"code":"84","nom":"Auvergne-Rhône-Alpes"}},{"nom":"Sathonay-Camp","code":"69292","codesPostaux":["69580"],"centre":{"type":"Point","coordinates":[4.8792,45.8255]},"surface":192.44,"population":7039,"departement":{"code":"69","nom":"Rhône"},"region":{"code":"84","nom":"Auvergne-Rhône-Alpes"}},{"nom":"Sathonay-Village","code":"69293","codesPostaux":["69580"],"centre":{"type":"Point","coordinates":[4.8858,45.8394]},"surface":511.17,"population":2418,"departement":{"code":"69","nom":"Rhône"},"region":{"code":"84","nom":"Auvergne-Rhône-Alpes"}},{"nom":"Sérézin-du-Rhône","code":"69294","codesPostaux":["69360"],"centre":{"type":"Point","coordinates":[4.8248,45.6285]},"surface":384.39,"population":3057,"departement":{"code":"69","nom":"Rhône"},"region":{"code":"84","nom":"Auvergne-Rhône-Alpes"}},{"nom":"Simandres","code":"69295","codesPostaux":["69360"],"centre":{"type":"Point","coordinates":[4.8718,45.6111]},"surface":945.09,"population":1886,"departement":{"code":"69","nom":"Rhône"},"region":{"code":"84","nom":"Auvergne-Rhône-Alpes"}},{"nom":"Solaize","code":"69296","codesPostaux":["69360"],"centre":{"type":"Point","coordinates":[4.8331,45.6462]},"surface":812.51,"population":3131,"departement":{"code":"69","nom":"Rhône"},"region":{"code":"84","nom":"Auvergne-Rhône-Alpes"}},{"nom":"Ternay","code":"69297","codesPostaux":["69360"],"centre":{"type":"Point","coordinates":[4.803,45.6083]},"surface":792.07,"population":5582,"departement":{"code":"69","nom":"Rhône"},"region":{"code":"84","nom":"Auvergne-Rhône-Alpes"}},{"nom":"Toussieu","code":"69298","codesPostaux":["69780"],"centre":{"type":"Point","coordinates":[4.9819,45.6585]},"surface":507.37,"population":3186,"departement":{"code":"69","nom":"Rhône"},"region":{"code":"84","nom":"Auvergne-Rhône-Alpes"}},{"nom":"Colombier-Saugnieu","code":"69299","codesPostaux":["69124","69125"],"centre":{"type":"Point","coordinates":[5.1084,45.7174]},"surface":2784.45,"population":2859,"departement":{"code":"69","nom":"Rhône"},"region":{"code":"84","nom":"Auvergne-Rhône-Alpes"}}]