[{"nom":"Régina","code":"97301","codesPostaux":["97353","97390"],"centre":{"type":"Point","coordinates":[-52.4797,4.0081]},"surface":1139424.75,"population":1655,"departement":{"code":"973","nom":"Guyane"},"region":{"code":"03","nom":"Guyane"}},{"nom":"Cayenne","code":"97302","codesPostaux":["97300"],"centre":{"type":"Point","coordinates":[-52.3319,4.9464]},"surface":2550.95,"population":63468,"departement":{"code":"973","nom":"Guyane"},"region":{"code":"03","nom":"Guyane"}},{"nom":"Iracoubo","code":"97303","codesPostaux":["97350"],"centre":{"type":"Point","coordinates":[-53.2979,5.2395]},"surface":248376.01,"population":1707,"departement":{"code":"973","nom":"Guyane"},"region":{"code":"03","nom":"Guyane"}},{"nom":"Kourou","code":"97304","codesPostaux":["97310"],"centre":{"type":"Point","coordinates":[-52.7767,4.9085]},"surface":228921.87,"population":24612,"departement":{"code":"973","nom":"Guyane"},"region":{"code":"03","nom":"Guyane"}},{"nom":"Macouria","code":"97305","codesPostaux":["97355"],"centre":{"type":"Point","coordinates":[-52.4834,4.9925]},"surface":28743.26,"population":18847,"departement":{"code":"973","nom":"Guyane"},"region":{"code":"03","nom":"Guyane"}},{"nom":"Mana","code":"97306","codesPostaux":["97318","97360"],"centre":{"type":"Point","coordinates":[-53.6784,4.9955]},"surface":662221.27,"population":11764,"departement":{"code":"973","nom":"Guyane"},"region":{"code":"03","nom":"Guyane"}},{"nom":"Matoury","code":"97307","codesPostaux":["97351"],"centre":{"type":"Point","coordinates":[-52.3498,4.8281]},"surface":14667.97,"population":34810,"departement":{"code":"973","nom":"Guyane"},"region":{"code":"03","nom":"Guyane"}},{"nom":"Saint-Georges","code":"97308","codesPostaux":["97313"],"centre":{"type":"Point","coordinates":[-52.075,3.8078]},"surface":284751.54,"population":4505,"departement":{"code":"973","nom":"Guyane"},"region":{"code":"03","nom":"Guyane"}},{"nom":"Remire-Montjoly","code":"97309","codesPostaux":["97354"],"centre":{"type":"Point","coordinates":[-52.2809,4.8897]},"surface":4630.9,"population":27274,"departement":{"code":"973","nom":"Guyane"},"region":{"code":"03","nom":"Guyane"}},{"nom":"Roura","code":"97310","codesPostaux":["97311","97352"],"centre":{"type":"Point","coordinates":[-52.5164,4.4685]},"surface":368601.13,"population":3409,"departement":{"code":"973","nom":"Guyane"},"region":{"code":"03","nom":"Guyane"}},{"nom":"Saint-Laurent-du-Maroni","code":"97311","codesPostaux":["97320"],"centre":{"type":"Point","coordinates":[-54.0105,4.9478]},"surface":432096.46,"population":50250,"departement":{"code":"973","nom":"Guyane"},"region":{"code":"03","nom":"Guyane"}},{"nom":"Sinnamary","code":"97312","codesPostaux":["97315"],"centre":{"type":"Point","coordinates":[-53.0097,5.2418]},"surface":111964.92,"population":2830,"departement":{"code":"973","nom":"Guyane"},"region":{"code":"03","nom":"Guyane"}},{"nom":"Montsinéry-Tonnegrande","code":"97313","codesPostaux":["97356"],"centre":{"type":"Point","coordinates":[-52.5059,4.8124]},"surface":63055.48,"population":3295,"departement":{"code":"973","nom":"Guyane"},"region":{"code":"03","nom":"Guyane"}},{"nom":"Ouanary","code":"97314","codesPostaux":["97380"],"centre":{"type":"Point","coordinates":[-51.8261,4.2104]},"surface":104569.14,"population":251,"departement":{"code":"973","nom":"Guyane"},"region":{"code":"03","nom":"Guyane"}},{"nom":"Saül","code":"97352","codesPostaux":["97314"],"centre":{"type":"Point","coordinates":[-53.4333,3.8181]},"surface":449085.3,"population":317,"departement":{"code":"973","nom":"Guyane"},"region":{"code":"03","nom":"Guyane"}},{"nom":"Maripasoula","code":"97353","codesPostaux":["97370"],"centre":{"type":"Point","coordinates":[-53.8275,3.049]},"surface":1874271.06,"population":9177,"departement":{"code":"973","nom":"Guyane"},"region":{"code":"03","nom":"Guyane"}},{"nom":"Camopi","code":"97356","codesPostaux":["97330"],"centre":{"type":"Point","coordinates":[-52.6916,2.8679]},"surface":1047238.04,"population":2146,"departement":{"code":"973","nom":"Guyane"},"region":{"code":"03","nom":"Guyane"}},{"nom":"Grand-Santi","code":"97357","codesPostaux":["97340"],"centre":{"type":"Point","coordinates":[-54.1148,4.3756]},"surface":215219.43,"population":9120,"departement":{"code":"973","nom":"Guyane"},"region":{"code":"03","nom":"Guyane"}},{"nom":"Saint-Élie","code":"97358","codesPostaux":["97312"],"centre":{"type":"Point","coordinates":[-53.1108,4.4853]},"surface":581350.7,"population":241,"departement":{"code":"973","nom":"Guyane"},"region":{"code":"03","nom":"Guyane"}},{"nom":"Apatou","code":"97360","codesPostaux":["97317"],"centre":{"type":"Point","coordinates":[-54.2171,4.9019]},"surface":215476.98,"population":9818,"departement":{"code":"973","nom":"Guyane"},"region":{"code":"03","nom":"Guyane"}},{"nom":"Awala-Yalimapo","code":"97361","codesPostaux":["97319"],"centre":{"type":"Point","coordinates":[-53.9167,5.6743]},"surface":21476.27,"population":1516,"departement":{"code":"973","nom":"Guyane"},"region":{"code":"03","nom":"Guyane"}},{"nom":"Papaichton","code":"97362","codesPostaux":["97316"],"centre":{"type":"Point","coordinates":[-54.0463,4.0165]},"surface":269670.04,"population":5606,"departement":{"code":"973","nom":"Guyane"},"region":{"code":"03","nom":"Guyane"}}]