[{"nom":"Acigné","code":"35001","codesPostaux":["35690"],"centre":{"type":"Point","coordinates":[-1.5189,48.1461]},"surface":3020.19,"population":6911,"departement":{"code":"35","nom":"Ille-et-Vilaine"},"region":{"code":"53","nom":"Bretagne"}},{"nom":"Amanlis","code":"35002","codesPostaux":["35150"],"centre":{"type":"Point","coordinates":[-1.4951,48.0017]},"surface":2555.55,"population":1765,"departement":{"code":"35","nom":"Ille-et-Vilaine"},"region":{"code":"53","nom":"Bretagne"}},{"nom":"Andouillé-Neuville","code":"35003","codesPostaux":["35250"],"centre":{"type":"Point","coordinates":[-1.5951,48.2993]},"surface":1268.56,"population":1006,"departement":{"code":"35","nom":"Ille-et-Vilaine"},"region":{"code":"53","nom":"Bretagne"}},{"nom":"Val-Couesnon","code":"35004","codesPostaux":["35460","35560"],"centre":{"type":"Point","coordinates":[-1.465,48.441]},"surface":7951.36,"population":4084,"departement":{"code":"35","nom":"Ille-et-Vilaine"},"region":{"code":"53","nom":"Bretagne"}},{"nom":"Arbrissel","code":"35005","codesPostaux":["35130"],"centre":{"type":"Point","coordinates":[-1.2909,47.9283]},"surface":462.99,"population":270,"departement":{"code":"35","nom":"Ille-et-Vilaine"},"region":{"code":"53","nom":"Bretagne"}},{"nom":"Argentré-du-Plessis","code":"35006","codesPostaux":["35370"],"centre":{"type":"Point","coordinates":[-1.1395,48.0505]},"surface":4123.36,"population":4591,"departement":{"code":"35","nom":"Ille-et-Vilaine"},"region":{"code":"53","nom":"Bretagne"}},{"nom":"Aubigné","code":"35007","codesPostaux":["35250"],"centre":{"type":"Point","coordinates":[-1.6312,48.2983]},"surface":223.07,"population":465,"departement":{"code":"35","nom":"Ille-et-Vilaine"},"region":{"code":"53","nom":"Bretagne"}},{"nom":"Availles-sur-Seiche","code":"35008","codesPostaux":["35130"],"centre":{"type":"Point","coordinates":[-1.1862,47.9589]},"surface":1108.96,"population":647,"departement":{"code":"35","nom":"Ille-et-Vilaine"},"region":{"code":"53","nom":"Bretagne"}},{"nom":"Baguer-Morvan","code":"35009","codesPostaux":["35120"],"centre":{"type":"Point","coordinates":[-1.7712,48.5037]},"surface":2435.99,"population":1697,"departement":{"code":"35","nom":"Ille-et-Vilaine"},"region":{"code":"53","nom":"Bretagne"}},{"nom":"Baguer-Pican","code":"35010","codesPostaux":["35120"],"centre":{"type":"Point","coordinates":[-1.691,48.551]},"surface":1611.57,"population":1764,"departement":{"code":"35","nom":"Ille-et-Vilaine"},"region":{"code":"53","nom":"Bretagne"}},{"nom":"Bain-de-Bretagne","code":"35012","codesPostaux":["35470"],"centre":{"type":"Point","coordinates":[-1.6806,47.8324]},"surface":6600.18,"population":7704,"departement":{"code":"35","nom":"Ille-et-Vilaine"},"region":{"code":"53","nom":"Bretagne"}},{"nom":"Bains-sur-Oust","code":"35013","codesPostaux":["35600"],"centre":{"type":"Point","coordinates":[-2.074,47.716]},"surface":4504.4,"population":3521,"departement":{"code":"35","nom":"Ille-et-Vilaine"},"region":{"code":"53","nom":"Bretagne"}},{"nom":"Bais","code":"35014","codesPostaux":["35680"],"centre":{"type":"Point","coordinates":[-1.2989,48.0089]},"surface":3520.04,"population":2511,"departement":{"code":"35","nom":"Ille-et-Vilaine"},"region":{"code":"53","nom":"Bretagne"}},{"nom":"Balazé","code":"35015","codesPostaux":["35500"],"centre":{"type":"Point","coordinates":[-1.1834,48.1759]},"surface":3642.58,"population":2181,"departement":{"code":"35","nom":"Ille-et-Vilaine"},"region":{"code":"53","nom":"Bretagne"}},{"nom":"Baulon","code":"35016","codesPostaux":["35580"],"centre":{"type":"Point","coordinates":[-1.9278,47.9967]},"surface":2520.99,"population":2208,"departement":{"code":"35","nom":"Ille-et-Vilaine"},"region":{"code":"53","nom":"Bretagne"}},{"nom":"La Baussaine","code":"35017","codesPostaux":["35190"],"centre":{"type":"Point","coordinates":[-1.8971,48.3143]},"surface":976.88,"population":675,"departement":{"code":"35","nom":"Ille-et-Vilaine"},"region":{"code":"53","nom":"Bretagne"}},{"nom":"La Bazouge-du-Désert","code":"35018","codesPostaux":["35420"],"centre":{"type":"Point","coordinates":[-1.1072,48.443]},"surface":2509.52,"population":1080,"departement":{"code":"35","nom":"Ille-et-Vilaine"},"region":{"code":"53","nom":"Bretagne"}},{"nom":"Bazouges-la-Pérouse","code":"35019","codesPostaux":["35560"],"centre":{"type":"Point","coordinates":[-1.5638,48.4444]},"surface":5783.89,"population":1865,"departement":{"code":"35","nom":"Ille-et-Vilaine"},"region":{"code":"53","nom":"Bretagne"}},{"nom":"Beaucé","code":"35021","codesPostaux":["35133"],"centre":{"type":"Point","coordinates":[-1.1554,48.346]},"surface":843.53,"population":1289,"departement":{"code":"35","nom":"Ille-et-Vilaine"},"region":{"code":"53","nom":"Bretagne"}},{"nom":"Bécherel","code":"35022","codesPostaux":["35190"],"centre":{"type":"Point","coordinates":[-1.9423,48.296]},"surface":55.48,"population":685,"departement":{"code":"35","nom":"Ille-et-Vilaine"},"region":{"code":"53","nom":"Bretagne"}},{"nom":"Bédée","code":"35023","codesPostaux":["35137"],"centre":{"type":"Point","coordinates":[-1.9534,48.185]},"surface":3947.61,"population":4571,"departement":{"code":"35","nom":"Ille-et-Vilaine"},"region":{"code":"53","nom":"Bretagne"}},{"nom":"Betton","code":"35024","codesPostaux":["35830"],"centre":{"type":"Point","coordinates":[-1.6477,48.1797]},"surface":2678.48,"population":12775,"departement":{"code":"35","nom":"Ille-et-Vilaine"},"region":{"code":"53","nom":"Bretagne"}},{"nom":"Billé","code":"35025","codesPostaux":["35133"],"centre":{"type":"Point","coordinates":[-1.2524,48.2939]},"surface":1703.26,"population":1038,"departement":{"code":"35","nom":"Ille-et-Vilaine"},"region":{"code":"53","nom":"Bretagne"}},{"nom":"Bléruais","code":"35026","codesPostaux":["35750"],"centre":{"type":"Point","coordinates":[-2.1181,48.1161]},"surface":334.62,"population":98,"departement":{"code":"35","nom":"Ille-et-Vilaine"},"region":{"code":"53","nom":"Bretagne"}},{"nom":"Boisgervilly","code":"35027","codesPostaux":["35360"],"centre":{"type":"Point","coordinates":[-2.0863,48.1669]},"surface":2009.68,"population":1757,"departement":{"code":"35","nom":"Ille-et-Vilaine"},"region":{"code":"53","nom":"Bretagne"}},{"nom":"Boistrudan","code":"35028","codesPostaux":["35150"],"centre":{"type":"Point","coordinates":[-1.4006,47.9776]},"surface":1291.73,"population":726,"departement":{"code":"35","nom":"Ille-et-Vilaine"},"region":{"code":"53","nom":"Bretagne"}},{"nom":"Bonnemain","code":"35029","codesPostaux":["35270"],"centre":{"type":"Point","coordinates":[-1.7715,48.4709]},"surface":2413.67,"population":1533,"departement":{"code":"35","nom":"Ille-et-Vilaine"},"region":{"code":"53","nom":"Bretagne"}},{"nom":"La Bosse-de-Bretagne","code":"35030","codesPostaux":["35320"],"centre":{"type":"Point","coordinates":[-1.5847,47.8675]},"surface":1062.34,"population":691,"departement":{"code":"35","nom":"Ille-et-Vilaine"},"region":{"code":"53","nom":"Bretagne"}},{"nom":"La Bouëxière","code":"35031","codesPostaux":["35340"],"centre":{"type":"Point","coordinates":[-1.433,48.1747]},"surface":4975.25,"population":4602,"departement":{"code":"35","nom":"Ille-et-Vilaine"},"region":{"code":"53","nom":"Bretagne"}},{"nom":"Bourgbarré","code":"35032","codesPostaux":["35230"],"centre":{"type":"Point","coordinates":[-1.6236,47.9833]},"surface":1479.83,"population":4692,"departement":{"code":"35","nom":"Ille-et-Vilaine"},"region":{"code":"53","nom":"Bretagne"}},{"nom":"Bourg-des-Comptes","code":"35033","codesPostaux":["35890"],"centre":{"type":"Point","coordinates":[-1.7182,47.9244]},"surface":2342.1,"population":3388,"departement":{"code":"35","nom":"Ille-et-Vilaine"},"region":{"code":"53","nom":"Bretagne"}},{"nom":"La Boussac","code":"35034","codesPostaux":["35120"],"centre":{"type":"Point","coordinates":[-1.6509,48.5155]},"surface":2189.85,"population":1250,"departement":{"code":"35","nom":"Ille-et-Vilaine"},"region":{"code":"53","nom":"Bretagne"}},{"nom":"Bovel","code":"35035","codesPostaux":["35330"],"centre":{"type":"Point","coordinates":[-1.9557,47.9532]},"surface":1468.16,"population":600,"departement":{"code":"35","nom":"Ille-et-Vilaine"},"region":{"code":"53","nom":"Bretagne"}},{"nom":"Bréal-sous-Montfort","code":"35037","codesPostaux":["35310"],"centre":{"type":"Point","coordinates":[-1.8733,48.0444]},"surface":3395.2,"population":6430,"departement":{"code":"35","nom":"Ille-et-Vilaine"},"region":{"code":"53","nom":"Bretagne"}},{"nom":"Bréal-sous-Vitré","code":"35038","codesPostaux":["35370"],"centre":{"type":"Point","coordinates":[-1.0563,48.0879]},"surface":579.15,"population":614,"departement":{"code":"35","nom":"Ille-et-Vilaine"},"region":{"code":"53","nom":"Bretagne"}},{"nom":"Brécé","code":"35039","codesPostaux":["35530"],"centre":{"type":"Point","coordinates":[-1.4934,48.1091]},"surface":723.9,"population":2185,"departement":{"code":"35","nom":"Ille-et-Vilaine"},"region":{"code":"53","nom":"Bretagne"}},{"nom":"Breteil","code":"35040","codesPostaux":["35160"],"centre":{"type":"Point","coordinates":[-1.9133,48.1376]},"surface":1488.74,"population":3678,"departement":{"code":"35","nom":"Ille-et-Vilaine"},"region":{"code":"53","nom":"Bretagne"}},{"nom":"Brie","code":"35041","codesPostaux":["35150"],"centre":{"type":"Point","coordinates":[-1.5534,47.9496]},"surface":1369.97,"population":1014,"departement":{"code":"35","nom":"Ille-et-Vilaine"},"region":{"code":"53","nom":"Bretagne"}},{"nom":"Brielles","code":"35042","codesPostaux":["35370"],"centre":{"type":"Point","coordinates":[-1.0998,48.0087]},"surface":1161.52,"population":679,"departement":{"code":"35","nom":"Ille-et-Vilaine"},"region":{"code":"53","nom":"Bretagne"}},{"nom":"Broualan","code":"35044","codesPostaux":["35120"],"centre":{"type":"Point","coordinates":[-1.6607,48.4733]},"surface":1288.97,"population":411,"departement":{"code":"35","nom":"Ille-et-Vilaine"},"region":{"code":"53","nom":"Bretagne"}},{"nom":"Bruc-sur-Aff","code":"35045","codesPostaux":["35550"],"centre":{"type":"Point","coordinates":[-2.0066,47.8166]},"surface":2123.25,"population":856,"departement":{"code":"35","nom":"Ille-et-Vilaine"},"region":{"code":"53","nom":"Bretagne"}},{"nom":"Les Brulais","code":"35046","codesPostaux":["35330"],"centre":{"type":"Point","coordinates":[-2.0577,47.8897]},"surface":1202.71,"population":541,"departement":{"code":"35","nom":"Ille-et-Vilaine"},"region":{"code":"53","nom":"Bretagne"}},{"nom":"Bruz","code":"35047","codesPostaux":["35170"],"centre":{"type":"Point","coordinates":[-1.7469,48.024]},"surface":2994.77,"population":19667,"departement":{"code":"35","nom":"Ille-et-Vilaine"},"region":{"code":"53","nom":"Bretagne"}},{"nom":"Cancale","code":"35049","codesPostaux":["35260"],"centre":{"type":"Point","coordinates":[-1.8598,48.6895]},"surface":1256.7,"population":5554,"departement":{"code":"35","nom":"Ille-et-Vilaine"},"region":{"code":"53","nom":"Bretagne"}},{"nom":"Cardroc","code":"35050","codesPostaux":["35190"],"centre":{"type":"Point","coordinates":[-1.8943,48.2842]},"surface":734.28,"population":598,"departement":{"code":"35","nom":"Ille-et-Vilaine"},"region":{"code":"53","nom":"Bretagne"}},{"nom":"Cesson-Sévigné","code":"35051","codesPostaux":["35510"],"centre":{"type":"Point","coordinates":[-1.5935,48.1235]},"surface":3214.27,"population":18076,"departement":{"code":"35","nom":"Ille-et-Vilaine"},"region":{"code":"53","nom":"Bretagne"}},{"nom":"Champeaux","code":"35052","codesPostaux":["35500"],"centre":{"type":"Point","coordinates":[-1.3,48.1361]},"surface":1037.97,"population":504,"departement":{"code":"35","nom":"Ille-et-Vilaine"},"region":{"code":"53","nom":"Bretagne"}},{"nom":"Chanteloup","code":"35054","codesPostaux":["35150"],"centre":{"type":"Point","coordinates":[-1.6222,47.9559]},"surface":1797.87,"population":1881,"departement":{"code":"35","nom":"Ille-et-Vilaine"},"region":{"code":"53","nom":"Bretagne"}},{"nom":"Chantepie","code":"35055","codesPostaux":["35135"],"centre":{"type":"Point","coordinates":[-1.6064,48.0831]},"surface":1196.3,"population":10378,"departement":{"code":"35","nom":"Ille-et-Vilaine"},"region":{"code":"53","nom":"Bretagne"}},{"nom":"La Chapelle-aux-Filtzméens","code":"35056","codesPostaux":["35190"],"centre":{"type":"Point","coordinates":[-1.8182,48.3828]},"surface":644.53,"population":825,"departement":{"code":"35","nom":"Ille-et-Vilaine"},"region":{"code":"53","nom":"Bretagne"}},{"nom":"La Chapelle-Bouëxic","code":"35057","codesPostaux":["35330"],"centre":{"type":"Point","coordinates":[-1.9239,47.9348]},"surface":2071.35,"population":1527,"departement":{"code":"35","nom":"Ille-et-Vilaine"},"region":{"code":"53","nom":"Bretagne"}},{"nom":"La Chapelle-Chaussée","code":"35058","codesPostaux":["35630"],"centre":{"type":"Point","coordinates":[-1.8653,48.2688]},"surface":1478.86,"population":1299,"departement":{"code":"35","nom":"Ille-et-Vilaine"},"region":{"code":"53","nom":"Bretagne"}},{"nom":"La Chapelle-des-Fougeretz","code":"35059","codesPostaux":["35520"],"centre":{"type":"Point","coordinates":[-1.7374,48.1774]},"surface":873.29,"population":4603,"departement":{"code":"35","nom":"Ille-et-Vilaine"},"region":{"code":"53","nom":"Bretagne"}},{"nom":"La Chapelle du Lou du Lac","code":"35060","codesPostaux":["35360"],"centre":{"type":"Point","coordinates":[-1.9932,48.2124]},"surface":1049.75,"population":1037,"departement":{"code":"35","nom":"Ille-et-Vilaine"},"region":{"code":"53","nom":"Bretagne"}},{"nom":"La Chapelle-Erbrée","code":"35061","codesPostaux":["35500"],"centre":{"type":"Point","coordinates":[-1.0963,48.1422]},"surface":1189.89,"population":723,"departement":{"code":"35","nom":"Ille-et-Vilaine"},"region":{"code":"53","nom":"Bretagne"}},{"nom":"La Chapelle-Fleurigné","code":"35062","codesPostaux":["35133"],"centre":{"type":"Point","coordinates":[-1.0968,48.3459]},"surface":4507.25,"population":2430,"departement":{"code":"35","nom":"Ille-et-Vilaine"},"region":{"code":"53","nom":"Bretagne"}},{"nom":"La Chapelle-Saint-Aubert","code":"35063","codesPostaux":["35140"],"centre":{"type":"Point","coordinates":[-1.312,48.3091]},"surface":998.38,"population":468,"departement":{"code":"35","nom":"Ille-et-Vilaine"},"region":{"code":"53","nom":"Bretagne"}},{"nom":"La Chapelle-de-Brain","code":"35064","codesPostaux":["35660"],"centre":{"type":"Point","coordinates":[-1.9288,47.6953]},"surface":1781.54,"population":1107,"departement":{"code":"35","nom":"Ille-et-Vilaine"},"region":{"code":"53","nom":"Bretagne"}},{"nom":"La Chapelle-Thouarault","code":"35065","codesPostaux":["35590"],"centre":{"type":"Point","coordinates":[-1.8569,48.1268]},"surface":777.02,"population":2266,"departement":{"code":"35","nom":"Ille-et-Vilaine"},"region":{"code":"53","nom":"Bretagne"}},{"nom":"Chartres-de-Bretagne","code":"35066","codesPostaux":["35131"],"centre":{"type":"Point","coordinates":[-1.7039,48.0451]},"surface":996.81,"population":8678,"departement":{"code":"35","nom":"Ille-et-Vilaine"},"region":{"code":"53","nom":"Bretagne"}},{"nom":"Chasné-sur-Illet","code":"35067","codesPostaux":["35250"],"centre":{"type":"Point","coordinates":[-1.5692,48.2331]},"surface":965.05,"population":1702,"departement":{"code":"35","nom":"Ille-et-Vilaine"},"region":{"code":"53","nom":"Bretagne"}},{"nom":"Châteaubourg","code":"35068","codesPostaux":["35220"],"centre":{"type":"Point","coordinates":[-1.4034,48.1203]},"surface":2893.52,"population":7523,"departement":{"code":"35","nom":"Ille-et-Vilaine"},"region":{"code":"53","nom":"Bretagne"}},{"nom":"Châteaugiron","code":"35069","codesPostaux":["35410"],"centre":{"type":"Point","coordinates":[-1.4751,48.0481]},"surface":2371.97,"population":10688,"departement":{"code":"35","nom":"Ille-et-Vilaine"},"region":{"code":"53","nom":"Bretagne"}},{"nom":"Châteauneuf-d'Ille-et-Vilaine","code":"35070","codesPostaux":["35430"],"centre":{"type":"Point","coordinates":[-1.9287,48.5579]},"surface":139.68,"population":1679,"departement":{"code":"35","nom":"Ille-et-Vilaine"},"region":{"code":"53","nom":"Bretagne"}},{"nom":"Le Châtellier","code":"35071","codesPostaux":["35133"],"centre":{"type":"Point","coordinates":[-1.2438,48.4251]},"surface":1349.53,"population":427,"departement":{"code":"35","nom":"Ille-et-Vilaine"},"region":{"code":"53","nom":"Bretagne"}},{"nom":"Châtillon-en-Vendelais","code":"35072","codesPostaux":["35210"],"centre":{"type":"Point","coordinates":[-1.1669,48.2307]},"surface":3215.7,"population":1738,"departement":{"code":"35","nom":"Ille-et-Vilaine"},"region":{"code":"53","nom":"Bretagne"}},{"nom":"Chauvigné","code":"35075","codesPostaux":["35490"],"centre":{"type":"Point","coordinates":[-1.4472,48.3726]},"surface":1794.72,"population":807,"departement":{"code":"35","nom":"Ille-et-Vilaine"},"region":{"code":"53","nom":"Bretagne"}},{"nom":"Chavagne","code":"35076","codesPostaux":["35310"],"centre":{"type":"Point","coordinates":[-1.7879,48.0563]},"surface":1255.52,"population":4562,"departement":{"code":"35","nom":"Ille-et-Vilaine"},"region":{"code":"53","nom":"Bretagne"}},{"nom":"Chelun","code":"35077","codesPostaux":["35640"],"centre":{"type":"Point","coordinates":[-1.2447,47.8546]},"surface":1150.05,"population":354,"departement":{"code":"35","nom":"Ille-et-Vilaine"},"region":{"code":"53","nom":"Bretagne"}},{"nom":"Cherrueix","code":"35078","codesPostaux":["35120"],"centre":{"type":"Point","coordinates":[-1.7186,48.591]},"surface":1290.48,"population":1106,"departement":{"code":"35","nom":"Ille-et-Vilaine"},"region":{"code":"53","nom":"Bretagne"}},{"nom":"Chevaigné","code":"35079","codesPostaux":["35250"],"centre":{"type":"Point","coordinates":[-1.6387,48.2251]},"surface":1037.1,"population":2396,"departement":{"code":"35","nom":"Ille-et-Vilaine"},"region":{"code":"53","nom":"Bretagne"}},{"nom":"Cintré","code":"35080","codesPostaux":["35310"],"centre":{"type":"Point","coordinates":[-1.8837,48.109]},"surface":853.3,"population":2614,"departement":{"code":"35","nom":"Ille-et-Vilaine"},"region":{"code":"53","nom":"Bretagne"}},{"nom":"Clayes","code":"35081","codesPostaux":["35590"],"centre":{"type":"Point","coordinates":[-1.8535,48.1782]},"surface":432.93,"population":941,"departement":{"code":"35","nom":"Ille-et-Vilaine"},"region":{"code":"53","nom":"Bretagne"}},{"nom":"Coësmes","code":"35082","codesPostaux":["35134"],"centre":{"type":"Point","coordinates":[-1.4194,47.8703]},"surface":2377.16,"population":1435,"departement":{"code":"35","nom":"Ille-et-Vilaine"},"region":{"code":"53","nom":"Bretagne"}},{"nom":"Comblessac","code":"35084","codesPostaux":["35330"],"centre":{"type":"Point","coordinates":[-2.0854,47.873]},"surface":1729.83,"population":677,"departement":{"code":"35","nom":"Ille-et-Vilaine"},"region":{"code":"53","nom":"Bretagne"}},{"nom":"Combourg","code":"35085","codesPostaux":["35270"],"centre":{"type":"Point","coordinates":[-1.7333,48.4111]},"surface":6394.54,"population":6324,"departement":{"code":"35","nom":"Ille-et-Vilaine"},"region":{"code":"53","nom":"Bretagne"}},{"nom":"Combourtillé","code":"35086","codesPostaux":["35210"],"centre":{"type":"Point","coordinates":[-1.2673,48.2665]},"surface":921.44,"population":608,"departement":{"code":"35","nom":"Ille-et-Vilaine"},"region":{"code":"53","nom":"Bretagne"}},{"nom":"Cornillé","code":"35087","codesPostaux":["35500"],"centre":{"type":"Point","coordinates":[-1.3095,48.0857]},"surface":1259.23,"population":967,"departement":{"code":"35","nom":"Ille-et-Vilaine"},"region":{"code":"53","nom":"Bretagne"}},{"nom":"Corps-Nuds","code":"35088","codesPostaux":["35150"],"centre":{"type":"Point","coordinates":[-1.5706,47.981]},"surface":2289.92,"population":3555,"departement":{"code":"35","nom":"Ille-et-Vilaine"},"region":{"code":"53","nom":"Bretagne"}},{"nom":"La Couyère","code":"35089","codesPostaux":["35320"],"centre":{"type":"Point","coordinates":[-1.5044,47.8924]},"surface":1189.28,"population":447,"departement":{"code":"35","nom":"Ille-et-Vilaine"},"region":{"code":"53","nom":"Bretagne"}},{"nom":"Crevin","code":"35090","codesPostaux":["35320"],"centre":{"type":"Point","coordinates":[-1.6602,47.931]},"surface":846.3,"population":2790,"departement":{"code":"35","nom":"Ille-et-Vilaine"},"region":{"code":"53","nom":"Bretagne"}},{"nom":"Le Crouais","code":"35091","codesPostaux":["35290"],"centre":{"type":"Point","coordinates":[-2.1524,48.2067]},"surface":626.55,"population":591,"departement":{"code":"35","nom":"Ille-et-Vilaine"},"region":{"code":"53","nom":"Bretagne"}},{"nom":"Cuguen","code":"35092","codesPostaux":["35270"],"centre":{"type":"Point","coordinates":[-1.6581,48.435]},"surface":2384.99,"population":830,"departement":{"code":"35","nom":"Ille-et-Vilaine"},"region":{"code":"53","nom":"Bretagne"}},{"nom":"Dinard","code":"35093","codesPostaux":["35800"],"centre":{"type":"Point","coordinates":[-2.0602,48.629]},"surface":761.87,"population":10407,"departement":{"code":"35","nom":"Ille-et-Vilaine"},"region":{"code":"53","nom":"Bretagne"}},{"nom":"Dingé","code":"35094","codesPostaux":["35440"],"centre":{"type":"Point","coordinates":[-1.7011,48.3414]},"surface":5351.92,"population":1690,"departement":{"code":"35","nom":"Ille-et-Vilaine"},"region":{"code":"53","nom":"Bretagne"}},{"nom":"Dol-de-Bretagne","code":"35095","codesPostaux":["35120"],"centre":{"type":"Point","coordinates":[-1.7467,48.5338]},"surface":1554.58,"population":5786,"departement":{"code":"35","nom":"Ille-et-Vilaine"},"region":{"code":"53","nom":"Bretagne"}},{"nom":"Domagné","code":"35096","codesPostaux":["35113"],"centre":{"type":"Point","coordinates":[-1.4051,48.0654]},"surface":2927.2,"population":2439,"departement":{"code":"35","nom":"Ille-et-Vilaine"},"region":{"code":"53","nom":"Bretagne"}},{"nom":"Domalain","code":"35097","codesPostaux":["35680"],"centre":{"type":"Point","coordinates":[-1.2445,47.9975]},"surface":3353.22,"population":2050,"departement":{"code":"35","nom":"Ille-et-Vilaine"},"region":{"code":"53","nom":"Bretagne"}},{"nom":"La Dominelais","code":"35098","codesPostaux":["35390"],"centre":{"type":"Point","coordinates":[-1.6839,47.758]},"surface":3253.36,"population":1414,"departement":{"code":"35","nom":"Ille-et-Vilaine"},"region":{"code":"53","nom":"Bretagne"}},{"nom":"Domloup","code":"35099","codesPostaux":["35410"],"centre":{"type":"Point","coordinates":[-1.5437,48.0686]},"surface":1841.29,"population":3839,"departement":{"code":"35","nom":"Ille-et-Vilaine"},"region":{"code":"53","nom":"Bretagne"}},{"nom":"Dourdain","code":"35101","codesPostaux":["35450"],"centre":{"type":"Point","coordinates":[-1.3791,48.191]},"surface":1391.18,"population":1225,"departement":{"code":"35","nom":"Ille-et-Vilaine"},"region":{"code":"53","nom":"Bretagne"}},{"nom":"Drouges","code":"35102","codesPostaux":["35130"],"centre":{"type":"Point","coordinates":[-1.2576,47.904]},"surface":1168.9,"population":503,"departement":{"code":"35","nom":"Ille-et-Vilaine"},"region":{"code":"53","nom":"Bretagne"}},{"nom":"Eancé","code":"35103","codesPostaux":["35640"],"centre":{"type":"Point","coordinates":[-1.2483,47.8212]},"surface":1668.94,"population":430,"departement":{"code":"35","nom":"Ille-et-Vilaine"},"region":{"code":"53","nom":"Bretagne"}},{"nom":"Epiniac","code":"35104","codesPostaux":["35120"],"centre":{"type":"Point","coordinates":[-1.7047,48.4974]},"surface":2445.44,"population":1423,"departement":{"code":"35","nom":"Ille-et-Vilaine"},"region":{"code":"53","nom":"Bretagne"}},{"nom":"Erbrée","code":"35105","codesPostaux":["35500"],"centre":{"type":"Point","coordinates":[-1.1084,48.1117]},"surface":3583.86,"population":1713,"departement":{"code":"35","nom":"Ille-et-Vilaine"},"region":{"code":"53","nom":"Bretagne"}},{"nom":"Ercé-en-Lamée","code":"35106","codesPostaux":["35620"],"centre":{"type":"Point","coordinates":[-1.5636,47.8167]},"surface":3930.04,"population":1568,"departement":{"code":"35","nom":"Ille-et-Vilaine"},"region":{"code":"53","nom":"Bretagne"}},{"nom":"Ercé-près-Liffré","code":"35107","codesPostaux":["35340"],"centre":{"type":"Point","coordinates":[-1.5187,48.2544]},"surface":1588.15,"population":2010,"departement":{"code":"35","nom":"Ille-et-Vilaine"},"region":{"code":"53","nom":"Bretagne"}},{"nom":"Essé","code":"35108","codesPostaux":["35150"],"centre":{"type":"Point","coordinates":[-1.4279,47.9512]},"surface":2340.75,"population":1028,"departement":{"code":"35","nom":"Ille-et-Vilaine"},"region":{"code":"53","nom":"Bretagne"}},{"nom":"Étrelles","code":"35109","codesPostaux":["35370"],"centre":{"type":"Point","coordinates":[-1.2104,48.0699]},"surface":2791.43,"population":2670,"departement":{"code":"35","nom":"Ille-et-Vilaine"},"region":{"code":"53","nom":"Bretagne"}},{"nom":"Feins","code":"35110","codesPostaux":["35440"],"centre":{"type":"Point","coordinates":[-1.6274,48.3276]},"surface":2030.36,"population":1066,"departement":{"code":"35","nom":"Ille-et-Vilaine"},"region":{"code":"53","nom":"Bretagne"}},{"nom":"Le Ferré","code":"35111","codesPostaux":["35420"],"centre":{"type":"Point","coordinates":[-1.2936,48.4871]},"surface":1741.56,"population":727,"departement":{"code":"35","nom":"Ille-et-Vilaine"},"region":{"code":"53","nom":"Bretagne"}},{"nom":"Forges-la-Forêt","code":"35114","codesPostaux":["35640"],"centre":{"type":"Point","coordinates":[-1.2917,47.8611]},"surface":613.22,"population":265,"departement":{"code":"35","nom":"Ille-et-Vilaine"},"region":{"code":"53","nom":"Bretagne"}},{"nom":"Fougères","code":"35115","codesPostaux":["35300"],"centre":{"type":"Point","coordinates":[-1.1953,48.3512]},"surface":1042.61,"population":20602,"departement":{"code":"35","nom":"Ille-et-Vilaine"},"region":{"code":"53","nom":"Bretagne"}},{"nom":"La Fresnais","code":"35116","codesPostaux":["35111"],"centre":{"type":"Point","coordinates":[-1.8383,48.5846]},"surface":1439.43,"population":2508,"departement":{"code":"35","nom":"Ille-et-Vilaine"},"region":{"code":"53","nom":"Bretagne"}},{"nom":"Gaël","code":"35117","codesPostaux":["35290"],"centre":{"type":"Point","coordinates":[-2.2346,48.1167]},"surface":5287.17,"population":1617,"departement":{"code":"35","nom":"Ille-et-Vilaine"},"region":{"code":"53","nom":"Bretagne"}},{"nom":"Gahard","code":"35118","codesPostaux":["35490"],"centre":{"type":"Point","coordinates":[-1.5246,48.285]},"surface":2511.77,"population":1523,"departement":{"code":"35","nom":"Ille-et-Vilaine"},"region":{"code":"53","nom":"Bretagne"}},{"nom":"Gennes-sur-Seiche","code":"35119","codesPostaux":["35370"],"centre":{"type":"Point","coordinates":[-1.1274,48.0008]},"surface":1859.19,"population":943,"departement":{"code":"35","nom":"Ille-et-Vilaine"},"region":{"code":"53","nom":"Bretagne"}},{"nom":"Gévezé","code":"35120","codesPostaux":["35850"],"centre":{"type":"Point","coordinates":[-1.7918,48.2075]},"surface":2780.21,"population":5987,"departement":{"code":"35","nom":"Ille-et-Vilaine"},"region":{"code":"53","nom":"Bretagne"}},{"nom":"Gosné","code":"35121","codesPostaux":["35140"],"centre":{"type":"Point","coordinates":[-1.4606,48.2492]},"surface":1840.61,"population":2098,"departement":{"code":"35","nom":"Ille-et-Vilaine"},"region":{"code":"53","nom":"Bretagne"}},{"nom":"La Gouesnière","code":"35122","codesPostaux":["35350"],"centre":{"type":"Point","coordinates":[-1.8901,48.603]},"surface":882.83,"population":2000,"departement":{"code":"35","nom":"Ille-et-Vilaine"},"region":{"code":"53","nom":"Bretagne"}},{"nom":"Goven","code":"35123","codesPostaux":["35580"],"centre":{"type":"Point","coordinates":[-1.8414,48.0143]},"surface":4007.36,"population":4326,"departement":{"code":"35","nom":"Ille-et-Vilaine"},"region":{"code":"53","nom":"Bretagne"}},{"nom":"Grand-Fougeray","code":"35124","codesPostaux":["35390"],"centre":{"type":"Point","coordinates":[-1.7155,47.7381]},"surface":5530.48,"population":2523,"departement":{"code":"35","nom":"Ille-et-Vilaine"},"region":{"code":"53","nom":"Bretagne"}},{"nom":"La Guerche-de-Bretagne","code":"35125","codesPostaux":["35130"],"centre":{"type":"Point","coordinates":[-1.2396,47.9448]},"surface":1168.36,"population":4450,"departement":{"code":"35","nom":"Ille-et-Vilaine"},"region":{"code":"53","nom":"Bretagne"}},{"nom":"Guichen","code":"35126","codesPostaux":["35580"],"centre":{"type":"Point","coordinates":[-1.7969,47.9623]},"surface":4302.29,"population":9203,"departement":{"code":"35","nom":"Ille-et-Vilaine"},"region":{"code":"53","nom":"Bretagne"}},{"nom":"Guignen","code":"35127","codesPostaux":["35580"],"centre":{"type":"Point","coordinates":[-1.8558,47.9276]},"surface":5315.77,"population":4149,"departement":{"code":"35","nom":"Ille-et-Vilaine"},"region":{"code":"53","nom":"Bretagne"}},{"nom":"Guipel","code":"35128","codesPostaux":["35440"],"centre":{"type":"Point","coordinates":[-1.7244,48.2942]},"surface":2549.04,"population":1735,"departement":{"code":"35","nom":"Ille-et-Vilaine"},"region":{"code":"53","nom":"Bretagne"}},{"nom":"Hédé-Bazouges","code":"35130","codesPostaux":["35630"],"centre":{"type":"Point","coordinates":[-1.7777,48.3009]},"surface":1475.77,"population":2273,"departement":{"code":"35","nom":"Ille-et-Vilaine"},"region":{"code":"53","nom":"Bretagne"}},{"nom":"L'Hermitage","code":"35131","codesPostaux":["35590"],"centre":{"type":"Point","coordinates":[-1.8153,48.1226]},"surface":693.97,"population":4683,"departement":{"code":"35","nom":"Ille-et-Vilaine"},"region":{"code":"53","nom":"Bretagne"}},{"nom":"Hirel","code":"35132","codesPostaux":["35120"],"centre":{"type":"Point","coordinates":[-1.8143,48.5935]},"surface":989.27,"population":1384,"departement":{"code":"35","nom":"Ille-et-Vilaine"},"region":{"code":"53","nom":"Bretagne"}},{"nom":"Iffendic","code":"35133","codesPostaux":["35750"],"centre":{"type":"Point","coordinates":[-2.0448,48.1204]},"surface":7481.41,"population":4603,"departement":{"code":"35","nom":"Ille-et-Vilaine"},"region":{"code":"53","nom":"Bretagne"}},{"nom":"Les Iffs","code":"35134","codesPostaux":["35630"],"centre":{"type":"Point","coordinates":[-1.8652,48.2953]},"surface":450.63,"population":274,"departement":{"code":"35","nom":"Ille-et-Vilaine"},"region":{"code":"53","nom":"Bretagne"}},{"nom":"Irodouër","code":"35135","codesPostaux":["35850"],"centre":{"type":"Point","coordinates":[-1.9497,48.2433]},"surface":2359.01,"population":2308,"departement":{"code":"35","nom":"Ille-et-Vilaine"},"region":{"code":"53","nom":"Bretagne"}},{"nom":"Janzé","code":"35136","codesPostaux":["35150"],"centre":{"type":"Point","coordinates":[-1.4979,47.9439]},"surface":4163.83,"population":8618,"departement":{"code":"35","nom":"Ille-et-Vilaine"},"region":{"code":"53","nom":"Bretagne"}},{"nom":"Javené","code":"35137","codesPostaux":["35133"],"centre":{"type":"Point","coordinates":[-1.2116,48.3187]},"surface":1850.4,"population":2185,"departement":{"code":"35","nom":"Ille-et-Vilaine"},"region":{"code":"53","nom":"Bretagne"}},{"nom":"Laignelet","code":"35138","codesPostaux":["35133"],"centre":{"type":"Point","coordinates":[-1.1516,48.3771]},"surface":1504.88,"population":1217,"departement":{"code":"35","nom":"Ille-et-Vilaine"},"region":{"code":"53","nom":"Bretagne"}},{"nom":"Laillé","code":"35139","codesPostaux":["35890"],"centre":{"type":"Point","coordinates":[-1.7101,47.9731]},"surface":3201.99,"population":5154,"departement":{"code":"35","nom":"Ille-et-Vilaine"},"region":{"code":"53","nom":"Bretagne"}},{"nom":"Lalleu","code":"35140","codesPostaux":["35320"],"centre":{"type":"Point","coordinates":[-1.5185,47.854]},"surface":1539.87,"population":581,"departement":{"code":"35","nom":"Ille-et-Vilaine"},"region":{"code":"53","nom":"Bretagne"}},{"nom":"Landavran","code":"35141","codesPostaux":["35450"],"centre":{"type":"Point","coordinates":[-1.2862,48.163]},"surface":520.76,"population":682,"departement":{"code":"35","nom":"Ille-et-Vilaine"},"region":{"code":"53","nom":"Bretagne"}},{"nom":"Landéan","code":"35142","codesPostaux":["35133"],"centre":{"type":"Point","coordinates":[-1.1393,48.4165]},"surface":2825.73,"population":1225,"departement":{"code":"35","nom":"Ille-et-Vilaine"},"region":{"code":"53","nom":"Bretagne"}},{"nom":"Landujan","code":"35143","codesPostaux":["35360"],"centre":{"type":"Point","coordinates":[-2.0057,48.2464]},"surface":1451.8,"population":930,"departement":{"code":"35","nom":"Ille-et-Vilaine"},"region":{"code":"53","nom":"Bretagne"}},{"nom":"Langan","code":"35144","codesPostaux":["35850"],"centre":{"type":"Point","coordinates":[-1.8481,48.237]},"surface":778.85,"population":1090,"departement":{"code":"35","nom":"Ille-et-Vilaine"},"region":{"code":"53","nom":"Bretagne"}},{"nom":"Langon","code":"35145","codesPostaux":["35660"],"centre":{"type":"Point","coordinates":[-1.8699,47.7321]},"surface":3654.25,"population":1393,"departement":{"code":"35","nom":"Ille-et-Vilaine"},"region":{"code":"53","nom":"Bretagne"}},{"nom":"Langouet","code":"35146","codesPostaux":["35630"],"centre":{"type":"Point","coordinates":[-1.8133,48.2561]},"surface":711.76,"population":610,"departement":{"code":"35","nom":"Ille-et-Vilaine"},"region":{"code":"53","nom":"Bretagne"}},{"nom":"Lanrigan","code":"35148","codesPostaux":["35270"],"centre":{"type":"Point","coordinates":[-1.6926,48.3908]},"surface":405.99,"population":144,"departement":{"code":"35","nom":"Ille-et-Vilaine"},"region":{"code":"53","nom":"Bretagne"}},{"nom":"Lassy","code":"35149","codesPostaux":["35580"],"centre":{"type":"Point","coordinates":[-1.8653,47.971]},"surface":985.46,"population":1817,"departement":{"code":"35","nom":"Ille-et-Vilaine"},"region":{"code":"53","nom":"Bretagne"}},{"nom":"Lécousse","code":"35150","codesPostaux":["35133"],"centre":{"type":"Point","coordinates":[-1.2183,48.3584]},"surface":1111.33,"population":3423,"departement":{"code":"35","nom":"Ille-et-Vilaine"},"region":{"code":"53","nom":"Bretagne"}},{"nom":"Lieuron","code":"35151","codesPostaux":["35550"],"centre":{"type":"Point","coordinates":[-1.9369,47.8523]},"surface":1689.13,"population":802,"departement":{"code":"35","nom":"Ille-et-Vilaine"},"region":{"code":"53","nom":"Bretagne"}},{"nom":"Liffré","code":"35152","codesPostaux":["35340"],"centre":{"type":"Point","coordinates":[-1.5064,48.2025]},"surface":6666.14,"population":8987,"departement":{"code":"35","nom":"Ille-et-Vilaine"},"region":{"code":"53","nom":"Bretagne"}},{"nom":"Lillemer","code":"35153","codesPostaux":["35111"],"centre":{"type":"Point","coordinates":[-1.8538,48.5703]},"surface":379.17,"population":383,"departement":{"code":"35","nom":"Ille-et-Vilaine"},"region":{"code":"53","nom":"Bretagne"}},{"nom":"Livré-sur-Changeon","code":"35154","codesPostaux":["35450"],"centre":{"type":"Point","coordinates":[-1.3422,48.2264]},"surface":2675.74,"population":1737,"departement":{"code":"35","nom":"Ille-et-Vilaine"},"region":{"code":"53","nom":"Bretagne"}},{"nom":"Lohéac","code":"35155","codesPostaux":["35550"],"centre":{"type":"Point","coordinates":[-1.8876,47.8719]},"surface":525.83,"population":700,"departement":{"code":"35","nom":"Ille-et-Vilaine"},"region":{"code":"53","nom":"Bretagne"}},{"nom":"Longaulnay","code":"35156","codesPostaux":["35190"],"centre":{"type":"Point","coordinates":[-1.9416,48.3074]},"surface":763.08,"population":598,"departement":{"code":"35","nom":"Ille-et-Vilaine"},"region":{"code":"53","nom":"Bretagne"}},{"nom":"Le Loroux","code":"35157","codesPostaux":["35133"],"centre":{"type":"Point","coordinates":[-1.0811,48.398]},"surface":1142.28,"population":618,"departement":{"code":"35","nom":"Ille-et-Vilaine"},"region":{"code":"53","nom":"Bretagne"}},{"nom":"Lourmais","code":"35159","codesPostaux":["35270"],"centre":{"type":"Point","coordinates":[-1.734,48.4397]},"surface":724.59,"population":335,"departement":{"code":"35","nom":"Ille-et-Vilaine"},"region":{"code":"53","nom":"Bretagne"}},{"nom":"Loutehel","code":"35160","codesPostaux":["35330"],"centre":{"type":"Point","coordinates":[-2.0796,47.9366]},"surface":728.93,"population":235,"departement":{"code":"35","nom":"Ille-et-Vilaine"},"region":{"code":"53","nom":"Bretagne"}},{"nom":"Louvigné-de-Bais","code":"35161","codesPostaux":["35680"],"centre":{"type":"Point","coordinates":[-1.3398,48.0531]},"surface":1571.61,"population":1874,"departement":{"code":"35","nom":"Ille-et-Vilaine"},"region":{"code":"53","nom":"Bretagne"}},{"nom":"Louvigné-du-Désert","code":"35162","codesPostaux":["35420"],"centre":{"type":"Point","coordinates":[-1.1251,48.4859]},"surface":4224.28,"population":3352,"departement":{"code":"35","nom":"Ille-et-Vilaine"},"region":{"code":"53","nom":"Bretagne"}},{"nom":"Luitré-Dompierre","code":"35163","codesPostaux":["35133","35210"],"centre":{"type":"Point","coordinates":[-1.1301,48.2823]},"surface":3912.5,"population":1844,"departement":{"code":"35","nom":"Ille-et-Vilaine"},"region":{"code":"53","nom":"Bretagne"}},{"nom":"Marcillé-Raoul","code":"35164","codesPostaux":["35560"],"centre":{"type":"Point","coordinates":[-1.6161,48.3756]},"surface":2237.15,"population":737,"departement":{"code":"35","nom":"Ille-et-Vilaine"},"region":{"code":"53","nom":"Bretagne"}},{"nom":"Marcillé-Robert","code":"35165","codesPostaux":["35240"],"centre":{"type":"Point","coordinates":[-1.3552,47.9594]},"surface":2060.58,"population":994,"departement":{"code":"35","nom":"Ille-et-Vilaine"},"region":{"code":"53","nom":"Bretagne"}},{"nom":"Marpiré","code":"35166","codesPostaux":["35220"],"centre":{"type":"Point","coordinates":[-1.3541,48.1467]},"surface":1130.39,"population":1013,"departement":{"code":"35","nom":"Ille-et-Vilaine"},"region":{"code":"53","nom":"Bretagne"}},{"nom":"Martigné-Ferchaud","code":"35167","codesPostaux":["35640"],"centre":{"type":"Point","coordinates":[-1.323,47.828]},"surface":7488.61,"population":2632,"departement":{"code":"35","nom":"Ille-et-Vilaine"},"region":{"code":"53","nom":"Bretagne"}},{"nom":"Val d'Anast","code":"35168","codesPostaux":["35330"],"centre":{"type":"Point","coordinates":[-1.9931,47.8981]},"surface":7652.63,"population":3925,"departement":{"code":"35","nom":"Ille-et-Vilaine"},"region":{"code":"53","nom":"Bretagne"}},{"nom":"Maxent","code":"35169","codesPostaux":["35380"],"centre":{"type":"Point","coordinates":[-2.0284,47.9811]},"surface":4010.25,"population":1457,"departement":{"code":"35","nom":"Ille-et-Vilaine"},"region":{"code":"53","nom":"Bretagne"}},{"nom":"Mecé","code":"35170","codesPostaux":["35450"],"centre":{"type":"Point","coordinates":[-1.2908,48.2369]},"surface":1619.97,"population":613,"departement":{"code":"35","nom":"Ille-et-Vilaine"},"region":{"code":"53","nom":"Bretagne"}},{"nom":"Médréac","code":"35171","codesPostaux":["35360"],"centre":{"type":"Point","coordinates":[-2.0632,48.2613]},"surface":3535.23,"population":1845,"departement":{"code":"35","nom":"Ille-et-Vilaine"},"region":{"code":"53","nom":"Bretagne"}},{"nom":"Meillac","code":"35172","codesPostaux":["35270"],"centre":{"type":"Point","coordinates":[-1.8268,48.4285]},"surface":3259.41,"population":1975,"departement":{"code":"35","nom":"Ille-et-Vilaine"},"region":{"code":"53","nom":"Bretagne"}},{"nom":"Melesse","code":"35173","codesPostaux":["35520"],"centre":{"type":"Point","coordinates":[-1.6887,48.2192]},"surface":3251.07,"population":7400,"departement":{"code":"35","nom":"Ille-et-Vilaine"},"region":{"code":"53","nom":"Bretagne"}},{"nom":"Mellé","code":"35174","codesPostaux":["35420"],"centre":{"type":"Point","coordinates":[-1.1912,48.4844]},"surface":1581.69,"population":648,"departement":{"code":"35","nom":"Ille-et-Vilaine"},"region":{"code":"53","nom":"Bretagne"}},{"nom":"Mernel","code":"35175","codesPostaux":["35330"],"centre":{"type":"Point","coordinates":[-1.9494,47.8993]},"surface":1676.65,"population":1017,"departement":{"code":"35","nom":"Ille-et-Vilaine"},"region":{"code":"53","nom":"Bretagne"}},{"nom":"Guipry-Messac","code":"35176","codesPostaux":["35480"],"centre":{"type":"Point","coordinates":[-1.8318,47.8257]},"surface":9226.87,"population":7243,"departement":{"code":"35","nom":"Ille-et-Vilaine"},"region":{"code":"53","nom":"Bretagne"}},{"nom":"La Mézière","code":"35177","codesPostaux":["35520"],"centre":{"type":"Point","coordinates":[-1.7504,48.2135]},"surface":1642.41,"population":4935,"departement":{"code":"35","nom":"Ille-et-Vilaine"},"region":{"code":"53","nom":"Bretagne"}},{"nom":"Mézières-sur-Couesnon","code":"35178","codesPostaux":["35140"],"centre":{"type":"Point","coordinates":[-1.4368,48.2974]},"surface":2520.87,"population":1735,"departement":{"code":"35","nom":"Ille-et-Vilaine"},"region":{"code":"53","nom":"Bretagne"}},{"nom":"Miniac-Morvan","code":"35179","codesPostaux":["35540"],"centre":{"type":"Point","coordinates":[-1.896,48.5215]},"surface":3162.62,"population":4379,"departement":{"code":"35","nom":"Ille-et-Vilaine"},"region":{"code":"53","nom":"Bretagne"}},{"nom":"Miniac-sous-Bécherel","code":"35180","codesPostaux":["35190"],"centre":{"type":"Point","coordinates":[-1.9301,48.2789]},"surface":1357.79,"population":788,"departement":{"code":"35","nom":"Ille-et-Vilaine"},"region":{"code":"53","nom":"Bretagne"}},{"nom":"Le Minihic-sur-Rance","code":"35181","codesPostaux":["35870"],"centre":{"type":"Point","coordinates":[-2.011,48.5737]},"surface":386.88,"population":1499,"departement":{"code":"35","nom":"Ille-et-Vilaine"},"region":{"code":"53","nom":"Bretagne"}},{"nom":"Mondevert","code":"35183","codesPostaux":["35370"],"centre":{"type":"Point","coordinates":[-1.093,48.0863]},"surface":508.19,"population":806,"departement":{"code":"35","nom":"Ille-et-Vilaine"},"region":{"code":"53","nom":"Bretagne"}},{"nom":"Montauban-de-Bretagne","code":"35184","codesPostaux":["35360"],"centre":{"type":"Point","coordinates":[-2.0618,48.2075]},"surface":4607.68,"population":6574,"departement":{"code":"35","nom":"Ille-et-Vilaine"},"region":{"code":"53","nom":"Bretagne"}},{"nom":"Montautour","code":"35185","codesPostaux":["35210"],"centre":{"type":"Point","coordinates":[-1.1218,48.206]},"surface":692.04,"population":268,"departement":{"code":"35","nom":"Ille-et-Vilaine"},"region":{"code":"53","nom":"Bretagne"}},{"nom":"Mont-Dol","code":"35186","codesPostaux":["35120"],"centre":{"type":"Point","coordinates":[-1.7578,48.5713]},"surface":2639.17,"population":1076,"departement":{"code":"35","nom":"Ille-et-Vilaine"},"region":{"code":"53","nom":"Bretagne"}},{"nom":"Monterfil","code":"35187","codesPostaux":["35160"],"centre":{"type":"Point","coordinates":[-1.99,48.0623]},"surface":1730.23,"population":1352,"departement":{"code":"35","nom":"Ille-et-Vilaine"},"region":{"code":"53","nom":"Bretagne"}},{"nom":"Montfort-sur-Meu","code":"35188","codesPostaux":["35160"],"centre":{"type":"Point","coordinates":[-1.9582,48.1273]},"surface":1404.94,"population":6767,"departement":{"code":"35","nom":"Ille-et-Vilaine"},"region":{"code":"53","nom":"Bretagne"}},{"nom":"Montgermont","code":"35189","codesPostaux":["35760"],"centre":{"type":"Point","coordinates":[-1.7167,48.1547]},"surface":468.4,"population":3777,"departement":{"code":"35","nom":"Ille-et-Vilaine"},"region":{"code":"53","nom":"Bretagne"}},{"nom":"Monthault","code":"35190","codesPostaux":["35420"],"centre":{"type":"Point","coordinates":[-1.1771,48.5104]},"surface":834.98,"population":250,"departement":{"code":"35","nom":"Ille-et-Vilaine"},"region":{"code":"53","nom":"Bretagne"}},{"nom":"Les Portes du Coglais","code":"35191","codesPostaux":["35460"],"centre":{"type":"Point","coordinates":[-1.3403,48.4523]},"surface":4116.5,"population":2235,"departement":{"code":"35","nom":"Ille-et-Vilaine"},"region":{"code":"53","nom":"Bretagne"}},{"nom":"Montreuil-des-Landes","code":"35192","codesPostaux":["35210"],"centre":{"type":"Point","coordinates":[-1.225,48.2526]},"surface":940.63,"population":235,"departement":{"code":"35","nom":"Ille-et-Vilaine"},"region":{"code":"53","nom":"Bretagne"}},{"nom":"Montreuil-le-Gast","code":"35193","codesPostaux":["35520"],"centre":{"type":"Point","coordinates":[-1.7173,48.2414]},"surface":921.86,"population":2048,"departement":{"code":"35","nom":"Ille-et-Vilaine"},"region":{"code":"53","nom":"Bretagne"}},{"nom":"Montreuil-sous-Pérouse","code":"35194","codesPostaux":["35500"],"centre":{"type":"Point","coordinates":[-1.2381,48.1537]},"surface":1612.98,"population":1041,"departement":{"code":"35","nom":"Ille-et-Vilaine"},"region":{"code":"53","nom":"Bretagne"}},{"nom":"Montreuil-sur-Ille","code":"35195","codesPostaux":["35440"],"centre":{"type":"Point","coordinates":[-1.668,48.3053]},"surface":1527.18,"population":2419,"departement":{"code":"35","nom":"Ille-et-Vilaine"},"region":{"code":"53","nom":"Bretagne"}},{"nom":"Mordelles","code":"35196","codesPostaux":["35310"],"centre":{"type":"Point","coordinates":[-1.8515,48.0853]},"surface":3014.62,"population":7831,"departement":{"code":"35","nom":"Ille-et-Vilaine"},"region":{"code":"53","nom":"Bretagne"}},{"nom":"Mouazé","code":"35197","codesPostaux":["35250"],"centre":{"type":"Point","coordinates":[-1.6085,48.2191]},"surface":834.3,"population":1728,"departement":{"code":"35","nom":"Ille-et-Vilaine"},"region":{"code":"53","nom":"Bretagne"}},{"nom":"Moulins","code":"35198","codesPostaux":["35680"],"centre":{"type":"Point","coordinates":[-1.3667,48.0079]},"surface":1538.34,"population":716,"departement":{"code":"35","nom":"Ille-et-Vilaine"},"region":{"code":"53","nom":"Bretagne"}},{"nom":"Moussé","code":"35199","codesPostaux":["35130"],"centre":{"type":"Point","coordinates":[-1.2773,47.9169]},"surface":344.74,"population":310,"departement":{"code":"35","nom":"Ille-et-Vilaine"},"region":{"code":"53","nom":"Bretagne"}},{"nom":"Moutiers","code":"35200","codesPostaux":["35130"],"centre":{"type":"Point","coordinates":[-1.2055,47.976]},"surface":1789.54,"population":905,"departement":{"code":"35","nom":"Ille-et-Vilaine"},"region":{"code":"53","nom":"Bretagne"}},{"nom":"Muel","code":"35201","codesPostaux":["35290"],"centre":{"type":"Point","coordinates":[-2.1575,48.116]},"surface":2926.96,"population":912,"departement":{"code":"35","nom":"Ille-et-Vilaine"},"region":{"code":"53","nom":"Bretagne"}},{"nom":"La Noë-Blanche","code":"35202","codesPostaux":["35470"],"centre":{"type":"Point","coordinates":[-1.7442,47.7988]},"surface":2309.49,"population":1007,"departement":{"code":"35","nom":"Ille-et-Vilaine"},"region":{"code":"53","nom":"Bretagne"}},{"nom":"La Nouaye","code":"35203","codesPostaux":["35137"],"centre":{"type":"Point","coordinates":[-1.9756,48.1663]},"surface":272.49,"population":357,"departement":{"code":"35","nom":"Ille-et-Vilaine"},"region":{"code":"53","nom":"Bretagne"}},{"nom":"Nouvoitou","code":"35204","codesPostaux":["35410"],"centre":{"type":"Point","coordinates":[-1.5504,48.0292]},"surface":1939.54,"population":3732,"departement":{"code":"35","nom":"Ille-et-Vilaine"},"region":{"code":"53","nom":"Bretagne"}},{"nom":"Noyal-sous-Bazouges","code":"35205","codesPostaux":["35560"],"centre":{"type":"Point","coordinates":[-1.6207,48.4191]},"surface":1502.3,"population":382,"departement":{"code":"35","nom":"Ille-et-Vilaine"},"region":{"code":"53","nom":"Bretagne"}},{"nom":"Noyal-Châtillon-sur-Seiche","code":"35206","codesPostaux":["35230"],"centre":{"type":"Point","coordinates":[-1.661,48.053]},"surface":2644.64,"population":7995,"departement":{"code":"35","nom":"Ille-et-Vilaine"},"region":{"code":"53","nom":"Bretagne"}},{"nom":"Noyal-sur-Vilaine","code":"35207","codesPostaux":["35530"],"centre":{"type":"Point","coordinates":[-1.5026,48.0949]},"surface":3122.4,"population":6250,"departement":{"code":"35","nom":"Ille-et-Vilaine"},"region":{"code":"53","nom":"Bretagne"}},{"nom":"Orgères","code":"35208","codesPostaux":["35230"],"centre":{"type":"Point","coordinates":[-1.6625,47.9861]},"surface":1678,"population":5602,"departement":{"code":"35","nom":"Ille-et-Vilaine"},"region":{"code":"53","nom":"Bretagne"}},{"nom":"Pacé","code":"35210","codesPostaux":["35740"],"centre":{"type":"Point","coordinates":[-1.7744,48.1535]},"surface":3494.36,"population":11815,"departement":{"code":"35","nom":"Ille-et-Vilaine"},"region":{"code":"53","nom":"Bretagne"}},{"nom":"Paimpont","code":"35211","codesPostaux":["35380"],"centre":{"type":"Point","coordinates":[-2.1793,48.0327]},"surface":11032.17,"population":1778,"departement":{"code":"35","nom":"Ille-et-Vilaine"},"region":{"code":"53","nom":"Bretagne"}},{"nom":"Pancé","code":"35212","codesPostaux":["35320"],"centre":{"type":"Point","coordinates":[-1.643,47.889]},"surface":1976.97,"population":1171,"departement":{"code":"35","nom":"Ille-et-Vilaine"},"region":{"code":"53","nom":"Bretagne"}},{"nom":"Parcé","code":"35214","codesPostaux":["35210"],"centre":{"type":"Point","coordinates":[-1.1946,48.2727]},"surface":1718.79,"population":652,"departement":{"code":"35","nom":"Ille-et-Vilaine"},"region":{"code":"53","nom":"Bretagne"}},{"nom":"Parigné","code":"35215","codesPostaux":["35133"],"centre":{"type":"Point","coordinates":[-1.1999,48.4205]},"surface":2018.46,"population":1301,"departement":{"code":"35","nom":"Ille-et-Vilaine"},"region":{"code":"53","nom":"Bretagne"}},{"nom":"Parthenay-de-Bretagne","code":"35216","codesPostaux":["35850"],"centre":{"type":"Point","coordinates":[-1.829,48.1882]},"surface":486.73,"population":1802,"departement":{"code":"35","nom":"Ille-et-Vilaine"},"region":{"code":"53","nom":"Bretagne"}},{"nom":"Le Pertre","code":"35217","codesPostaux":["35370"],"centre":{"type":"Point","coordinates":[-1.0573,48.0342]},"surface":4360.22,"population":1372,"departement":{"code":"35","nom":"Ille-et-Vilaine"},"region":{"code":"53","nom":"Bretagne"}},{"nom":"Le Petit-Fougeray","code":"35218","codesPostaux":["35320"],"centre":{"type":"Point","coordinates":[-1.6135,47.9285]},"surface":909.18,"population":886,"departement":{"code":"35","nom":"Ille-et-Vilaine"},"region":{"code":"53","nom":"Bretagne"}},{"nom":"Pipriac","code":"35219","codesPostaux":["35550"],"centre":{"type":"Point","coordinates":[-1.9416,47.8147]},"surface":4931.16,"population":3871,"departement":{"code":"35","nom":"Ille-et-Vilaine"},"region":{"code":"53","nom":"Bretagne"}},{"nom":"Piré-Chancé","code":"35220","codesPostaux":["35150","35680"],"centre":{"type":"Point","coordinates":[-1.406,48.0146]},"surface":4186.88,"population":3177,"departement":{"code":"35","nom":"Ille-et-Vilaine"},"region":{"code":"53","nom":"Bretagne"}},{"nom":"Pléchâtel","code":"35221","codesPostaux":["35470"],"centre":{"type":"Point","coordinates":[-1.7224,47.8759]},"surface":3622.67,"population":2796,"departement":{"code":"35","nom":"Ille-et-Vilaine"},"region":{"code":"53","nom":"Bretagne"}},{"nom":"Pleine-Fougères","code":"35222","codesPostaux":["35610"],"centre":{"type":"Point","coordinates":[-1.5722,48.5317]},"surface":3257.61,"population":1978,"departement":{"code":"35","nom":"Ille-et-Vilaine"},"region":{"code":"53","nom":"Bretagne"}},{"nom":"Plélan-le-Grand","code":"35223","codesPostaux":["35380"],"centre":{"type":"Point","coordinates":[-2.0765,47.9987]},"surface":5009.19,"population":4063,"departement":{"code":"35","nom":"Ille-et-Vilaine"},"region":{"code":"53","nom":"Bretagne"}},{"nom":"Plerguer","code":"35224","codesPostaux":["35540"],"centre":{"type":"Point","coordinates":[-1.8478,48.534]},"surface":2027.22,"population":2871,"departement":{"code":"35","nom":"Ille-et-Vilaine"},"region":{"code":"53","nom":"Bretagne"}},{"nom":"Plesder","code":"35225","codesPostaux":["35720"],"centre":{"type":"Point","coordinates":[-1.9328,48.4162]},"surface":1122.79,"population":778,"departement":{"code":"35","nom":"Ille-et-Vilaine"},"region":{"code":"53","nom":"Bretagne"}},{"nom":"Pleugueneuc","code":"35226","codesPostaux":["35720"],"centre":{"type":"Point","coordinates":[-1.8851,48.4054]},"surface":2480.1,"population":2063,"departement":{"code":"35","nom":"Ille-et-Vilaine"},"region":{"code":"53","nom":"Bretagne"}},{"nom":"Pleumeleuc","code":"35227","codesPostaux":["35137"],"centre":{"type":"Point","coordinates":[-1.8889,48.1793]},"surface":1969.09,"population":3535,"departement":{"code":"35","nom":"Ille-et-Vilaine"},"region":{"code":"53","nom":"Bretagne"}},{"nom":"Pleurtuit","code":"35228","codesPostaux":["35730"],"centre":{"type":"Point","coordinates":[-2.0696,48.5791]},"surface":2884.74,"population":7064,"departement":{"code":"35","nom":"Ille-et-Vilaine"},"region":{"code":"53","nom":"Bretagne"}},{"nom":"Pocé-les-Bois","code":"35229","codesPostaux":["35500"],"centre":{"type":"Point","coordinates":[-1.2612,48.113]},"surface":1492.94,"population":1317,"departement":{"code":"35","nom":"Ille-et-Vilaine"},"region":{"code":"53","nom":"Bretagne"}},{"nom":"Poilley","code":"35230","codesPostaux":["35420"],"centre":{"type":"Point","coordinates":[-1.2546,48.4664]},"surface":1085.3,"population":380,"departement":{"code":"35","nom":"Ille-et-Vilaine"},"region":{"code":"53","nom":"Bretagne"}},{"nom":"Poligné","code":"35231","codesPostaux":["35320"],"centre":{"type":"Point","coordinates":[-1.6853,47.9001]},"surface":951.94,"population":1245,"departement":{"code":"35","nom":"Ille-et-Vilaine"},"region":{"code":"53","nom":"Bretagne"}},{"nom":"Princé","code":"35232","codesPostaux":["35210"],"centre":{"type":"Point","coordinates":[-1.1028,48.2393]},"surface":1232.99,"population":398,"departement":{"code":"35","nom":"Ille-et-Vilaine"},"region":{"code":"53","nom":"Bretagne"}},{"nom":"Québriac","code":"35233","codesPostaux":["35190"],"centre":{"type":"Point","coordinates":[-1.8106,48.3579]},"surface":2084.54,"population":1590,"departement":{"code":"35","nom":"Ille-et-Vilaine"},"region":{"code":"53","nom":"Bretagne"}},{"nom":"Quédillac","code":"35234","codesPostaux":["35290"],"centre":{"type":"Point","coordinates":[-2.1422,48.2386]},"surface":2683.57,"population":1272,"departement":{"code":"35","nom":"Ille-et-Vilaine"},"region":{"code":"53","nom":"Bretagne"}},{"nom":"Rannée","code":"35235","codesPostaux":["35130"],"centre":{"type":"Point","coordinates":[-1.233,47.9063]},"surface":5248.23,"population":1081,"departement":{"code":"35","nom":"Ille-et-Vilaine"},"region":{"code":"53","nom":"Bretagne"}},{"nom":"Redon","code":"35236","codesPostaux":["35600"],"centre":{"type":"Point","coordinates":[-2.0787,47.6557]},"surface":1529.78,"population":9336,"departement":{"code":"35","nom":"Ille-et-Vilaine"},"region":{"code":"53","nom":"Bretagne"}},{"nom":"Renac","code":"35237","codesPostaux":["35660"],"centre":{"type":"Point","coordinates":[-1.9769,47.722]},"surface":2620.13,"population":1032,"departement":{"code":"35","nom":"Ille-et-Vilaine"},"region":{"code":"53","nom":"Bretagne"}},{"nom":"Rennes","code":"35238","codesPostaux":["35000","35200","35700"],"centre":{"type":"Point","coordinates":[-1.6884,48.1159]},"surface":5033.19,"population":227830,"departement":{"code":"35","nom":"Ille-et-Vilaine"},"region":{"code":"53","nom":"Bretagne"}},{"nom":"Retiers","code":"35239","codesPostaux":["35240"],"centre":{"type":"Point","coordinates":[-1.3512,47.9093]},"surface":4211.38,"population":4553,"departement":{"code":"35","nom":"Ille-et-Vilaine"},"region":{"code":"53","nom":"Bretagne"}},{"nom":"Le Rheu","code":"35240","codesPostaux":["35650"],"centre":{"type":"Point","coordinates":[-1.7882,48.0971]},"surface":1914.87,"population":9823,"departement":{"code":"35","nom":"Ille-et-Vilaine"},"region":{"code":"53","nom":"Bretagne"}},{"nom":"La Richardais","code":"35241","codesPostaux":["35780"],"centre":{"type":"Point","coordinates":[-2.043,48.61]},"surface":315.72,"population":2624,"departement":{"code":"35","nom":"Ille-et-Vilaine"},"region":{"code":"53","nom":"Bretagne"}},{"nom":"Rimou","code":"35242","codesPostaux":["35560"],"centre":{"type":"Point","coordinates":[-1.5305,48.3869]},"surface":1345.5,"population":350,"departement":{"code":"35","nom":"Ille-et-Vilaine"},"region":{"code":"53","nom":"Bretagne"}},{"nom":"Romagné","code":"35243","codesPostaux":["35133"],"centre":{"type":"Point","coordinates":[-1.259,48.3446]},"surface":2696.24,"population":2434,"departement":{"code":"35","nom":"Ille-et-Vilaine"},"region":{"code":"53","nom":"Bretagne"}},{"nom":"Romazy","code":"35244","codesPostaux":["35490"],"centre":{"type":"Point","coordinates":[-1.4926,48.3834]},"surface":722.82,"population":275,"departement":{"code":"35","nom":"Ille-et-Vilaine"},"region":{"code":"53","nom":"Bretagne"}},{"nom":"Romillé","code":"35245","codesPostaux":["35850"],"centre":{"type":"Point","coordinates":[-1.874,48.2272]},"surface":2896.87,"population":4154,"departement":{"code":"35","nom":"Ille-et-Vilaine"},"region":{"code":"53","nom":"Bretagne"}},{"nom":"Roz-Landrieux","code":"35246","codesPostaux":["35120"],"centre":{"type":"Point","coordinates":[-1.8203,48.5472]},"surface":1806.16,"population":1376,"departement":{"code":"35","nom":"Ille-et-Vilaine"},"region":{"code":"53","nom":"Bretagne"}},{"nom":"Roz-sur-Couesnon","code":"35247","codesPostaux":["35610"],"centre":{"type":"Point","coordinates":[-1.596,48.5926]},"surface":2601.39,"population":1036,"departement":{"code":"35","nom":"Ille-et-Vilaine"},"region":{"code":"53","nom":"Bretagne"}},{"nom":"Sains","code":"35248","codesPostaux":["35610"],"centre":{"type":"Point","coordinates":[-1.5968,48.5557]},"surface":1044.12,"population":457,"departement":{"code":"35","nom":"Ille-et-Vilaine"},"region":{"code":"53","nom":"Bretagne"}},{"nom":"Sainte-Anne-sur-Vilaine","code":"35249","codesPostaux":["35390"],"centre":{"type":"Point","coordinates":[-1.8081,47.7363]},"surface":2875.07,"population":1032,"departement":{"code":"35","nom":"Ille-et-Vilaine"},"region":{"code":"53","nom":"Bretagne"}},{"nom":"Saint-Armel","code":"35250","codesPostaux":["35230"],"centre":{"type":"Point","coordinates":[-1.5765,48.0138]},"surface":789.18,"population":2344,"departement":{"code":"35","nom":"Ille-et-Vilaine"},"region":{"code":"53","nom":"Bretagne"}},{"nom":"Saint-Aubin-d'Aubigné","code":"35251","codesPostaux":["35250"],"centre":{"type":"Point","coordinates":[-1.6002,48.2618]},"surface":2336.38,"population":4231,"departement":{"code":"35","nom":"Ille-et-Vilaine"},"region":{"code":"53","nom":"Bretagne"}},{"nom":"Saint-Aubin-des-Landes","code":"35252","codesPostaux":["35500"],"centre":{"type":"Point","coordinates":[-1.2936,48.099]},"surface":1033.64,"population":923,"departement":{"code":"35","nom":"Ille-et-Vilaine"},"region":{"code":"53","nom":"Bretagne"}},{"nom":"Saint-Aubin-du-Cormier","code":"35253","codesPostaux":["35140"],"centre":{"type":"Point","coordinates":[-1.4239,48.2559]},"surface":2755.5,"population":4145,"departement":{"code":"35","nom":"Ille-et-Vilaine"},"region":{"code":"53","nom":"Bretagne"}},{"nom":"Saint-Benoît-des-Ondes","code":"35255","codesPostaux":["35114"],"centre":{"type":"Point","coordinates":[-1.86,48.6135]},"surface":297.19,"population":966,"departement":{"code":"35","nom":"Ille-et-Vilaine"},"region":{"code":"53","nom":"Bretagne"}},{"nom":"Saint-Briac-sur-Mer","code":"35256","codesPostaux":["35800"],"centre":{"type":"Point","coordinates":[-2.13,48.6172]},"surface":813.87,"population":2228,"departement":{"code":"35","nom":"Ille-et-Vilaine"},"region":{"code":"53","nom":"Bretagne"}},{"nom":"Maen Roch","code":"35257","codesPostaux":["35460"],"centre":{"type":"Point","coordinates":[-1.3484,48.3975]},"surface":3949.57,"population":5093,"departement":{"code":"35","nom":"Ille-et-Vilaine"},"region":{"code":"53","nom":"Bretagne"}},{"nom":"Saint-Brieuc-des-Iffs","code":"35258","codesPostaux":["35630"],"centre":{"type":"Point","coordinates":[-1.8446,48.3033]},"surface":822.78,"population":323,"departement":{"code":"35","nom":"Ille-et-Vilaine"},"region":{"code":"53","nom":"Bretagne"}},{"nom":"Saint-Broladre","code":"35259","codesPostaux":["35120"],"centre":{"type":"Point","coordinates":[-1.6641,48.5786]},"surface":2413.25,"population":1166,"departement":{"code":"35","nom":"Ille-et-Vilaine"},"region":{"code":"53","nom":"Bretagne"}},{"nom":"Saint-Christophe-des-Bois","code":"35260","codesPostaux":["35210"],"centre":{"type":"Point","coordinates":[-1.2365,48.227]},"surface":926.88,"population":562,"departement":{"code":"35","nom":"Ille-et-Vilaine"},"region":{"code":"53","nom":"Bretagne"}},{"nom":"Saint-Christophe-de-Valains","code":"35261","codesPostaux":["35140"],"centre":{"type":"Point","coordinates":[-1.4491,48.3414]},"surface":329.33,"population":230,"departement":{"code":"35","nom":"Ille-et-Vilaine"},"region":{"code":"53","nom":"Bretagne"}},{"nom":"Sainte-Colombe","code":"35262","codesPostaux":["35134"],"centre":{"type":"Point","coordinates":[-1.4581,47.8961]},"surface":775.17,"population":364,"departement":{"code":"35","nom":"Ille-et-Vilaine"},"region":{"code":"53","nom":"Bretagne"}},{"nom":"Saint-Coulomb","code":"35263","codesPostaux":["35350"],"centre":{"type":"Point","coordinates":[-1.9236,48.6807]},"surface":1802.27,"population":2970,"departement":{"code":"35","nom":"Ille-et-Vilaine"},"region":{"code":"53","nom":"Bretagne"}},{"nom":"Saint-Didier","code":"35264","codesPostaux":["35220"],"centre":{"type":"Point","coordinates":[-1.3606,48.0913]},"surface":1419.02,"population":2030,"departement":{"code":"35","nom":"Ille-et-Vilaine"},"region":{"code":"53","nom":"Bretagne"}},{"nom":"Saint-Domineuc","code":"35265","codesPostaux":["35190"],"centre":{"type":"Point","coordinates":[-1.8695,48.3611]},"surface":1575.14,"population":2587,"departement":{"code":"35","nom":"Ille-et-Vilaine"},"region":{"code":"53","nom":"Bretagne"}},{"nom":"Saint-Erblon","code":"35266","codesPostaux":["35230"],"centre":{"type":"Point","coordinates":[-1.6465,48.02]},"surface":1094.05,"population":3615,"departement":{"code":"35","nom":"Ille-et-Vilaine"},"region":{"code":"53","nom":"Bretagne"}},{"nom":"Saint-Ganton","code":"35268","codesPostaux":["35550"],"centre":{"type":"Point","coordinates":[-1.8981,47.7681]},"surface":1416.33,"population":414,"departement":{"code":"35","nom":"Ille-et-Vilaine"},"region":{"code":"53","nom":"Bretagne"}},{"nom":"Saint-Georges-de-Gréhaigne","code":"35270","codesPostaux":["35610"],"centre":{"type":"Point","coordinates":[-1.547,48.5823]},"surface":1223.77,"population":377,"departement":{"code":"35","nom":"Ille-et-Vilaine"},"region":{"code":"53","nom":"Bretagne"}},{"nom":"Saint-Georges-de-Reintembault","code":"35271","codesPostaux":["35420"],"centre":{"type":"Point","coordinates":[-1.2324,48.5068]},"surface":3154.77,"population":1524,"departement":{"code":"35","nom":"Ille-et-Vilaine"},"region":{"code":"53","nom":"Bretagne"}},{"nom":"Saint-Germain-du-Pinel","code":"35272","codesPostaux":["35370"],"centre":{"type":"Point","coordinates":[-1.1726,48.0028]},"surface":1128.77,"population":1007,"departement":{"code":"35","nom":"Ille-et-Vilaine"},"region":{"code":"53","nom":"Bretagne"}},{"nom":"Saint-Germain-en-Coglès","code":"35273","codesPostaux":["35133"],"centre":{"type":"Point","coordinates":[-1.2556,48.4016]},"surface":3255.34,"population":2091,"departement":{"code":"35","nom":"Ille-et-Vilaine"},"region":{"code":"53","nom":"Bretagne"}},{"nom":"Saint-Germain-sur-Ille","code":"35274","codesPostaux":["35250"],"centre":{"type":"Point","coordinates":[-1.6514,48.2494]},"surface":389.47,"population":1023,"departement":{"code":"35","nom":"Ille-et-Vilaine"},"region":{"code":"53","nom":"Bretagne"}},{"nom":"Saint-Gilles","code":"35275","codesPostaux":["35590"],"centre":{"type":"Point","coordinates":[-1.85,48.1517]},"surface":2096.22,"population":5489,"departement":{"code":"35","nom":"Ille-et-Vilaine"},"region":{"code":"53","nom":"Bretagne"}},{"nom":"Saint-Gondran","code":"35276","codesPostaux":["35630"],"centre":{"type":"Point","coordinates":[-1.823,48.2693]},"surface":444.34,"population":629,"departement":{"code":"35","nom":"Ille-et-Vilaine"},"region":{"code":"53","nom":"Bretagne"}},{"nom":"Saint-Gonlay","code":"35277","codesPostaux":["35750"],"centre":{"type":"Point","coordinates":[-2.0738,48.1121]},"surface":926.08,"population":381,"departement":{"code":"35","nom":"Ille-et-Vilaine"},"region":{"code":"53","nom":"Bretagne"}},{"nom":"Saint-Grégoire","code":"35278","codesPostaux":["35760"],"centre":{"type":"Point","coordinates":[-1.6815,48.1598]},"surface":1750.17,"population":9992,"departement":{"code":"35","nom":"Ille-et-Vilaine"},"region":{"code":"53","nom":"Bretagne"}},{"nom":"Saint-Guinoux","code":"35279","codesPostaux":["35430"],"centre":{"type":"Point","coordinates":[-1.8894,48.5793]},"surface":649.9,"population":1247,"departement":{"code":"35","nom":"Ille-et-Vilaine"},"region":{"code":"53","nom":"Bretagne"}},{"nom":"Saint-Hilaire-des-Landes","code":"35280","codesPostaux":["35140"],"centre":{"type":"Point","coordinates":[-1.371,48.3378]},"surface":1852.13,"population":1032,"departement":{"code":"35","nom":"Ille-et-Vilaine"},"region":{"code":"53","nom":"Bretagne"}},{"nom":"Saint-Jacques-de-la-Lande","code":"35281","codesPostaux":["35136"],"centre":{"type":"Point","coordinates":[-1.7252,48.0779]},"surface":1234.05,"population":13593,"departement":{"code":"35","nom":"Ille-et-Vilaine"},"region":{"code":"53","nom":"Bretagne"}},{"nom":"Rives-du-Couesnon","code":"35282","codesPostaux":["35140"],"centre":{"type":"Point","coordinates":[-1.3421,48.2878]},"surface":4913.17,"population":2919,"departement":{"code":"35","nom":"Ille-et-Vilaine"},"region":{"code":"53","nom":"Bretagne"}},{"nom":"Saint-Jean-sur-Vilaine","code":"35283","codesPostaux":["35220"],"centre":{"type":"Point","coordinates":[-1.3349,48.1225]},"surface":1078,"population":1376,"departement":{"code":"35","nom":"Ille-et-Vilaine"},"region":{"code":"53","nom":"Bretagne"}},{"nom":"Saint-Jouan-des-Guérets","code":"35284","codesPostaux":["35430"],"centre":{"type":"Point","coordinates":[-1.9667,48.6043]},"surface":925.03,"population":2816,"departement":{"code":"35","nom":"Ille-et-Vilaine"},"region":{"code":"53","nom":"Bretagne"}},{"nom":"Saint-Just","code":"35285","codesPostaux":["35550"],"centre":{"type":"Point","coordinates":[-1.9651,47.7673]},"surface":2798.55,"population":1103,"departement":{"code":"35","nom":"Ille-et-Vilaine"},"region":{"code":"53","nom":"Bretagne"}},{"nom":"Saint-Léger-des-Prés","code":"35286","codesPostaux":["35270"],"centre":{"type":"Point","coordinates":[-1.6568,48.3881]},"surface":559.69,"population":295,"departement":{"code":"35","nom":"Ille-et-Vilaine"},"region":{"code":"53","nom":"Bretagne"}},{"nom":"Saint-Lunaire","code":"35287","codesPostaux":["35800"],"centre":{"type":"Point","coordinates":[-2.1004,48.62]},"surface":1037.12,"population":2647,"departement":{"code":"35","nom":"Ille-et-Vilaine"},"region":{"code":"53","nom":"Bretagne"}},{"nom":"Saint-Malo","code":"35288","codesPostaux":["35400"],"centre":{"type":"Point","coordinates":[-2.0066,48.6465]},"surface":3640.72,"population":47255,"departement":{"code":"35","nom":"Ille-et-Vilaine"},"region":{"code":"53","nom":"Bretagne"}},{"nom":"Saint-Malo-de-Phily","code":"35289","codesPostaux":["35480"],"centre":{"type":"Point","coordinates":[-1.8091,47.8649]},"surface":1882.22,"population":1074,"departement":{"code":"35","nom":"Ille-et-Vilaine"},"region":{"code":"53","nom":"Bretagne"}},{"nom":"Saint-Malon-sur-Mel","code":"35290","codesPostaux":["35750"],"centre":{"type":"Point","coordinates":[-2.1096,48.0932]},"surface":1625.28,"population":613,"departement":{"code":"35","nom":"Ille-et-Vilaine"},"region":{"code":"53","nom":"Bretagne"}},{"nom":"Saint-Marcan","code":"35291","codesPostaux":["35120"],"centre":{"type":"Point","coordinates":[-1.628,48.5855]},"surface":772.31,"population":432,"departement":{"code":"35","nom":"Ille-et-Vilaine"},"region":{"code":"53","nom":"Bretagne"}},{"nom":"Saint-Marc-le-Blanc","code":"35292","codesPostaux":["35460"],"centre":{"type":"Point","coordinates":[-1.4015,48.374]},"surface":2298.08,"population":1567,"departement":{"code":"35","nom":"Ille-et-Vilaine"},"region":{"code":"53","nom":"Bretagne"}},{"nom":"Sainte-Marie","code":"35294","codesPostaux":["35600"],"centre":{"type":"Point","coordinates":[-2.0181,47.6958]},"surface":2504.96,"population":2249,"departement":{"code":"35","nom":"Ille-et-Vilaine"},"region":{"code":"53","nom":"Bretagne"}},{"nom":"Saint-Maugan","code":"35295","codesPostaux":["35750"],"centre":{"type":"Point","coordinates":[-2.1022,48.1367]},"surface":854.71,"population":518,"departement":{"code":"35","nom":"Ille-et-Vilaine"},"region":{"code":"53","nom":"Bretagne"}},{"nom":"Saint-Médard-sur-Ille","code":"35296","codesPostaux":["35250"],"centre":{"type":"Point","coordinates":[-1.6803,48.2764]},"surface":1834.85,"population":1350,"departement":{"code":"35","nom":"Ille-et-Vilaine"},"region":{"code":"53","nom":"Bretagne"}},{"nom":"Saint-Méen-le-Grand","code":"35297","codesPostaux":["35290"],"centre":{"type":"Point","coordinates":[-2.1903,48.1923]},"surface":1858.67,"population":4642,"departement":{"code":"35","nom":"Ille-et-Vilaine"},"region":{"code":"53","nom":"Bretagne"}},{"nom":"Saint-Méloir-des-Ondes","code":"35299","codesPostaux":["35350"],"centre":{"type":"Point","coordinates":[-1.9053,48.639]},"surface":2899.6,"population":4666,"departement":{"code":"35","nom":"Ille-et-Vilaine"},"region":{"code":"53","nom":"Bretagne"}},{"nom":"Saint-M'Hervé","code":"35300","codesPostaux":["35500"],"centre":{"type":"Point","coordinates":[-1.114,48.1741]},"surface":3105.34,"population":1357,"departement":{"code":"35","nom":"Ille-et-Vilaine"},"region":{"code":"53","nom":"Bretagne"}},{"nom":"Saint-Onen-la-Chapelle","code":"35302","codesPostaux":["35290"],"centre":{"type":"Point","coordinates":[-2.1586,48.1705]},"surface":2489.8,"population":1121,"departement":{"code":"35","nom":"Ille-et-Vilaine"},"region":{"code":"53","nom":"Bretagne"}},{"nom":"Saint-Ouen-des-Alleux","code":"35304","codesPostaux":["35140"],"centre":{"type":"Point","coordinates":[-1.4346,48.3287]},"surface":1543.16,"population":1308,"departement":{"code":"35","nom":"Ille-et-Vilaine"},"region":{"code":"53","nom":"Bretagne"}},{"nom":"Saint-Péran","code":"35305","codesPostaux":["35380"],"centre":{"type":"Point","coordinates":[-2.0649,48.0566]},"surface":944.12,"population":415,"departement":{"code":"35","nom":"Ille-et-Vilaine"},"region":{"code":"53","nom":"Bretagne"}},{"nom":"Saint-Père-Marc-en-Poulet","code":"35306","codesPostaux":["35430"],"centre":{"type":"Point","coordinates":[-1.9281,48.5852]},"surface":1875.83,"population":2399,"departement":{"code":"35","nom":"Ille-et-Vilaine"},"region":{"code":"53","nom":"Bretagne"}},{"nom":"Saint-Pern","code":"35307","codesPostaux":["35190"],"centre":{"type":"Point","coordinates":[-1.9837,48.2823]},"surface":1209.4,"population":1003,"departement":{"code":"35","nom":"Ille-et-Vilaine"},"region":{"code":"53","nom":"Bretagne"}},{"nom":"Mesnil-Roc'h","code":"35308","codesPostaux":["35720"],"centre":{"type":"Point","coordinates":[-1.876,48.4639]},"surface":4148.7,"population":4457,"departement":{"code":"35","nom":"Ille-et-Vilaine"},"region":{"code":"53","nom":"Bretagne"}},{"nom":"Saint-Rémy-du-Plain","code":"35309","codesPostaux":["35560"],"centre":{"type":"Point","coordinates":[-1.5692,48.3767]},"surface":1478.89,"population":808,"departement":{"code":"35","nom":"Ille-et-Vilaine"},"region":{"code":"53","nom":"Bretagne"}},{"nom":"Saint-Sauveur-des-Landes","code":"35310","codesPostaux":["35133"],"centre":{"type":"Point","coordinates":[-1.316,48.3477]},"surface":1883.2,"population":1565,"departement":{"code":"35","nom":"Ille-et-Vilaine"},"region":{"code":"53","nom":"Bretagne"}},{"nom":"Saint-Séglin","code":"35311","codesPostaux":["35330"],"centre":{"type":"Point","coordinates":[-2.024,47.8503]},"surface":947.33,"population":600,"departement":{"code":"35","nom":"Ille-et-Vilaine"},"region":{"code":"53","nom":"Bretagne"}},{"nom":"Saint-Senoux","code":"35312","codesPostaux":["35580"],"centre":{"type":"Point","coordinates":[-1.7892,47.9144]},"surface":1826.96,"population":1836,"departement":{"code":"35","nom":"Ille-et-Vilaine"},"region":{"code":"53","nom":"Bretagne"}},{"nom":"Saint-Suliac","code":"35314","codesPostaux":["35430"],"centre":{"type":"Point","coordinates":[-1.967,48.5713]},"surface":469.67,"population":977,"departement":{"code":"35","nom":"Ille-et-Vilaine"},"region":{"code":"53","nom":"Bretagne"}},{"nom":"Saint-Sulpice-la-Forêt","code":"35315","codesPostaux":["35250"],"centre":{"type":"Point","coordinates":[-1.5771,48.2134]},"surface":676.1,"population":1557,"departement":{"code":"35","nom":"Ille-et-Vilaine"},"region":{"code":"53","nom":"Bretagne"}},{"nom":"Saint-Sulpice-des-Landes","code":"35316","codesPostaux":["35390"],"centre":{"type":"Point","coordinates":[-1.6216,47.7785]},"surface":1133.29,"population":827,"departement":{"code":"35","nom":"Ille-et-Vilaine"},"region":{"code":"53","nom":"Bretagne"}},{"nom":"Saint-Symphorien","code":"35317","codesPostaux":["35630"],"centre":{"type":"Point","coordinates":[-1.8022,48.2814]},"surface":795.7,"population":613,"departement":{"code":"35","nom":"Ille-et-Vilaine"},"region":{"code":"53","nom":"Bretagne"}},{"nom":"Saint-Thual","code":"35318","codesPostaux":["35190"],"centre":{"type":"Point","coordinates":[-1.9345,48.3372]},"surface":1157.2,"population":999,"departement":{"code":"35","nom":"Ille-et-Vilaine"},"region":{"code":"53","nom":"Bretagne"}},{"nom":"Saint-Thurial","code":"35319","codesPostaux":["35310"],"centre":{"type":"Point","coordinates":[-1.9424,48.0338]},"surface":1812.05,"population":2165,"departement":{"code":"35","nom":"Ille-et-Vilaine"},"region":{"code":"53","nom":"Bretagne"}},{"nom":"Saint-Uniac","code":"35320","codesPostaux":["35360"],"centre":{"type":"Point","coordinates":[-2.0347,48.1676]},"surface":694.66,"population":512,"departement":{"code":"35","nom":"Ille-et-Vilaine"},"region":{"code":"53","nom":"Bretagne"}},{"nom":"Saulnières","code":"35321","codesPostaux":["35320"],"centre":{"type":"Point","coordinates":[-1.5748,47.9197]},"surface":1059.7,"population":798,"departement":{"code":"35","nom":"Ille-et-Vilaine"},"region":{"code":"53","nom":"Bretagne"}},{"nom":"Le Sel-de-Bretagne","code":"35322","codesPostaux":["35320"],"centre":{"type":"Point","coordinates":[-1.6073,47.8991]},"surface":854.98,"population":1102,"departement":{"code":"35","nom":"Ille-et-Vilaine"},"region":{"code":"53","nom":"Bretagne"}},{"nom":"La Selle-en-Luitré","code":"35324","codesPostaux":["35133"],"centre":{"type":"Point","coordinates":[-1.1464,48.3235]},"surface":860.66,"population":618,"departement":{"code":"35","nom":"Ille-et-Vilaine"},"region":{"code":"53","nom":"Bretagne"}},{"nom":"La Selle-Guerchaise","code":"35325","codesPostaux":["35130"],"centre":{"type":"Point","coordinates":[-1.1718,47.9435]},"surface":219.64,"population":153,"departement":{"code":"35","nom":"Ille-et-Vilaine"},"region":{"code":"53","nom":"Bretagne"}},{"nom":"Sens-de-Bretagne","code":"35326","codesPostaux":["35490"],"centre":{"type":"Point","coordinates":[-1.5563,48.3367]},"surface":3115.4,"population":2620,"departement":{"code":"35","nom":"Ille-et-Vilaine"},"region":{"code":"53","nom":"Bretagne"}},{"nom":"Servon-sur-Vilaine","code":"35327","codesPostaux":["35530"],"centre":{"type":"Point","coordinates":[-1.4585,48.123]},"surface":1536.7,"population":4032,"departement":{"code":"35","nom":"Ille-et-Vilaine"},"region":{"code":"53","nom":"Bretagne"}},{"nom":"Sixt-sur-Aff","code":"35328","codesPostaux":["35550"],"centre":{"type":"Point","coordinates":[-2.0561,47.7755]},"surface":4319.75,"population":2222,"departement":{"code":"35","nom":"Ille-et-Vilaine"},"region":{"code":"53","nom":"Bretagne"}},{"nom":"Sougeal","code":"35329","codesPostaux":["35610"],"centre":{"type":"Point","coordinates":[-1.5131,48.5043]},"surface":1434.85,"population":544,"departement":{"code":"35","nom":"Ille-et-Vilaine"},"region":{"code":"53","nom":"Bretagne"}},{"nom":"Taillis","code":"35330","codesPostaux":["35500"],"centre":{"type":"Point","coordinates":[-1.2432,48.1861]},"surface":1310.59,"population":1036,"departement":{"code":"35","nom":"Ille-et-Vilaine"},"region":{"code":"53","nom":"Bretagne"}},{"nom":"Talensac","code":"35331","codesPostaux":["35160"],"centre":{"type":"Point","coordinates":[-1.9224,48.0905]},"surface":2170.05,"population":2530,"departement":{"code":"35","nom":"Ille-et-Vilaine"},"region":{"code":"53","nom":"Bretagne"}},{"nom":"Teillay","code":"35332","codesPostaux":["35620"],"centre":{"type":"Point","coordinates":[-1.5213,47.8062]},"surface":2659.58,"population":1103,"departement":{"code":"35","nom":"Ille-et-Vilaine"},"region":{"code":"53","nom":"Bretagne"}},{"nom":"Le Theil-de-Bretagne","code":"35333","codesPostaux":["35240"],"centre":{"type":"Point","coordinates":[-1.4213,47.9148]},"surface":2444.93,"population":1720,"departement":{"code":"35","nom":"Ille-et-Vilaine"},"region":{"code":"53","nom":"Bretagne"}},{"nom":"Thorigné-Fouillard","code":"35334","codesPostaux":["35235"],"centre":{"type":"Point","coordinates":[-1.5866,48.1524]},"surface":1357.55,"population":8631,"departement":{"code":"35","nom":"Ille-et-Vilaine"},"region":{"code":"53","nom":"Bretagne"}},{"nom":"Thourie","code":"35335","codesPostaux":["35134"],"centre":{"type":"Point","coordinates":[-1.4556,47.8522]},"surface":2462.49,"population":857,"departement":{"code":"35","nom":"Ille-et-Vilaine"},"region":{"code":"53","nom":"Bretagne"}},{"nom":"Le Tiercent","code":"35336","codesPostaux":["35460"],"centre":{"type":"Point","coordinates":[-1.4213,48.349]},"surface":369.67,"population":194,"departement":{"code":"35","nom":"Ille-et-Vilaine"},"region":{"code":"53","nom":"Bretagne"}},{"nom":"Tinténiac","code":"35337","codesPostaux":["35190"],"centre":{"type":"Point","coordinates":[-1.8298,48.3182]},"surface":2347.04,"population":3877,"departement":{"code":"35","nom":"Ille-et-Vilaine"},"region":{"code":"53","nom":"Bretagne"}},{"nom":"Torcé","code":"35338","codesPostaux":["35370"],"centre":{"type":"Point","coordinates":[-1.2702,48.0632]},"surface":1429.32,"population":1270,"departement":{"code":"35","nom":"Ille-et-Vilaine"},"region":{"code":"53","nom":"Bretagne"}},{"nom":"Trans-la-Forêt","code":"35339","codesPostaux":["35610"],"centre":{"type":"Point","coordinates":[-1.6016,48.4872]},"surface":1513.06,"population":638,"departement":{"code":"35","nom":"Ille-et-Vilaine"},"region":{"code":"53","nom":"Bretagne"}},{"nom":"Treffendel","code":"35340","codesPostaux":["35380"],"centre":{"type":"Point","coordinates":[-2.0059,48.0309]},"surface":1903.71,"population":1327,"departement":{"code":"35","nom":"Ille-et-Vilaine"},"region":{"code":"53","nom":"Bretagne"}},{"nom":"Trémeheuc","code":"35342","codesPostaux":["35270"],"centre":{"type":"Point","coordinates":[-1.6954,48.4396]},"surface":626.24,"population":349,"departement":{"code":"35","nom":"Ille-et-Vilaine"},"region":{"code":"53","nom":"Bretagne"}},{"nom":"Tresbœuf","code":"35343","codesPostaux":["35320"],"centre":{"type":"Point","coordinates":[-1.5461,47.8783]},"surface":2572.9,"population":1235,"departement":{"code":"35","nom":"Ille-et-Vilaine"},"region":{"code":"53","nom":"Bretagne"}},{"nom":"Trévérien","code":"35345","codesPostaux":["35190"],"centre":{"type":"Point","coordinates":[-1.9152,48.3718]},"surface":1222.72,"population":918,"departement":{"code":"35","nom":"Ille-et-Vilaine"},"region":{"code":"53","nom":"Bretagne"}},{"nom":"Trimer","code":"35346","codesPostaux":["35190"],"centre":{"type":"Point","coordinates":[-1.8956,48.3477]},"surface":358.67,"population":205,"departement":{"code":"35","nom":"Ille-et-Vilaine"},"region":{"code":"53","nom":"Bretagne"}},{"nom":"Val-d'Izé","code":"35347","codesPostaux":["35450"],"centre":{"type":"Point","coordinates":[-1.2987,48.1861]},"surface":4568.36,"population":2601,"departement":{"code":"35","nom":"Ille-et-Vilaine"},"region":{"code":"53","nom":"Bretagne"}},{"nom":"Vergéal","code":"35350","codesPostaux":["35680"],"centre":{"type":"Point","coordinates":[-1.2562,48.0335]},"surface":1118.66,"population":804,"departement":{"code":"35","nom":"Ille-et-Vilaine"},"region":{"code":"53","nom":"Bretagne"}},{"nom":"Le Verger","code":"35351","codesPostaux":["35160"],"centre":{"type":"Point","coordinates":[-1.9197,48.0667]},"surface":710.38,"population":1404,"departement":{"code":"35","nom":"Ille-et-Vilaine"},"region":{"code":"53","nom":"Bretagne"}},{"nom":"Vern-sur-Seiche","code":"35352","codesPostaux":["35770"],"centre":{"type":"Point","coordinates":[-1.6082,48.0458]},"surface":1996.29,"population":8272,"departement":{"code":"35","nom":"Ille-et-Vilaine"},"region":{"code":"53","nom":"Bretagne"}},{"nom":"Vezin-le-Coquet","code":"35353","codesPostaux":["35132"],"centre":{"type":"Point","coordinates":[-1.7528,48.116]},"surface":791.73,"population":6441,"departement":{"code":"35","nom":"Ille-et-Vilaine"},"region":{"code":"53","nom":"Bretagne"}},{"nom":"Vieux-Viel","code":"35354","codesPostaux":["35610"],"centre":{"type":"Point","coordinates":[-1.5549,48.4997]},"surface":895.94,"population":328,"departement":{"code":"35","nom":"Ille-et-Vilaine"},"region":{"code":"53","nom":"Bretagne"}},{"nom":"Vieux-Vy-sur-Couesnon","code":"35355","codesPostaux":["35490"],"centre":{"type":"Point","coordinates":[-1.5007,48.3339]},"surface":2161.88,"population":1280,"departement":{"code":"35","nom":"Ille-et-Vilaine"},"region":{"code":"53","nom":"Bretagne"}},{"nom":"Vignoc","code":"35356","codesPostaux":["35630"],"centre":{"type":"Point","coordinates":[-1.7644,48.2589]},"surface":1428.42,"population":2290,"departement":{"code":"35","nom":"Ille-et-Vilaine"},"region":{"code":"53","nom":"Bretagne"}},{"nom":"Villamée","code":"35357","codesPostaux":["35420"],"centre":{"type":"Point","coordinates":[-1.2162,48.4569]},"surface":1089.44,"population":291,"departement":{"code":"35","nom":"Ille-et-Vilaine"},"region":{"code":"53","nom":"Bretagne"}},{"nom":"La Ville-ès-Nonais","code":"35358","codesPostaux":["35430"],"centre":{"type":"Point","coordinates":[-1.9508,48.5504]},"surface":441.95,"population":1226,"departement":{"code":"35","nom":"Ille-et-Vilaine"},"region":{"code":"53","nom":"Bretagne"}},{"nom":"Visseiche","code":"35359","codesPostaux":["35130"],"centre":{"type":"Point","coordinates":[-1.3023,47.9592]},"surface":1627.83,"population":868,"departement":{"code":"35","nom":"Ille-et-Vilaine"},"region":{"code":"53","nom":"Bretagne"}},{"nom":"Vitré","code":"35360","codesPostaux":["35500"],"centre":{"type":"Point","coordinates":[-1.1972,48.1105]},"surface":3865.76,"population":18892,"departement":{"code":"35","nom":"Ille-et-Vilaine"},"region":{"code":"53","nom":"Bretagne"}},{"nom":"Le Vivier-sur-Mer","code":"35361","codesPostaux":["35960"],"centre":{"type":"Point","coordinates":[-1.7791,48.5958]},"surface":223.47,"population":1062,"departement":{"code":"35","nom":"Ille-et-Vilaine"},"region":{"code":"53","nom":"Bretagne"}},{"nom":"Le Tronchet","code":"35362","codesPostaux":["35540"],"centre":{"type":"Point","coordinates":[-1.8404,48.4921]},"surface":1140.85,"population":1204,"departement":{"code":"35","nom":"Ille-et-Vilaine"},"region":{"code":"53","nom":"Bretagne"}},{"nom":"Pont-Péan","code":"35363","codesPostaux":["35131"],"centre":{"type":"Point","coordinates":[-1.6975,48.0114]},"surface":878.99,"population":4289,"departement":{"code":"35","nom":"Ille-et-Vilaine"},"region":{"code":"53","nom":"Bretagne"}}]