[{"nom":"Agen","code":"47001","codesPostaux":["47000"],"centre":{"type":"Point","coordinates":[0.6302,44.201]},"surface":1152.27,"population":32193,"departement":{"code":"47","nom":"Lot-et-Garonne"},"region":{"code":"75","nom":"Nouvelle-Aquitaine"}},{"nom":"Agmé","code":"47002","codesPostaux":["47350"],"centre":{"type":"Point","coordinates":[0.3412,44.4894]},"surface":501.2,"population":106,"departement":{"code":"47","nom":"Lot-et-Garonne"},"region":{"code":"75","nom":"Nouvelle-Aquitaine"}},{"nom":"Agnac","code":"47003","codesPostaux":["47800"],"centre":{"type":"Point","coordinates":[0.3788,44.6406]},"surface":1392.72,"population":476,"departement":{"code":"47","nom":"Lot-et-Garonne"},"region":{"code":"75","nom":"Nouvelle-Aquitaine"}},{"nom":"Aiguillon","code":"47004","codesPostaux":["47190"],"centre":{"type":"Point","coordinates":[0.362,44.2989]},"surface":2839.29,"population":3983,"departement":{"code":"47","nom":"Lot-et-Garonne"},"region":{"code":"75","nom":"Nouvelle-Aquitaine"}},{"nom":"Allemans-du-Dropt","code":"47005","codesPostaux":["47800"],"centre":{"type":"Point","coordinates":[0.2859,44.6237]},"surface":644.43,"population":486,"departement":{"code":"47","nom":"Lot-et-Garonne"},"region":{"code":"75","nom":"Nouvelle-Aquitaine"}},{"nom":"Allez-et-Cazeneuve","code":"47006","codesPostaux":["47110"],"centre":{"type":"Point","coordinates":[0.6291,44.3774]},"surface":1078.46,"population":609,"departement":{"code":"47","nom":"Lot-et-Garonne"},"region":{"code":"75","nom":"Nouvelle-Aquitaine"}},{"nom":"Allons","code":"47007","codesPostaux":["47420"],"centre":{"type":"Point","coordinates":[-0.0722,44.2007]},"surface":7627.68,"population":167,"departement":{"code":"47","nom":"Lot-et-Garonne"},"region":{"code":"75","nom":"Nouvelle-Aquitaine"}},{"nom":"Ambrus","code":"47008","codesPostaux":["47160"],"centre":{"type":"Point","coordinates":[0.2455,44.2319]},"surface":1229.85,"population":109,"departement":{"code":"47","nom":"Lot-et-Garonne"},"region":{"code":"75","nom":"Nouvelle-Aquitaine"}},{"nom":"Andiran","code":"47009","codesPostaux":["47170"],"centre":{"type":"Point","coordinates":[0.2863,44.1042]},"surface":998.13,"population":258,"departement":{"code":"47","nom":"Lot-et-Garonne"},"region":{"code":"75","nom":"Nouvelle-Aquitaine"}},{"nom":"Antagnac","code":"47010","codesPostaux":["47700"],"centre":{"type":"Point","coordinates":[-0.0023,44.3561]},"surface":937.23,"population":222,"departement":{"code":"47","nom":"Lot-et-Garonne"},"region":{"code":"75","nom":"Nouvelle-Aquitaine"}},{"nom":"Anthé","code":"47011","codesPostaux":["47370"],"centre":{"type":"Point","coordinates":[0.9582,44.3702]},"surface":1414.33,"population":200,"departement":{"code":"47","nom":"Lot-et-Garonne"},"region":{"code":"75","nom":"Nouvelle-Aquitaine"}},{"nom":"Anzex","code":"47012","codesPostaux":["47700"],"centre":{"type":"Point","coordinates":[0.1704,44.2849]},"surface":2337.65,"population":325,"departement":{"code":"47","nom":"Lot-et-Garonne"},"region":{"code":"75","nom":"Nouvelle-Aquitaine"}},{"nom":"Argenton","code":"47013","codesPostaux":["47250"],"centre":{"type":"Point","coordinates":[0.0661,44.3834]},"surface":1217.89,"population":316,"departement":{"code":"47","nom":"Lot-et-Garonne"},"region":{"code":"75","nom":"Nouvelle-Aquitaine"}},{"nom":"Armillac","code":"47014","codesPostaux":["47800"],"centre":{"type":"Point","coordinates":[0.3909,44.5552]},"surface":785.12,"population":207,"departement":{"code":"47","nom":"Lot-et-Garonne"},"region":{"code":"75","nom":"Nouvelle-Aquitaine"}},{"nom":"Astaffort","code":"47015","codesPostaux":["47220"],"centre":{"type":"Point","coordinates":[0.654,44.0607]},"surface":3542.46,"population":2002,"departement":{"code":"47","nom":"Lot-et-Garonne"},"region":{"code":"75","nom":"Nouvelle-Aquitaine"}},{"nom":"Aubiac","code":"47016","codesPostaux":["47310"],"centre":{"type":"Point","coordinates":[0.5687,44.1378]},"surface":1408.52,"population":1177,"departement":{"code":"47","nom":"Lot-et-Garonne"},"region":{"code":"75","nom":"Nouvelle-Aquitaine"}},{"nom":"Auradou","code":"47017","codesPostaux":["47140"],"centre":{"type":"Point","coordinates":[0.8171,44.3417]},"surface":1125.12,"population":419,"departement":{"code":"47","nom":"Lot-et-Garonne"},"region":{"code":"75","nom":"Nouvelle-Aquitaine"}},{"nom":"Auriac-sur-Dropt","code":"47018","codesPostaux":["47120"],"centre":{"type":"Point","coordinates":[0.241,44.6551]},"surface":528.57,"population":174,"departement":{"code":"47","nom":"Lot-et-Garonne"},"region":{"code":"75","nom":"Nouvelle-Aquitaine"}},{"nom":"Bajamont","code":"47019","codesPostaux":["47480"],"centre":{"type":"Point","coordinates":[0.7031,44.256]},"surface":1225.76,"population":1000,"departement":{"code":"47","nom":"Lot-et-Garonne"},"region":{"code":"75","nom":"Nouvelle-Aquitaine"}},{"nom":"Baleyssagues","code":"47020","codesPostaux":["47120"],"centre":{"type":"Point","coordinates":[0.1503,44.6834]},"surface":821.47,"population":188,"departement":{"code":"47","nom":"Lot-et-Garonne"},"region":{"code":"75","nom":"Nouvelle-Aquitaine"}},{"nom":"Barbaste","code":"47021","codesPostaux":["47230"],"centre":{"type":"Point","coordinates":[0.2382,44.1622]},"surface":3886.36,"population":1498,"departement":{"code":"47","nom":"Lot-et-Garonne"},"region":{"code":"75","nom":"Nouvelle-Aquitaine"}},{"nom":"Bazens","code":"47022","codesPostaux":["47130"],"centre":{"type":"Point","coordinates":[0.4319,44.2671]},"surface":1227.09,"population":504,"departement":{"code":"47","nom":"Lot-et-Garonne"},"region":{"code":"75","nom":"Nouvelle-Aquitaine"}},{"nom":"Beaugas","code":"47023","codesPostaux":["47290"],"centre":{"type":"Point","coordinates":[0.6182,44.5119]},"surface":2269.57,"population":329,"departement":{"code":"47","nom":"Lot-et-Garonne"},"region":{"code":"75","nom":"Nouvelle-Aquitaine"}},{"nom":"Beaupuy","code":"47024","codesPostaux":["47200"],"centre":{"type":"Point","coordinates":[0.1449,44.5322]},"surface":821.68,"population":1678,"departement":{"code":"47","nom":"Lot-et-Garonne"},"region":{"code":"75","nom":"Nouvelle-Aquitaine"}},{"nom":"Beauville","code":"47025","codesPostaux":["47470"],"centre":{"type":"Point","coordinates":[0.8971,44.2755]},"surface":2329.49,"population":552,"departement":{"code":"47","nom":"Lot-et-Garonne"},"region":{"code":"75","nom":"Nouvelle-Aquitaine"}},{"nom":"Beauziac","code":"47026","codesPostaux":["47700"],"centre":{"type":"Point","coordinates":[0.0311,44.3158]},"surface":1544.24,"population":236,"departement":{"code":"47","nom":"Lot-et-Garonne"},"region":{"code":"75","nom":"Nouvelle-Aquitaine"}},{"nom":"Bias","code":"47027","codesPostaux":["47300"],"centre":{"type":"Point","coordinates":[0.6702,44.4102]},"surface":1232.7,"population":2965,"departement":{"code":"47","nom":"Lot-et-Garonne"},"region":{"code":"75","nom":"Nouvelle-Aquitaine"}},{"nom":"Birac-sur-Trec","code":"47028","codesPostaux":["47200"],"centre":{"type":"Point","coordinates":[0.2612,44.4867]},"surface":1435.55,"population":831,"departement":{"code":"47","nom":"Lot-et-Garonne"},"region":{"code":"75","nom":"Nouvelle-Aquitaine"}},{"nom":"Blanquefort-sur-Briolance","code":"47029","codesPostaux":["47500"],"centre":{"type":"Point","coordinates":[0.963,44.6101]},"surface":4204,"population":517,"departement":{"code":"47","nom":"Lot-et-Garonne"},"region":{"code":"75","nom":"Nouvelle-Aquitaine"}},{"nom":"Blaymont","code":"47030","codesPostaux":["47470"],"centre":{"type":"Point","coordinates":[0.8589,44.2935]},"surface":1364.15,"population":215,"departement":{"code":"47","nom":"Lot-et-Garonne"},"region":{"code":"75","nom":"Nouvelle-Aquitaine"}},{"nom":"Boé","code":"47031","codesPostaux":["47550"],"centre":{"type":"Point","coordinates":[0.6494,44.1695]},"surface":1668.03,"population":5784,"departement":{"code":"47","nom":"Lot-et-Garonne"},"region":{"code":"75","nom":"Nouvelle-Aquitaine"}},{"nom":"Bon-Encontre","code":"47032","codesPostaux":["47240"],"centre":{"type":"Point","coordinates":[0.6906,44.2089]},"surface":2046.75,"population":6386,"departement":{"code":"47","nom":"Lot-et-Garonne"},"region":{"code":"75","nom":"Nouvelle-Aquitaine"}},{"nom":"Boudy-de-Beauregard","code":"47033","codesPostaux":["47290"],"centre":{"type":"Point","coordinates":[0.6768,44.5454]},"surface":1018.06,"population":397,"departement":{"code":"47","nom":"Lot-et-Garonne"},"region":{"code":"75","nom":"Nouvelle-Aquitaine"}},{"nom":"Bouglon","code":"47034","codesPostaux":["47250"],"centre":{"type":"Point","coordinates":[0.1024,44.4028]},"surface":1406.72,"population":651,"departement":{"code":"47","nom":"Lot-et-Garonne"},"region":{"code":"75","nom":"Nouvelle-Aquitaine"}},{"nom":"Bourgougnague","code":"47035","codesPostaux":["47410"],"centre":{"type":"Point","coordinates":[0.4186,44.6223]},"surface":1176.51,"population":289,"departement":{"code":"47","nom":"Lot-et-Garonne"},"region":{"code":"75","nom":"Nouvelle-Aquitaine"}},{"nom":"Bourlens","code":"47036","codesPostaux":["47370"],"centre":{"type":"Point","coordinates":[0.9711,44.4261]},"surface":1561.9,"population":373,"departement":{"code":"47","nom":"Lot-et-Garonne"},"region":{"code":"75","nom":"Nouvelle-Aquitaine"}},{"nom":"Bournel","code":"47037","codesPostaux":["47210"],"centre":{"type":"Point","coordinates":[0.6822,44.6315]},"surface":1464.26,"population":252,"departement":{"code":"47","nom":"Lot-et-Garonne"},"region":{"code":"75","nom":"Nouvelle-Aquitaine"}},{"nom":"Bourran","code":"47038","codesPostaux":["47320"],"centre":{"type":"Point","coordinates":[0.4016,44.3314]},"surface":1830.55,"population":612,"departement":{"code":"47","nom":"Lot-et-Garonne"},"region":{"code":"75","nom":"Nouvelle-Aquitaine"}},{"nom":"Boussès","code":"47039","codesPostaux":["47420"],"centre":{"type":"Point","coordinates":[0.0698,44.1589]},"surface":4728.12,"population":41,"departement":{"code":"47","nom":"Lot-et-Garonne"},"region":{"code":"75","nom":"Nouvelle-Aquitaine"}},{"nom":"Brax","code":"47040","codesPostaux":["47310"],"centre":{"type":"Point","coordinates":[0.5586,44.1993]},"surface":887.05,"population":2103,"departement":{"code":"47","nom":"Lot-et-Garonne"},"region":{"code":"75","nom":"Nouvelle-Aquitaine"}},{"nom":"Bruch","code":"47041","codesPostaux":["47130"],"centre":{"type":"Point","coordinates":[0.4053,44.2069]},"surface":1603.13,"population":692,"departement":{"code":"47","nom":"Lot-et-Garonne"},"region":{"code":"75","nom":"Nouvelle-Aquitaine"}},{"nom":"Brugnac","code":"47042","codesPostaux":["47260"],"centre":{"type":"Point","coordinates":[0.4558,44.4546]},"surface":1484.5,"population":179,"departement":{"code":"47","nom":"Lot-et-Garonne"},"region":{"code":"75","nom":"Nouvelle-Aquitaine"}},{"nom":"Buzet-sur-Baïse","code":"47043","codesPostaux":["47160"],"centre":{"type":"Point","coordinates":[0.304,44.2515]},"surface":2132.32,"population":1246,"departement":{"code":"47","nom":"Lot-et-Garonne"},"region":{"code":"75","nom":"Nouvelle-Aquitaine"}},{"nom":"Cahuzac","code":"47044","codesPostaux":["47330"],"centre":{"type":"Point","coordinates":[0.5608,44.6615]},"surface":805.58,"population":310,"departement":{"code":"47","nom":"Lot-et-Garonne"},"region":{"code":"75","nom":"Nouvelle-Aquitaine"}},{"nom":"Calignac","code":"47045","codesPostaux":["47600"],"centre":{"type":"Point","coordinates":[0.4184,44.1395]},"surface":1845.99,"population":489,"departement":{"code":"47","nom":"Lot-et-Garonne"},"region":{"code":"75","nom":"Nouvelle-Aquitaine"}},{"nom":"Calonges","code":"47046","codesPostaux":["47430"],"centre":{"type":"Point","coordinates":[0.2255,44.3746]},"surface":1606.27,"population":589,"departement":{"code":"47","nom":"Lot-et-Garonne"},"region":{"code":"75","nom":"Nouvelle-Aquitaine"}},{"nom":"Cambes","code":"47047","codesPostaux":["47350"],"centre":{"type":"Point","coordinates":[0.2752,44.5994]},"surface":924.67,"population":176,"departement":{"code":"47","nom":"Lot-et-Garonne"},"region":{"code":"75","nom":"Nouvelle-Aquitaine"}},{"nom":"Cancon","code":"47048","codesPostaux":["47290"],"centre":{"type":"Point","coordinates":[0.6253,44.547]},"surface":2453.48,"population":1366,"departement":{"code":"47","nom":"Lot-et-Garonne"},"region":{"code":"75","nom":"Nouvelle-Aquitaine"}},{"nom":"Casseneuil","code":"47049","codesPostaux":["47440"],"centre":{"type":"Point","coordinates":[0.6189,44.4461]},"surface":1813.47,"population":2340,"departement":{"code":"47","nom":"Lot-et-Garonne"},"region":{"code":"75","nom":"Nouvelle-Aquitaine"}},{"nom":"Cassignas","code":"47050","codesPostaux":["47340"],"centre":{"type":"Point","coordinates":[0.7788,44.3004]},"surface":793.09,"population":128,"departement":{"code":"47","nom":"Lot-et-Garonne"},"region":{"code":"75","nom":"Nouvelle-Aquitaine"}},{"nom":"Castelculier","code":"47051","codesPostaux":["47240"],"centre":{"type":"Point","coordinates":[0.7051,44.1905]},"surface":1498.04,"population":2383,"departement":{"code":"47","nom":"Lot-et-Garonne"},"region":{"code":"75","nom":"Nouvelle-Aquitaine"}},{"nom":"Casteljaloux","code":"47052","codesPostaux":["47700"],"centre":{"type":"Point","coordinates":[0.0894,44.3103]},"surface":3075.6,"population":4639,"departement":{"code":"47","nom":"Lot-et-Garonne"},"region":{"code":"75","nom":"Nouvelle-Aquitaine"}},{"nom":"Castella","code":"47053","codesPostaux":["47340"],"centre":{"type":"Point","coordinates":[0.6799,44.3125]},"surface":1262.17,"population":377,"departement":{"code":"47","nom":"Lot-et-Garonne"},"region":{"code":"75","nom":"Nouvelle-Aquitaine"}},{"nom":"Castelmoron-sur-Lot","code":"47054","codesPostaux":["47260"],"centre":{"type":"Point","coordinates":[0.4832,44.4072]},"surface":2326.76,"population":1830,"departement":{"code":"47","nom":"Lot-et-Garonne"},"region":{"code":"75","nom":"Nouvelle-Aquitaine"}},{"nom":"Castelnaud-de-Gratecambe","code":"47055","codesPostaux":["47290"],"centre":{"type":"Point","coordinates":[0.6874,44.5011]},"surface":1732.55,"population":516,"departement":{"code":"47","nom":"Lot-et-Garonne"},"region":{"code":"75","nom":"Nouvelle-Aquitaine"}},{"nom":"Castelnau-sur-Gupie","code":"47056","codesPostaux":["47180"],"centre":{"type":"Point","coordinates":[0.1409,44.5747]},"surface":1538.18,"population":914,"departement":{"code":"47","nom":"Lot-et-Garonne"},"region":{"code":"75","nom":"Nouvelle-Aquitaine"}},{"nom":"Castillonnès","code":"47057","codesPostaux":["47330"],"centre":{"type":"Point","coordinates":[0.6049,44.6349]},"surface":1940.57,"population":1359,"departement":{"code":"47","nom":"Lot-et-Garonne"},"region":{"code":"75","nom":"Nouvelle-Aquitaine"}},{"nom":"Caubeyres","code":"47058","codesPostaux":["47160"],"centre":{"type":"Point","coordinates":[0.214,44.2571]},"surface":1451.25,"population":273,"departement":{"code":"47","nom":"Lot-et-Garonne"},"region":{"code":"75","nom":"Nouvelle-Aquitaine"}},{"nom":"Caubon-Saint-Sauveur","code":"47059","codesPostaux":["47120"],"centre":{"type":"Point","coordinates":[0.1892,44.5929]},"surface":1142.37,"population":263,"departement":{"code":"47","nom":"Lot-et-Garonne"},"region":{"code":"75","nom":"Nouvelle-Aquitaine"}},{"nom":"Caudecoste","code":"47060","codesPostaux":["47220"],"centre":{"type":"Point","coordinates":[0.745,44.1227]},"surface":1721.16,"population":1133,"departement":{"code":"47","nom":"Lot-et-Garonne"},"region":{"code":"75","nom":"Nouvelle-Aquitaine"}},{"nom":"Caumont-sur-Garonne","code":"47061","codesPostaux":["47430"],"centre":{"type":"Point","coordinates":[0.181,44.4217]},"surface":1167.58,"population":815,"departement":{"code":"47","nom":"Lot-et-Garonne"},"region":{"code":"75","nom":"Nouvelle-Aquitaine"}},{"nom":"Cauzac","code":"47062","codesPostaux":["47470"],"centre":{"type":"Point","coordinates":[0.8242,44.2749]},"surface":1461.35,"population":413,"departement":{"code":"47","nom":"Lot-et-Garonne"},"region":{"code":"75","nom":"Nouvelle-Aquitaine"}},{"nom":"Cavarc","code":"47063","codesPostaux":["47330"],"centre":{"type":"Point","coordinates":[0.6429,44.681]},"surface":1205.75,"population":158,"departement":{"code":"47","nom":"Lot-et-Garonne"},"region":{"code":"75","nom":"Nouvelle-Aquitaine"}},{"nom":"Cazideroque","code":"47064","codesPostaux":["47370"],"centre":{"type":"Point","coordinates":[0.9333,44.4051]},"surface":1204.74,"population":246,"departement":{"code":"47","nom":"Lot-et-Garonne"},"region":{"code":"75","nom":"Nouvelle-Aquitaine"}},{"nom":"Clairac","code":"47065","codesPostaux":["47320"],"centre":{"type":"Point","coordinates":[0.3901,44.3657]},"surface":3390.58,"population":2576,"departement":{"code":"47","nom":"Lot-et-Garonne"},"region":{"code":"75","nom":"Nouvelle-Aquitaine"}},{"nom":"Clermont-Dessous","code":"47066","codesPostaux":["47130"],"centre":{"type":"Point","coordinates":[0.4534,44.2502]},"surface":1530.69,"population":810,"departement":{"code":"47","nom":"Lot-et-Garonne"},"region":{"code":"75","nom":"Nouvelle-Aquitaine"}},{"nom":"Clermont-Soubiran","code":"47067","codesPostaux":["47270"],"centre":{"type":"Point","coordinates":[0.8409,44.1413]},"surface":1038.81,"population":405,"departement":{"code":"47","nom":"Lot-et-Garonne"},"region":{"code":"75","nom":"Nouvelle-Aquitaine"}},{"nom":"Cocumont","code":"47068","codesPostaux":["47250"],"centre":{"type":"Point","coordinates":[0.033,44.4509]},"surface":2554.41,"population":1110,"departement":{"code":"47","nom":"Lot-et-Garonne"},"region":{"code":"75","nom":"Nouvelle-Aquitaine"}},{"nom":"Colayrac-Saint-Cirq","code":"47069","codesPostaux":["47450"],"centre":{"type":"Point","coordinates":[0.5587,44.2351]},"surface":2149.94,"population":3106,"departement":{"code":"47","nom":"Lot-et-Garonne"},"region":{"code":"75","nom":"Nouvelle-Aquitaine"}},{"nom":"Condezaygues","code":"47070","codesPostaux":["47500"],"centre":{"type":"Point","coordinates":[0.9121,44.4874]},"surface":1088.18,"population":837,"departement":{"code":"47","nom":"Lot-et-Garonne"},"region":{"code":"75","nom":"Nouvelle-Aquitaine"}},{"nom":"Coulx","code":"47071","codesPostaux":["47260"],"centre":{"type":"Point","coordinates":[0.465,44.4702]},"surface":1640.17,"population":254,"departement":{"code":"47","nom":"Lot-et-Garonne"},"region":{"code":"75","nom":"Nouvelle-Aquitaine"}},{"nom":"Courbiac","code":"47072","codesPostaux":["47370"],"centre":{"type":"Point","coordinates":[1.0376,44.3773]},"surface":909.4,"population":108,"departement":{"code":"47","nom":"Lot-et-Garonne"},"region":{"code":"75","nom":"Nouvelle-Aquitaine"}},{"nom":"Cours","code":"47073","codesPostaux":["47360"],"centre":{"type":"Point","coordinates":[0.5942,44.3296]},"surface":1142.88,"population":193,"departement":{"code":"47","nom":"Lot-et-Garonne"},"region":{"code":"75","nom":"Nouvelle-Aquitaine"}},{"nom":"Couthures-sur-Garonne","code":"47074","codesPostaux":["47180"],"centre":{"type":"Point","coordinates":[0.0694,44.5207]},"surface":696.65,"population":366,"departement":{"code":"47","nom":"Lot-et-Garonne"},"region":{"code":"75","nom":"Nouvelle-Aquitaine"}},{"nom":"La Croix-Blanche","code":"47075","codesPostaux":["47340"],"centre":{"type":"Point","coordinates":[0.691,44.2915]},"surface":1306.53,"population":1081,"departement":{"code":"47","nom":"Lot-et-Garonne"},"region":{"code":"75","nom":"Nouvelle-Aquitaine"}},{"nom":"Cuq","code":"47076","codesPostaux":["47220"],"centre":{"type":"Point","coordinates":[0.7181,44.0845]},"surface":1694.08,"population":280,"departement":{"code":"47","nom":"Lot-et-Garonne"},"region":{"code":"75","nom":"Nouvelle-Aquitaine"}},{"nom":"Cuzorn","code":"47077","codesPostaux":["47500"],"centre":{"type":"Point","coordinates":[0.9504,44.5485]},"surface":2354.65,"population":850,"departement":{"code":"47","nom":"Lot-et-Garonne"},"region":{"code":"75","nom":"Nouvelle-Aquitaine"}},{"nom":"Damazan","code":"47078","codesPostaux":["47160"],"centre":{"type":"Point","coordinates":[0.2765,44.2827]},"surface":1645.26,"population":1353,"departement":{"code":"47","nom":"Lot-et-Garonne"},"region":{"code":"75","nom":"Nouvelle-Aquitaine"}},{"nom":"Dausse","code":"47079","codesPostaux":["47140"],"centre":{"type":"Point","coordinates":[0.8857,44.3894]},"surface":698.73,"population":537,"departement":{"code":"47","nom":"Lot-et-Garonne"},"region":{"code":"75","nom":"Nouvelle-Aquitaine"}},{"nom":"Dévillac","code":"47080","codesPostaux":["47210"],"centre":{"type":"Point","coordinates":[0.8071,44.6071]},"surface":925.31,"population":157,"departement":{"code":"47","nom":"Lot-et-Garonne"},"region":{"code":"75","nom":"Nouvelle-Aquitaine"}},{"nom":"Dolmayrac","code":"47081","codesPostaux":["47110"],"centre":{"type":"Point","coordinates":[0.5916,44.3575]},"surface":1948.44,"population":714,"departement":{"code":"47","nom":"Lot-et-Garonne"},"region":{"code":"75","nom":"Nouvelle-Aquitaine"}},{"nom":"Dondas","code":"47082","codesPostaux":["47470"],"centre":{"type":"Point","coordinates":[0.8614,44.2397]},"surface":1446.75,"population":216,"departement":{"code":"47","nom":"Lot-et-Garonne"},"region":{"code":"75","nom":"Nouvelle-Aquitaine"}},{"nom":"Doudrac","code":"47083","codesPostaux":["47210"],"centre":{"type":"Point","coordinates":[0.6768,44.6632]},"surface":866.35,"population":108,"departement":{"code":"47","nom":"Lot-et-Garonne"},"region":{"code":"75","nom":"Nouvelle-Aquitaine"}},{"nom":"Douzains","code":"47084","codesPostaux":["47330"],"centre":{"type":"Point","coordinates":[0.5473,44.636]},"surface":1267.73,"population":261,"departement":{"code":"47","nom":"Lot-et-Garonne"},"region":{"code":"75","nom":"Nouvelle-Aquitaine"}},{"nom":"Durance","code":"47085","codesPostaux":["47420"],"centre":{"type":"Point","coordinates":[0.1697,44.1638]},"surface":3882.17,"population":268,"departement":{"code":"47","nom":"Lot-et-Garonne"},"region":{"code":"75","nom":"Nouvelle-Aquitaine"}},{"nom":"Duras","code":"47086","codesPostaux":["47120"],"centre":{"type":"Point","coordinates":[0.2021,44.6755]},"surface":2015.34,"population":1206,"departement":{"code":"47","nom":"Lot-et-Garonne"},"region":{"code":"75","nom":"Nouvelle-Aquitaine"}},{"nom":"Engayrac","code":"47087","codesPostaux":["47470"],"centre":{"type":"Point","coordinates":[0.8941,44.2526]},"surface":1007.95,"population":159,"departement":{"code":"47","nom":"Lot-et-Garonne"},"region":{"code":"75","nom":"Nouvelle-Aquitaine"}},{"nom":"Escassefort","code":"47088","codesPostaux":["47350"],"centre":{"type":"Point","coordinates":[0.2307,44.5527]},"surface":1403.77,"population":654,"departement":{"code":"47","nom":"Lot-et-Garonne"},"region":{"code":"75","nom":"Nouvelle-Aquitaine"}},{"nom":"Esclottes","code":"47089","codesPostaux":["47120"],"centre":{"type":"Point","coordinates":[0.149,44.7166]},"surface":923.99,"population":163,"departement":{"code":"47","nom":"Lot-et-Garonne"},"region":{"code":"75","nom":"Nouvelle-Aquitaine"}},{"nom":"Espiens","code":"47090","codesPostaux":["47600"],"centre":{"type":"Point","coordinates":[0.3822,44.1709]},"surface":1767.29,"population":358,"departement":{"code":"47","nom":"Lot-et-Garonne"},"region":{"code":"75","nom":"Nouvelle-Aquitaine"}},{"nom":"Estillac","code":"47091","codesPostaux":["47310"],"centre":{"type":"Point","coordinates":[0.5765,44.1709]},"surface":806.41,"population":2392,"departement":{"code":"47","nom":"Lot-et-Garonne"},"region":{"code":"75","nom":"Nouvelle-Aquitaine"}},{"nom":"Fals","code":"47092","codesPostaux":["47220"],"centre":{"type":"Point","coordinates":[0.6918,44.1053]},"surface":944.51,"population":405,"departement":{"code":"47","nom":"Lot-et-Garonne"},"region":{"code":"75","nom":"Nouvelle-Aquitaine"}},{"nom":"Fargues-sur-Ourbise","code":"47093","codesPostaux":["47700"],"centre":{"type":"Point","coordinates":[0.1637,44.2274]},"surface":4452.57,"population":341,"departement":{"code":"47","nom":"Lot-et-Garonne"},"region":{"code":"75","nom":"Nouvelle-Aquitaine"}},{"nom":"Fauguerolles","code":"47094","codesPostaux":["47400"],"centre":{"type":"Point","coordinates":[0.242,44.4463]},"surface":692.98,"population":827,"departement":{"code":"47","nom":"Lot-et-Garonne"},"region":{"code":"75","nom":"Nouvelle-Aquitaine"}},{"nom":"Fauillet","code":"47095","codesPostaux":["47400"],"centre":{"type":"Point","coordinates":[0.291,44.4227]},"surface":1419.93,"population":857,"departement":{"code":"47","nom":"Lot-et-Garonne"},"region":{"code":"75","nom":"Nouvelle-Aquitaine"}},{"nom":"Ferrensac","code":"47096","codesPostaux":["47330"],"centre":{"type":"Point","coordinates":[0.6386,44.6414]},"surface":1238.08,"population":202,"departement":{"code":"47","nom":"Lot-et-Garonne"},"region":{"code":"75","nom":"Nouvelle-Aquitaine"}},{"nom":"Feugarolles","code":"47097","codesPostaux":["47230"],"centre":{"type":"Point","coordinates":[0.3623,44.2134]},"surface":2401.17,"population":1015,"departement":{"code":"47","nom":"Lot-et-Garonne"},"region":{"code":"75","nom":"Nouvelle-Aquitaine"}},{"nom":"Fieux","code":"47098","codesPostaux":["47600"],"centre":{"type":"Point","coordinates":[0.4184,44.1009]},"surface":1491.67,"population":327,"departement":{"code":"47","nom":"Lot-et-Garonne"},"region":{"code":"75","nom":"Nouvelle-Aquitaine"}},{"nom":"Fongrave","code":"47099","codesPostaux":["47260"],"centre":{"type":"Point","coordinates":[0.5325,44.4052]},"surface":949.32,"population":625,"departement":{"code":"47","nom":"Lot-et-Garonne"},"region":{"code":"75","nom":"Nouvelle-Aquitaine"}},{"nom":"Foulayronnes","code":"47100","codesPostaux":["47510"],"centre":{"type":"Point","coordinates":[0.6426,44.2562]},"surface":2900.98,"population":5480,"departement":{"code":"47","nom":"Lot-et-Garonne"},"region":{"code":"75","nom":"Nouvelle-Aquitaine"}},{"nom":"Fourques-sur-Garonne","code":"47101","codesPostaux":["47200"],"centre":{"type":"Point","coordinates":[0.1539,44.4561]},"surface":1394.96,"population":1307,"departement":{"code":"47","nom":"Lot-et-Garonne"},"region":{"code":"75","nom":"Nouvelle-Aquitaine"}},{"nom":"Francescas","code":"47102","codesPostaux":["47600"],"centre":{"type":"Point","coordinates":[0.4276,44.0666]},"surface":2141.21,"population":732,"departement":{"code":"47","nom":"Lot-et-Garonne"},"region":{"code":"75","nom":"Nouvelle-Aquitaine"}},{"nom":"Fréchou","code":"47103","codesPostaux":["47600"],"centre":{"type":"Point","coordinates":[0.3384,44.0824]},"surface":1200.39,"population":223,"departement":{"code":"47","nom":"Lot-et-Garonne"},"region":{"code":"75","nom":"Nouvelle-Aquitaine"}},{"nom":"Frégimont","code":"47104","codesPostaux":["47360"],"centre":{"type":"Point","coordinates":[0.464,44.2787]},"surface":761.18,"population":272,"departement":{"code":"47","nom":"Lot-et-Garonne"},"region":{"code":"75","nom":"Nouvelle-Aquitaine"}},{"nom":"Frespech","code":"47105","codesPostaux":["47140"],"centre":{"type":"Point","coordinates":[0.8177,44.3143]},"surface":1179.9,"population":283,"departement":{"code":"47","nom":"Lot-et-Garonne"},"region":{"code":"75","nom":"Nouvelle-Aquitaine"}},{"nom":"Fumel","code":"47106","codesPostaux":["47500"],"centre":{"type":"Point","coordinates":[0.9799,44.5122]},"surface":2275.57,"population":4696,"departement":{"code":"47","nom":"Lot-et-Garonne"},"region":{"code":"75","nom":"Nouvelle-Aquitaine"}},{"nom":"Galapian","code":"47107","codesPostaux":["47190"],"centre":{"type":"Point","coordinates":[0.4102,44.2985]},"surface":939.06,"population":334,"departement":{"code":"47","nom":"Lot-et-Garonne"},"region":{"code":"75","nom":"Nouvelle-Aquitaine"}},{"nom":"Gaujac","code":"47108","codesPostaux":["47200"],"centre":{"type":"Point","coordinates":[0.1131,44.4894]},"surface":717.9,"population":241,"departement":{"code":"47","nom":"Lot-et-Garonne"},"region":{"code":"75","nom":"Nouvelle-Aquitaine"}},{"nom":"Gavaudun","code":"47109","codesPostaux":["47150"],"centre":{"type":"Point","coordinates":[0.8884,44.5662]},"surface":2143.93,"population":304,"departement":{"code":"47","nom":"Lot-et-Garonne"},"region":{"code":"75","nom":"Nouvelle-Aquitaine"}},{"nom":"Gontaud-de-Nogaret","code":"47110","codesPostaux":["47400"],"centre":{"type":"Point","coordinates":[0.2854,44.4601]},"surface":2954.35,"population":1641,"departement":{"code":"47","nom":"Lot-et-Garonne"},"region":{"code":"75","nom":"Nouvelle-Aquitaine"}},{"nom":"Granges-sur-Lot","code":"47111","codesPostaux":["47260"],"centre":{"type":"Point","coordinates":[0.4704,44.3669]},"surface":421.06,"population":589,"departement":{"code":"47","nom":"Lot-et-Garonne"},"region":{"code":"75","nom":"Nouvelle-Aquitaine"}},{"nom":"Grateloup-Saint-Gayrand","code":"47112","codesPostaux":["47400"],"centre":{"type":"Point","coordinates":[0.3948,44.4175]},"surface":2072.47,"population":470,"departement":{"code":"47","nom":"Lot-et-Garonne"},"region":{"code":"75","nom":"Nouvelle-Aquitaine"}},{"nom":"Grayssas","code":"47113","codesPostaux":["47270"],"centre":{"type":"Point","coordinates":[0.8592,44.1592]},"surface":938.05,"population":147,"departement":{"code":"47","nom":"Lot-et-Garonne"},"region":{"code":"75","nom":"Nouvelle-Aquitaine"}},{"nom":"Grézet-Cavagnan","code":"47114","codesPostaux":["47250"],"centre":{"type":"Point","coordinates":[0.1287,44.3797]},"surface":1265.45,"population":403,"departement":{"code":"47","nom":"Lot-et-Garonne"},"region":{"code":"75","nom":"Nouvelle-Aquitaine"}},{"nom":"Guérin","code":"47115","codesPostaux":["47250"],"centre":{"type":"Point","coordinates":[0.0563,44.4121]},"surface":1049.84,"population":247,"departement":{"code":"47","nom":"Lot-et-Garonne"},"region":{"code":"75","nom":"Nouvelle-Aquitaine"}},{"nom":"Hautefage-la-Tour","code":"47117","codesPostaux":["47340"],"centre":{"type":"Point","coordinates":[0.7766,44.3426]},"surface":2079.89,"population":1028,"departement":{"code":"47","nom":"Lot-et-Garonne"},"region":{"code":"75","nom":"Nouvelle-Aquitaine"}},{"nom":"Hautesvignes","code":"47118","codesPostaux":["47400"],"centre":{"type":"Point","coordinates":[0.3507,44.4595]},"surface":889.87,"population":166,"departement":{"code":"47","nom":"Lot-et-Garonne"},"region":{"code":"75","nom":"Nouvelle-Aquitaine"}},{"nom":"Houeillès","code":"47119","codesPostaux":["47420"],"centre":{"type":"Point","coordinates":[0.0453,44.1888]},"surface":6775.05,"population":550,"departement":{"code":"47","nom":"Lot-et-Garonne"},"region":{"code":"75","nom":"Nouvelle-Aquitaine"}},{"nom":"Jusix","code":"47120","codesPostaux":["47180"],"centre":{"type":"Point","coordinates":[0.0485,44.5361]},"surface":754.81,"population":94,"departement":{"code":"47","nom":"Lot-et-Garonne"},"region":{"code":"75","nom":"Nouvelle-Aquitaine"}},{"nom":"Labastide-Castel-Amouroux","code":"47121","codesPostaux":["47250"],"centre":{"type":"Point","coordinates":[0.1274,44.3479]},"surface":1201.29,"population":317,"departement":{"code":"47","nom":"Lot-et-Garonne"},"region":{"code":"75","nom":"Nouvelle-Aquitaine"}},{"nom":"Labretonie","code":"47122","codesPostaux":["47350"],"centre":{"type":"Point","coordinates":[0.3701,44.4916]},"surface":1186.06,"population":169,"departement":{"code":"47","nom":"Lot-et-Garonne"},"region":{"code":"75","nom":"Nouvelle-Aquitaine"}},{"nom":"Lacapelle-Biron","code":"47123","codesPostaux":["47150"],"centre":{"type":"Point","coordinates":[0.8976,44.6021]},"surface":1392.55,"population":399,"departement":{"code":"47","nom":"Lot-et-Garonne"},"region":{"code":"75","nom":"Nouvelle-Aquitaine"}},{"nom":"Lacaussade","code":"47124","codesPostaux":["47150"],"centre":{"type":"Point","coordinates":[0.8253,44.5067]},"surface":1032.32,"population":208,"departement":{"code":"47","nom":"Lot-et-Garonne"},"region":{"code":"75","nom":"Nouvelle-Aquitaine"}},{"nom":"Lacépède","code":"47125","codesPostaux":["47360"],"centre":{"type":"Point","coordinates":[0.4862,44.3195]},"surface":1133.62,"population":316,"departement":{"code":"47","nom":"Lot-et-Garonne"},"region":{"code":"75","nom":"Nouvelle-Aquitaine"}},{"nom":"Lachapelle","code":"47126","codesPostaux":["47350"],"centre":{"type":"Point","coordinates":[0.2602,44.5732]},"surface":458.4,"population":101,"departement":{"code":"47","nom":"Lot-et-Garonne"},"region":{"code":"75","nom":"Nouvelle-Aquitaine"}},{"nom":"Lafitte-sur-Lot","code":"47127","codesPostaux":["47320"],"centre":{"type":"Point","coordinates":[0.4314,44.3579]},"surface":1603.65,"population":814,"departement":{"code":"47","nom":"Lot-et-Garonne"},"region":{"code":"75","nom":"Nouvelle-Aquitaine"}},{"nom":"Lafox","code":"47128","codesPostaux":["47240"],"centre":{"type":"Point","coordinates":[0.6984,44.1654]},"surface":509.86,"population":1079,"departement":{"code":"47","nom":"Lot-et-Garonne"},"region":{"code":"75","nom":"Nouvelle-Aquitaine"}},{"nom":"Lagarrigue","code":"47129","codesPostaux":["47190"],"centre":{"type":"Point","coordinates":[0.3849,44.2904]},"surface":442.65,"population":274,"departement":{"code":"47","nom":"Lot-et-Garonne"},"region":{"code":"75","nom":"Nouvelle-Aquitaine"}},{"nom":"Lagruère","code":"47130","codesPostaux":["47400"],"centre":{"type":"Point","coordinates":[0.2661,44.3974]},"surface":996.48,"population":343,"departement":{"code":"47","nom":"Lot-et-Garonne"},"region":{"code":"75","nom":"Nouvelle-Aquitaine"}},{"nom":"Lagupie","code":"47131","codesPostaux":["47180"],"centre":{"type":"Point","coordinates":[0.1099,44.5707]},"surface":871.93,"population":686,"departement":{"code":"47","nom":"Lot-et-Garonne"},"region":{"code":"75","nom":"Nouvelle-Aquitaine"}},{"nom":"Lalandusse","code":"47132","codesPostaux":["47330"],"centre":{"type":"Point","coordinates":[0.5236,44.6602]},"surface":943.79,"population":221,"departement":{"code":"47","nom":"Lot-et-Garonne"},"region":{"code":"75","nom":"Nouvelle-Aquitaine"}},{"nom":"Lamontjoie","code":"47133","codesPostaux":["47310"],"centre":{"type":"Point","coordinates":[0.5357,44.0695]},"surface":1786.08,"population":555,"departement":{"code":"47","nom":"Lot-et-Garonne"},"region":{"code":"75","nom":"Nouvelle-Aquitaine"}},{"nom":"Lannes","code":"47134","codesPostaux":["47170"],"centre":{"type":"Point","coordinates":[0.2774,44.0256]},"surface":3271.95,"population":361,"departement":{"code":"47","nom":"Lot-et-Garonne"},"region":{"code":"75","nom":"Nouvelle-Aquitaine"}},{"nom":"Laparade","code":"47135","codesPostaux":["47260"],"centre":{"type":"Point","coordinates":[0.4425,44.409]},"surface":1621.62,"population":395,"departement":{"code":"47","nom":"Lot-et-Garonne"},"region":{"code":"75","nom":"Nouvelle-Aquitaine"}},{"nom":"Laperche","code":"47136","codesPostaux":["47800"],"centre":{"type":"Point","coordinates":[0.4156,44.5453]},"surface":843.93,"population":141,"departement":{"code":"47","nom":"Lot-et-Garonne"},"region":{"code":"75","nom":"Nouvelle-Aquitaine"}},{"nom":"Laplume","code":"47137","codesPostaux":["47310"],"centre":{"type":"Point","coordinates":[0.5374,44.1249]},"surface":3286.78,"population":1335,"departement":{"code":"47","nom":"Lot-et-Garonne"},"region":{"code":"75","nom":"Nouvelle-Aquitaine"}},{"nom":"Laroque-Timbaut","code":"47138","codesPostaux":["47340"],"centre":{"type":"Point","coordinates":[0.7605,44.2787]},"surface":2168.62,"population":1589,"departement":{"code":"47","nom":"Lot-et-Garonne"},"region":{"code":"75","nom":"Nouvelle-Aquitaine"}},{"nom":"Lasserre","code":"47139","codesPostaux":["47600"],"centre":{"type":"Point","coordinates":[0.3876,44.0755]},"surface":651.44,"population":98,"departement":{"code":"47","nom":"Lot-et-Garonne"},"region":{"code":"75","nom":"Nouvelle-Aquitaine"}},{"nom":"Laugnac","code":"47140","codesPostaux":["47360"],"centre":{"type":"Point","coordinates":[0.5994,44.2958]},"surface":1730.72,"population":692,"departement":{"code":"47","nom":"Lot-et-Garonne"},"region":{"code":"75","nom":"Nouvelle-Aquitaine"}},{"nom":"Laussou","code":"47141","codesPostaux":["47150"],"centre":{"type":"Point","coordinates":[0.7818,44.573]},"surface":1720.74,"population":275,"departement":{"code":"47","nom":"Lot-et-Garonne"},"region":{"code":"75","nom":"Nouvelle-Aquitaine"}},{"nom":"Lauzun","code":"47142","codesPostaux":["47410"],"centre":{"type":"Point","coordinates":[0.4664,44.6434]},"surface":2426.06,"population":731,"departement":{"code":"47","nom":"Lot-et-Garonne"},"region":{"code":"75","nom":"Nouvelle-Aquitaine"}},{"nom":"Lavardac","code":"47143","codesPostaux":["47230"],"centre":{"type":"Point","coordinates":[0.3006,44.1821]},"surface":1525.14,"population":2297,"departement":{"code":"47","nom":"Lot-et-Garonne"},"region":{"code":"75","nom":"Nouvelle-Aquitaine"}},{"nom":"Lavergne","code":"47144","codesPostaux":["47800"],"centre":{"type":"Point","coordinates":[0.4158,44.5824]},"surface":2027.24,"population":559,"departement":{"code":"47","nom":"Lot-et-Garonne"},"region":{"code":"75","nom":"Nouvelle-Aquitaine"}},{"nom":"Layrac","code":"47145","codesPostaux":["47390"],"centre":{"type":"Point","coordinates":[0.6596,44.1234]},"surface":3829.7,"population":3913,"departement":{"code":"47","nom":"Lot-et-Garonne"},"region":{"code":"75","nom":"Nouvelle-Aquitaine"}},{"nom":"Lédat","code":"47146","codesPostaux":["47300"],"centre":{"type":"Point","coordinates":[0.6668,44.448]},"surface":1253.55,"population":1430,"departement":{"code":"47","nom":"Lot-et-Garonne"},"region":{"code":"75","nom":"Nouvelle-Aquitaine"}},{"nom":"Lévignac-de-Guyenne","code":"47147","codesPostaux":["47120"],"centre":{"type":"Point","coordinates":[0.2039,44.6235]},"surface":2506.9,"population":678,"departement":{"code":"47","nom":"Lot-et-Garonne"},"region":{"code":"75","nom":"Nouvelle-Aquitaine"}},{"nom":"Leyritz-Moncassin","code":"47148","codesPostaux":["47700"],"centre":{"type":"Point","coordinates":[0.1801,44.3347]},"surface":2036.25,"population":206,"departement":{"code":"47","nom":"Lot-et-Garonne"},"region":{"code":"75","nom":"Nouvelle-Aquitaine"}},{"nom":"Longueville","code":"47150","codesPostaux":["47200"],"centre":{"type":"Point","coordinates":[0.2195,44.4637]},"surface":480.6,"population":375,"departement":{"code":"47","nom":"Lot-et-Garonne"},"region":{"code":"75","nom":"Nouvelle-Aquitaine"}},{"nom":"Loubès-Bernac","code":"47151","codesPostaux":["47120"],"centre":{"type":"Point","coordinates":[0.3098,44.7345]},"surface":1925,"population":409,"departement":{"code":"47","nom":"Lot-et-Garonne"},"region":{"code":"75","nom":"Nouvelle-Aquitaine"}},{"nom":"Lougratte","code":"47152","codesPostaux":["47290"],"centre":{"type":"Point","coordinates":[0.6231,44.5931]},"surface":2055.27,"population":422,"departement":{"code":"47","nom":"Lot-et-Garonne"},"region":{"code":"75","nom":"Nouvelle-Aquitaine"}},{"nom":"Lusignan-Petit","code":"47154","codesPostaux":["47360"],"centre":{"type":"Point","coordinates":[0.5141,44.2603]},"surface":730.14,"population":363,"departement":{"code":"47","nom":"Lot-et-Garonne"},"region":{"code":"75","nom":"Nouvelle-Aquitaine"}},{"nom":"Madaillan","code":"47155","codesPostaux":["47360"],"centre":{"type":"Point","coordinates":[0.5815,44.2764]},"surface":2440.05,"population":664,"departement":{"code":"47","nom":"Lot-et-Garonne"},"region":{"code":"75","nom":"Nouvelle-Aquitaine"}},{"nom":"Marcellus","code":"47156","codesPostaux":["47200"],"centre":{"type":"Point","coordinates":[0.0796,44.4807]},"surface":1189.7,"population":874,"departement":{"code":"47","nom":"Lot-et-Garonne"},"region":{"code":"75","nom":"Nouvelle-Aquitaine"}},{"nom":"Marmande","code":"47157","codesPostaux":["47200"],"centre":{"type":"Point","coordinates":[0.1689,44.5014]},"surface":4489.49,"population":17361,"departement":{"code":"47","nom":"Lot-et-Garonne"},"region":{"code":"75","nom":"Nouvelle-Aquitaine"}},{"nom":"Marmont-Pachas","code":"47158","codesPostaux":["47220"],"centre":{"type":"Point","coordinates":[0.5871,44.0956]},"surface":805.02,"population":165,"departement":{"code":"47","nom":"Lot-et-Garonne"},"region":{"code":"75","nom":"Nouvelle-Aquitaine"}},{"nom":"Le Mas-d'Agenais","code":"47159","codesPostaux":["47430"],"centre":{"type":"Point","coordinates":[0.2013,44.399]},"surface":2119.21,"population":1486,"departement":{"code":"47","nom":"Lot-et-Garonne"},"region":{"code":"75","nom":"Nouvelle-Aquitaine"}},{"nom":"Masquières","code":"47160","codesPostaux":["47370"],"centre":{"type":"Point","coordinates":[1.0397,44.408]},"surface":1135.68,"population":175,"departement":{"code":"47","nom":"Lot-et-Garonne"},"region":{"code":"75","nom":"Nouvelle-Aquitaine"}},{"nom":"Massels","code":"47161","codesPostaux":["47140"],"centre":{"type":"Point","coordinates":[0.8558,44.3198]},"surface":621.58,"population":118,"departement":{"code":"47","nom":"Lot-et-Garonne"},"region":{"code":"75","nom":"Nouvelle-Aquitaine"}},{"nom":"Massoulès","code":"47162","codesPostaux":["47140"],"centre":{"type":"Point","coordinates":[0.8673,44.339]},"surface":792.28,"population":201,"departement":{"code":"47","nom":"Lot-et-Garonne"},"region":{"code":"75","nom":"Nouvelle-Aquitaine"}},{"nom":"Mauvezin-sur-Gupie","code":"47163","codesPostaux":["47200"],"centre":{"type":"Point","coordinates":[0.1727,44.5626]},"surface":1592.78,"population":611,"departement":{"code":"47","nom":"Lot-et-Garonne"},"region":{"code":"75","nom":"Nouvelle-Aquitaine"}},{"nom":"Mazières-Naresse","code":"47164","codesPostaux":["47210"],"centre":{"type":"Point","coordinates":[0.7073,44.6543]},"surface":892.69,"population":99,"departement":{"code":"47","nom":"Lot-et-Garonne"},"region":{"code":"75","nom":"Nouvelle-Aquitaine"}},{"nom":"Meilhan-sur-Garonne","code":"47165","codesPostaux":["47180"],"centre":{"type":"Point","coordinates":[0.0348,44.5135]},"surface":2871.35,"population":1330,"departement":{"code":"47","nom":"Lot-et-Garonne"},"region":{"code":"75","nom":"Nouvelle-Aquitaine"}},{"nom":"Mézin","code":"47167","codesPostaux":["47170"],"centre":{"type":"Point","coordinates":[0.2662,44.0569]},"surface":3181.26,"population":1455,"departement":{"code":"47","nom":"Lot-et-Garonne"},"region":{"code":"75","nom":"Nouvelle-Aquitaine"}},{"nom":"Miramont-de-Guyenne","code":"47168","codesPostaux":["47800"],"centre":{"type":"Point","coordinates":[0.3578,44.5883]},"surface":1685.92,"population":3082,"departement":{"code":"47","nom":"Lot-et-Garonne"},"region":{"code":"75","nom":"Nouvelle-Aquitaine"}},{"nom":"Moirax","code":"47169","codesPostaux":["47310"],"centre":{"type":"Point","coordinates":[0.608,44.1358]},"surface":1635.81,"population":1199,"departement":{"code":"47","nom":"Lot-et-Garonne"},"region":{"code":"75","nom":"Nouvelle-Aquitaine"}},{"nom":"Monbahus","code":"47170","codesPostaux":["47290"],"centre":{"type":"Point","coordinates":[0.5224,44.5352]},"surface":3210.64,"population":628,"departement":{"code":"47","nom":"Lot-et-Garonne"},"region":{"code":"75","nom":"Nouvelle-Aquitaine"}},{"nom":"Monbalen","code":"47171","codesPostaux":["47340"],"centre":{"type":"Point","coordinates":[0.7365,44.3131]},"surface":1298.24,"population":449,"departement":{"code":"47","nom":"Lot-et-Garonne"},"region":{"code":"75","nom":"Nouvelle-Aquitaine"}},{"nom":"Moncaut","code":"47172","codesPostaux":["47310"],"centre":{"type":"Point","coordinates":[0.4965,44.1452]},"surface":1589.34,"population":573,"departement":{"code":"47","nom":"Lot-et-Garonne"},"region":{"code":"75","nom":"Nouvelle-Aquitaine"}},{"nom":"Monclar","code":"47173","codesPostaux":["47380"],"centre":{"type":"Point","coordinates":[0.5257,44.4445]},"surface":2421.93,"population":898,"departement":{"code":"47","nom":"Lot-et-Garonne"},"region":{"code":"75","nom":"Nouvelle-Aquitaine"}},{"nom":"Moncrabeau","code":"47174","codesPostaux":["47600"],"centre":{"type":"Point","coordinates":[0.3816,44.0473]},"surface":5028.6,"population":741,"departement":{"code":"47","nom":"Lot-et-Garonne"},"region":{"code":"75","nom":"Nouvelle-Aquitaine"}},{"nom":"Monflanquin","code":"47175","codesPostaux":["47150"],"centre":{"type":"Point","coordinates":[0.7589,44.5102]},"surface":6241.25,"population":2358,"departement":{"code":"47","nom":"Lot-et-Garonne"},"region":{"code":"75","nom":"Nouvelle-Aquitaine"}},{"nom":"Montgaillard-en-Albret","code":"47176","codesPostaux":["47230"],"centre":{"type":"Point","coordinates":[0.2982,44.2097]},"surface":859.12,"population":167,"departement":{"code":"47","nom":"Lot-et-Garonne"},"region":{"code":"75","nom":"Nouvelle-Aquitaine"}},{"nom":"Monheurt","code":"47177","codesPostaux":["47160"],"centre":{"type":"Point","coordinates":[0.3095,44.3366]},"surface":1138.69,"population":193,"departement":{"code":"47","nom":"Lot-et-Garonne"},"region":{"code":"75","nom":"Nouvelle-Aquitaine"}},{"nom":"Monségur","code":"47178","codesPostaux":["47150"],"centre":{"type":"Point","coordinates":[0.8788,44.4848]},"surface":1135.22,"population":400,"departement":{"code":"47","nom":"Lot-et-Garonne"},"region":{"code":"75","nom":"Nouvelle-Aquitaine"}},{"nom":"Monsempron-Libos","code":"47179","codesPostaux":["47500"],"centre":{"type":"Point","coordinates":[0.9282,44.5002]},"surface":903.48,"population":2104,"departement":{"code":"47","nom":"Lot-et-Garonne"},"region":{"code":"75","nom":"Nouvelle-Aquitaine"}},{"nom":"Montagnac-sur-Auvignon","code":"47180","codesPostaux":["47600"],"centre":{"type":"Point","coordinates":[0.4525,44.1645]},"surface":2293.4,"population":641,"departement":{"code":"47","nom":"Lot-et-Garonne"},"region":{"code":"75","nom":"Nouvelle-Aquitaine"}},{"nom":"Montagnac-sur-Lède","code":"47181","codesPostaux":["47150"],"centre":{"type":"Point","coordinates":[0.8442,44.5392]},"surface":1962.33,"population":271,"departement":{"code":"47","nom":"Lot-et-Garonne"},"region":{"code":"75","nom":"Nouvelle-Aquitaine"}},{"nom":"Montastruc","code":"47182","codesPostaux":["47380"],"centre":{"type":"Point","coordinates":[0.517,44.4938]},"surface":2477.81,"population":233,"departement":{"code":"47","nom":"Lot-et-Garonne"},"region":{"code":"75","nom":"Nouvelle-Aquitaine"}},{"nom":"Montauriol","code":"47183","codesPostaux":["47330"],"centre":{"type":"Point","coordinates":[0.5797,44.6158]},"surface":995.42,"population":222,"departement":{"code":"47","nom":"Lot-et-Garonne"},"region":{"code":"75","nom":"Nouvelle-Aquitaine"}},{"nom":"Montaut","code":"47184","codesPostaux":["47210"],"centre":{"type":"Point","coordinates":[0.6825,44.6081]},"surface":1420.3,"population":255,"departement":{"code":"47","nom":"Lot-et-Garonne"},"region":{"code":"75","nom":"Nouvelle-Aquitaine"}},{"nom":"Montayral","code":"47185","codesPostaux":["47500"],"centre":{"type":"Point","coordinates":[0.9865,44.4705]},"surface":2506.71,"population":2667,"departement":{"code":"47","nom":"Lot-et-Garonne"},"region":{"code":"75","nom":"Nouvelle-Aquitaine"}},{"nom":"Montesquieu","code":"47186","codesPostaux":["47130"],"centre":{"type":"Point","coordinates":[0.4528,44.2093]},"surface":2562.75,"population":744,"departement":{"code":"47","nom":"Lot-et-Garonne"},"region":{"code":"75","nom":"Nouvelle-Aquitaine"}},{"nom":"Monteton","code":"47187","codesPostaux":["47120"],"centre":{"type":"Point","coordinates":[0.2493,44.6139]},"surface":1388.77,"population":324,"departement":{"code":"47","nom":"Lot-et-Garonne"},"region":{"code":"75","nom":"Nouvelle-Aquitaine"}},{"nom":"Montignac-de-Lauzun","code":"47188","codesPostaux":["47800"],"centre":{"type":"Point","coordinates":[0.4793,44.568]},"surface":2053,"population":286,"departement":{"code":"47","nom":"Lot-et-Garonne"},"region":{"code":"75","nom":"Nouvelle-Aquitaine"}},{"nom":"Montignac-Toupinerie","code":"47189","codesPostaux":["47350"],"centre":{"type":"Point","coordinates":[0.3514,44.5491]},"surface":834.48,"population":139,"departement":{"code":"47","nom":"Lot-et-Garonne"},"region":{"code":"75","nom":"Nouvelle-Aquitaine"}},{"nom":"Montpezat","code":"47190","codesPostaux":["47360"],"centre":{"type":"Point","coordinates":[0.5289,44.3438]},"surface":2428.92,"population":562,"departement":{"code":"47","nom":"Lot-et-Garonne"},"region":{"code":"75","nom":"Nouvelle-Aquitaine"}},{"nom":"Montpouillan","code":"47191","codesPostaux":["47200"],"centre":{"type":"Point","coordinates":[0.0969,44.4594]},"surface":1212.74,"population":817,"departement":{"code":"47","nom":"Lot-et-Garonne"},"region":{"code":"75","nom":"Nouvelle-Aquitaine"}},{"nom":"Monviel","code":"47192","codesPostaux":["47290"],"centre":{"type":"Point","coordinates":[0.541,44.567]},"surface":625.24,"population":77,"departement":{"code":"47","nom":"Lot-et-Garonne"},"region":{"code":"75","nom":"Nouvelle-Aquitaine"}},{"nom":"Moulinet","code":"47193","codesPostaux":["47290"],"centre":{"type":"Point","coordinates":[0.5871,44.5442]},"surface":1469.94,"population":197,"departement":{"code":"47","nom":"Lot-et-Garonne"},"region":{"code":"75","nom":"Nouvelle-Aquitaine"}},{"nom":"Moustier","code":"47194","codesPostaux":["47800"],"centre":{"type":"Point","coordinates":[0.3017,44.6437]},"surface":833.68,"population":318,"departement":{"code":"47","nom":"Lot-et-Garonne"},"region":{"code":"75","nom":"Nouvelle-Aquitaine"}},{"nom":"Nérac","code":"47195","codesPostaux":["47600"],"centre":{"type":"Point","coordinates":[0.347,44.1339]},"surface":6276.4,"population":6937,"departement":{"code":"47","nom":"Lot-et-Garonne"},"region":{"code":"75","nom":"Nouvelle-Aquitaine"}},{"nom":"Nicole","code":"47196","codesPostaux":["47190"],"centre":{"type":"Point","coordinates":[0.3309,44.3303]},"surface":475.16,"population":239,"departement":{"code":"47","nom":"Lot-et-Garonne"},"region":{"code":"75","nom":"Nouvelle-Aquitaine"}},{"nom":"Nomdieu","code":"47197","codesPostaux":["47600"],"centre":{"type":"Point","coordinates":[0.471,44.0829]},"surface":1262.32,"population":252,"departement":{"code":"47","nom":"Lot-et-Garonne"},"region":{"code":"75","nom":"Nouvelle-Aquitaine"}},{"nom":"Pailloles","code":"47198","codesPostaux":["47440"],"centre":{"type":"Point","coordinates":[0.6521,44.4746]},"surface":924.59,"population":314,"departement":{"code":"47","nom":"Lot-et-Garonne"},"region":{"code":"75","nom":"Nouvelle-Aquitaine"}},{"nom":"Pardaillan","code":"47199","codesPostaux":["47120"],"centre":{"type":"Point","coordinates":[0.2674,44.6666]},"surface":1965.07,"population":334,"departement":{"code":"47","nom":"Lot-et-Garonne"},"region":{"code":"75","nom":"Nouvelle-Aquitaine"}},{"nom":"Parranquet","code":"47200","codesPostaux":["47210"],"centre":{"type":"Point","coordinates":[0.8187,44.6628]},"surface":961.92,"population":115,"departement":{"code":"47","nom":"Lot-et-Garonne"},"region":{"code":"75","nom":"Nouvelle-Aquitaine"}},{"nom":"Le Passage","code":"47201","codesPostaux":["47520"],"centre":{"type":"Point","coordinates":[0.5873,44.1898]},"surface":1290.74,"population":9360,"departement":{"code":"47","nom":"Lot-et-Garonne"},"region":{"code":"75","nom":"Nouvelle-Aquitaine"}},{"nom":"Paulhiac","code":"47202","codesPostaux":["47150"],"centre":{"type":"Point","coordinates":[0.8239,44.5794]},"surface":2239.11,"population":307,"departement":{"code":"47","nom":"Lot-et-Garonne"},"region":{"code":"75","nom":"Nouvelle-Aquitaine"}},{"nom":"Penne-d'Agenais","code":"47203","codesPostaux":["47140"],"centre":{"type":"Point","coordinates":[0.8356,44.3861]},"surface":4710.42,"population":2495,"departement":{"code":"47","nom":"Lot-et-Garonne"},"region":{"code":"75","nom":"Nouvelle-Aquitaine"}},{"nom":"Peyrière","code":"47204","codesPostaux":["47350"],"centre":{"type":"Point","coordinates":[0.3054,44.5772]},"surface":817.14,"population":290,"departement":{"code":"47","nom":"Lot-et-Garonne"},"region":{"code":"75","nom":"Nouvelle-Aquitaine"}},{"nom":"Pindères","code":"47205","codesPostaux":["47700"],"centre":{"type":"Point","coordinates":[0.0006,44.2723]},"surface":4108.75,"population":190,"departement":{"code":"47","nom":"Lot-et-Garonne"},"region":{"code":"75","nom":"Nouvelle-Aquitaine"}},{"nom":"Pinel-Hauterive","code":"47206","codesPostaux":["47380"],"centre":{"type":"Point","coordinates":[0.5719,44.4637]},"surface":2191.65,"population":572,"departement":{"code":"47","nom":"Lot-et-Garonne"},"region":{"code":"75","nom":"Nouvelle-Aquitaine"}},{"nom":"Pompiey","code":"47207","codesPostaux":["47230"],"centre":{"type":"Point","coordinates":[0.2042,44.1994]},"surface":1972.34,"population":213,"departement":{"code":"47","nom":"Lot-et-Garonne"},"region":{"code":"75","nom":"Nouvelle-Aquitaine"}},{"nom":"Pompogne","code":"47208","codesPostaux":["47420"],"centre":{"type":"Point","coordinates":[0.0629,44.2425]},"surface":3623.85,"population":195,"departement":{"code":"47","nom":"Lot-et-Garonne"},"region":{"code":"75","nom":"Nouvelle-Aquitaine"}},{"nom":"Pont-du-Casse","code":"47209","codesPostaux":["47480"],"centre":{"type":"Point","coordinates":[0.6796,44.2401]},"surface":1927.88,"population":4192,"departement":{"code":"47","nom":"Lot-et-Garonne"},"region":{"code":"75","nom":"Nouvelle-Aquitaine"}},{"nom":"Port-Sainte-Marie","code":"47210","codesPostaux":["47130"],"centre":{"type":"Point","coordinates":[0.3735,44.2649]},"surface":1903.91,"population":1846,"departement":{"code":"47","nom":"Lot-et-Garonne"},"region":{"code":"75","nom":"Nouvelle-Aquitaine"}},{"nom":"Poudenas","code":"47211","codesPostaux":["47170"],"centre":{"type":"Point","coordinates":[0.199,44.0395]},"surface":1737.87,"population":200,"departement":{"code":"47","nom":"Lot-et-Garonne"},"region":{"code":"75","nom":"Nouvelle-Aquitaine"}},{"nom":"Poussignac","code":"47212","codesPostaux":["47700"],"centre":{"type":"Point","coordinates":[0.0772,44.3511]},"surface":1312.59,"population":307,"departement":{"code":"47","nom":"Lot-et-Garonne"},"region":{"code":"75","nom":"Nouvelle-Aquitaine"}},{"nom":"Prayssas","code":"47213","codesPostaux":["47360"],"centre":{"type":"Point","coordinates":[0.5185,44.2943]},"surface":2661.21,"population":995,"departement":{"code":"47","nom":"Lot-et-Garonne"},"region":{"code":"75","nom":"Nouvelle-Aquitaine"}},{"nom":"Puch-d'Agenais","code":"47214","codesPostaux":["47160"],"centre":{"type":"Point","coordinates":[0.2604,44.3323]},"surface":2323.13,"population":713,"departement":{"code":"47","nom":"Lot-et-Garonne"},"region":{"code":"75","nom":"Nouvelle-Aquitaine"}},{"nom":"Pujols","code":"47215","codesPostaux":["47300"],"centre":{"type":"Point","coordinates":[0.7006,44.3687]},"surface":2522.31,"population":3776,"departement":{"code":"47","nom":"Lot-et-Garonne"},"region":{"code":"75","nom":"Nouvelle-Aquitaine"}},{"nom":"Puymiclan","code":"47216","codesPostaux":["47350"],"centre":{"type":"Point","coordinates":[0.3127,44.5124]},"surface":2591.55,"population":707,"departement":{"code":"47","nom":"Lot-et-Garonne"},"region":{"code":"75","nom":"Nouvelle-Aquitaine"}},{"nom":"Puymirol","code":"47217","codesPostaux":["47270"],"centre":{"type":"Point","coordinates":[0.8076,44.1916]},"surface":1964.68,"population":903,"departement":{"code":"47","nom":"Lot-et-Garonne"},"region":{"code":"75","nom":"Nouvelle-Aquitaine"}},{"nom":"Puysserampion","code":"47218","codesPostaux":["47800"],"centre":{"type":"Point","coordinates":[0.319,44.5975]},"surface":1082.42,"population":256,"departement":{"code":"47","nom":"Lot-et-Garonne"},"region":{"code":"75","nom":"Nouvelle-Aquitaine"}},{"nom":"Rayet","code":"47219","codesPostaux":["47210"],"centre":{"type":"Point","coordinates":[0.7607,44.6687]},"surface":1003.12,"population":174,"departement":{"code":"47","nom":"Lot-et-Garonne"},"region":{"code":"75","nom":"Nouvelle-Aquitaine"}},{"nom":"Razimet","code":"47220","codesPostaux":["47160"],"centre":{"type":"Point","coordinates":[0.2295,44.3528]},"surface":731,"population":300,"departement":{"code":"47","nom":"Lot-et-Garonne"},"region":{"code":"75","nom":"Nouvelle-Aquitaine"}},{"nom":"Réaup-Lisse","code":"47221","codesPostaux":["47170"],"centre":{"type":"Point","coordinates":[0.2109,44.0935]},"surface":7104.38,"population":594,"departement":{"code":"47","nom":"Lot-et-Garonne"},"region":{"code":"75","nom":"Nouvelle-Aquitaine"}},{"nom":"La Réunion","code":"47222","codesPostaux":["47700"],"centre":{"type":"Point","coordinates":[0.1163,44.2843]},"surface":2816.28,"population":515,"departement":{"code":"47","nom":"Lot-et-Garonne"},"region":{"code":"75","nom":"Nouvelle-Aquitaine"}},{"nom":"Rives","code":"47223","codesPostaux":["47210"],"centre":{"type":"Point","coordinates":[0.7377,44.6555]},"surface":1280.18,"population":195,"departement":{"code":"47","nom":"Lot-et-Garonne"},"region":{"code":"75","nom":"Nouvelle-Aquitaine"}},{"nom":"Romestaing","code":"47224","codesPostaux":["47250"],"centre":{"type":"Point","coordinates":[0.0174,44.4153]},"surface":1558.36,"population":158,"departement":{"code":"47","nom":"Lot-et-Garonne"},"region":{"code":"75","nom":"Nouvelle-Aquitaine"}},{"nom":"Roquefort","code":"47225","codesPostaux":["47310"],"centre":{"type":"Point","coordinates":[0.5615,44.1739]},"surface":755.98,"population":2091,"departement":{"code":"47","nom":"Lot-et-Garonne"},"region":{"code":"75","nom":"Nouvelle-Aquitaine"}},{"nom":"Roumagne","code":"47226","codesPostaux":["47800"],"centre":{"type":"Point","coordinates":[0.3409,44.6242]},"surface":1062.97,"population":529,"departement":{"code":"47","nom":"Lot-et-Garonne"},"region":{"code":"75","nom":"Nouvelle-Aquitaine"}},{"nom":"Ruffiac","code":"47227","codesPostaux":["47700"],"centre":{"type":"Point","coordinates":[0.0392,44.3685]},"surface":1302.53,"population":180,"departement":{"code":"47","nom":"Lot-et-Garonne"},"region":{"code":"75","nom":"Nouvelle-Aquitaine"}},{"nom":"Saint-Antoine-de-Ficalba","code":"47228","codesPostaux":["47340"],"centre":{"type":"Point","coordinates":[0.7182,44.3393]},"surface":1102.07,"population":714,"departement":{"code":"47","nom":"Lot-et-Garonne"},"region":{"code":"75","nom":"Nouvelle-Aquitaine"}},{"nom":"Saint-Astier","code":"47229","codesPostaux":["47120"],"centre":{"type":"Point","coordinates":[0.2725,44.7275]},"surface":952.96,"population":213,"departement":{"code":"47","nom":"Lot-et-Garonne"},"region":{"code":"75","nom":"Nouvelle-Aquitaine"}},{"nom":"Saint-Aubin","code":"47230","codesPostaux":["47150"],"centre":{"type":"Point","coordinates":[0.8322,44.4741]},"surface":1850.13,"population":389,"departement":{"code":"47","nom":"Lot-et-Garonne"},"region":{"code":"75","nom":"Nouvelle-Aquitaine"}},{"nom":"Saint-Avit","code":"47231","codesPostaux":["47350"],"centre":{"type":"Point","coordinates":[0.2205,44.575]},"surface":904.58,"population":183,"departement":{"code":"47","nom":"Lot-et-Garonne"},"region":{"code":"75","nom":"Nouvelle-Aquitaine"}},{"nom":"Saint-Barthélemy-d'Agenais","code":"47232","codesPostaux":["47350"],"centre":{"type":"Point","coordinates":[0.365,44.5209]},"surface":1543.23,"population":530,"departement":{"code":"47","nom":"Lot-et-Garonne"},"region":{"code":"75","nom":"Nouvelle-Aquitaine"}},{"nom":"Sainte-Bazeille","code":"47233","codesPostaux":["47180"],"centre":{"type":"Point","coordinates":[0.1052,44.5306]},"surface":2085.22,"population":3183,"departement":{"code":"47","nom":"Lot-et-Garonne"},"region":{"code":"75","nom":"Nouvelle-Aquitaine"}},{"nom":"Saint-Caprais-de-Lerm","code":"47234","codesPostaux":["47270"],"centre":{"type":"Point","coordinates":[0.7544,44.2149]},"surface":1361.65,"population":703,"departement":{"code":"47","nom":"Lot-et-Garonne"},"region":{"code":"75","nom":"Nouvelle-Aquitaine"}},{"nom":"Saint-Colomb-de-Lauzun","code":"47235","codesPostaux":["47410"],"centre":{"type":"Point","coordinates":[0.4741,44.6063]},"surface":2332.92,"population":474,"departement":{"code":"47","nom":"Lot-et-Garonne"},"region":{"code":"75","nom":"Nouvelle-Aquitaine"}},{"nom":"Sainte-Colombe-de-Duras","code":"47236","codesPostaux":["47120"],"centre":{"type":"Point","coordinates":[0.1201,44.6971]},"surface":698.95,"population":100,"departement":{"code":"47","nom":"Lot-et-Garonne"},"region":{"code":"75","nom":"Nouvelle-Aquitaine"}},{"nom":"Sainte-Colombe-de-Villeneuve","code":"47237","codesPostaux":["47300"],"centre":{"type":"Point","coordinates":[0.6609,44.3594]},"surface":1902.61,"population":498,"departement":{"code":"47","nom":"Lot-et-Garonne"},"region":{"code":"75","nom":"Nouvelle-Aquitaine"}},{"nom":"Sainte-Colombe-en-Bruilhois","code":"47238","codesPostaux":["47310"],"centre":{"type":"Point","coordinates":[0.5162,44.1874]},"surface":2124.8,"population":1552,"departement":{"code":"47","nom":"Lot-et-Garonne"},"region":{"code":"75","nom":"Nouvelle-Aquitaine"}},{"nom":"Saint-Étienne-de-Fougères","code":"47239","codesPostaux":["47380"],"centre":{"type":"Point","coordinates":[0.557,44.4125]},"surface":995.84,"population":862,"departement":{"code":"47","nom":"Lot-et-Garonne"},"region":{"code":"75","nom":"Nouvelle-Aquitaine"}},{"nom":"Saint-Étienne-de-Villeréal","code":"47240","codesPostaux":["47210"],"centre":{"type":"Point","coordinates":[0.7624,44.6124]},"surface":1454.49,"population":266,"departement":{"code":"47","nom":"Lot-et-Garonne"},"region":{"code":"75","nom":"Nouvelle-Aquitaine"}},{"nom":"Saint-Eutrope-de-Born","code":"47241","codesPostaux":["47210"],"centre":{"type":"Point","coordinates":[0.7078,44.5792]},"surface":3833.09,"population":683,"departement":{"code":"47","nom":"Lot-et-Garonne"},"region":{"code":"75","nom":"Nouvelle-Aquitaine"}},{"nom":"Saint-Front-sur-Lémance","code":"47242","codesPostaux":["47500"],"centre":{"type":"Point","coordinates":[0.9975,44.5632]},"surface":1979.99,"population":501,"departement":{"code":"47","nom":"Lot-et-Garonne"},"region":{"code":"75","nom":"Nouvelle-Aquitaine"}},{"nom":"Sainte-Gemme-Martaillac","code":"47244","codesPostaux":["47250"],"centre":{"type":"Point","coordinates":[0.1593,44.3701]},"surface":1416.44,"population":383,"departement":{"code":"47","nom":"Lot-et-Garonne"},"region":{"code":"75","nom":"Nouvelle-Aquitaine"}},{"nom":"Saint-Géraud","code":"47245","codesPostaux":["47120"],"centre":{"type":"Point","coordinates":[0.1574,44.6239]},"surface":573.31,"population":86,"departement":{"code":"47","nom":"Lot-et-Garonne"},"region":{"code":"75","nom":"Nouvelle-Aquitaine"}},{"nom":"Saint-Hilaire-de-Lusignan","code":"47246","codesPostaux":["47450"],"centre":{"type":"Point","coordinates":[0.5365,44.2476]},"surface":1687,"population":1509,"departement":{"code":"47","nom":"Lot-et-Garonne"},"region":{"code":"75","nom":"Nouvelle-Aquitaine"}},{"nom":"Saint-Jean-de-Duras","code":"47247","codesPostaux":["47120"],"centre":{"type":"Point","coordinates":[0.3002,44.6904]},"surface":1665.32,"population":255,"departement":{"code":"47","nom":"Lot-et-Garonne"},"region":{"code":"75","nom":"Nouvelle-Aquitaine"}},{"nom":"Saint-Jean-de-Thurac","code":"47248","codesPostaux":["47270"],"centre":{"type":"Point","coordinates":[0.7406,44.1552]},"surface":508.71,"population":560,"departement":{"code":"47","nom":"Lot-et-Garonne"},"region":{"code":"75","nom":"Nouvelle-Aquitaine"}},{"nom":"Saint-Laurent","code":"47249","codesPostaux":["47130"],"centre":{"type":"Point","coordinates":[0.4043,44.2372]},"surface":424.29,"population":459,"departement":{"code":"47","nom":"Lot-et-Garonne"},"region":{"code":"75","nom":"Nouvelle-Aquitaine"}},{"nom":"Saint-Léger","code":"47250","codesPostaux":["47160"],"centre":{"type":"Point","coordinates":[0.3138,44.2988]},"surface":575.36,"population":157,"departement":{"code":"47","nom":"Lot-et-Garonne"},"region":{"code":"75","nom":"Nouvelle-Aquitaine"}},{"nom":"Saint-Léon","code":"47251","codesPostaux":["47160"],"centre":{"type":"Point","coordinates":[0.2386,44.2874]},"surface":958.62,"population":326,"departement":{"code":"47","nom":"Lot-et-Garonne"},"region":{"code":"75","nom":"Nouvelle-Aquitaine"}},{"nom":"Sainte-Livrade-sur-Lot","code":"47252","codesPostaux":["47110"],"centre":{"type":"Point","coordinates":[0.6005,44.4064]},"surface":3107.51,"population":6518,"departement":{"code":"47","nom":"Lot-et-Garonne"},"region":{"code":"75","nom":"Nouvelle-Aquitaine"}},{"nom":"Sainte-Marthe","code":"47253","codesPostaux":["47430"],"centre":{"type":"Point","coordinates":[0.1477,44.4178]},"surface":966.45,"population":657,"departement":{"code":"47","nom":"Lot-et-Garonne"},"region":{"code":"75","nom":"Nouvelle-Aquitaine"}},{"nom":"Saint-Martin-Curton","code":"47254","codesPostaux":["47700"],"centre":{"type":"Point","coordinates":[-0.0167,44.329]},"surface":4158.11,"population":305,"departement":{"code":"47","nom":"Lot-et-Garonne"},"region":{"code":"75","nom":"Nouvelle-Aquitaine"}},{"nom":"Saint-Martin-de-Beauville","code":"47255","codesPostaux":["47270"],"centre":{"type":"Point","coordinates":[0.8196,44.2306]},"surface":758.51,"population":156,"departement":{"code":"47","nom":"Lot-et-Garonne"},"region":{"code":"75","nom":"Nouvelle-Aquitaine"}},{"nom":"Saint-Martin-de-Villeréal","code":"47256","codesPostaux":["47210"],"centre":{"type":"Point","coordinates":[0.8118,44.6389]},"surface":826.46,"population":105,"departement":{"code":"47","nom":"Lot-et-Garonne"},"region":{"code":"75","nom":"Nouvelle-Aquitaine"}},{"nom":"Saint-Martin-Petit","code":"47257","codesPostaux":["47180"],"centre":{"type":"Point","coordinates":[0.0921,44.5683]},"surface":640.02,"population":624,"departement":{"code":"47","nom":"Lot-et-Garonne"},"region":{"code":"75","nom":"Nouvelle-Aquitaine"}},{"nom":"Sainte-Maure-de-Peyriac","code":"47258","codesPostaux":["47170"],"centre":{"type":"Point","coordinates":[0.1568,44.0062]},"surface":2322.88,"population":305,"departement":{"code":"47","nom":"Lot-et-Garonne"},"region":{"code":"75","nom":"Nouvelle-Aquitaine"}},{"nom":"Saint-Maurice-de-Lestapel","code":"47259","codesPostaux":["47290"],"centre":{"type":"Point","coordinates":[0.5723,44.582]},"surface":783.04,"population":107,"departement":{"code":"47","nom":"Lot-et-Garonne"},"region":{"code":"75","nom":"Nouvelle-Aquitaine"}},{"nom":"Saint-Maurin","code":"47260","codesPostaux":["47270"],"centre":{"type":"Point","coordinates":[0.8949,44.2185]},"surface":2181.91,"population":383,"departement":{"code":"47","nom":"Lot-et-Garonne"},"region":{"code":"75","nom":"Nouvelle-Aquitaine"}},{"nom":"Saint-Nicolas-de-la-Balerme","code":"47262","codesPostaux":["47220"],"centre":{"type":"Point","coordinates":[0.7587,44.1324]},"surface":476.37,"population":425,"departement":{"code":"47","nom":"Lot-et-Garonne"},"region":{"code":"75","nom":"Nouvelle-Aquitaine"}},{"nom":"Saint-Pardoux-du-Breuil","code":"47263","codesPostaux":["47200"],"centre":{"type":"Point","coordinates":[0.2007,44.4701]},"surface":728.76,"population":618,"departement":{"code":"47","nom":"Lot-et-Garonne"},"region":{"code":"75","nom":"Nouvelle-Aquitaine"}},{"nom":"Saint-Pardoux-Isaac","code":"47264","codesPostaux":["47800"],"centre":{"type":"Point","coordinates":[0.3777,44.6143]},"surface":735.72,"population":1101,"departement":{"code":"47","nom":"Lot-et-Garonne"},"region":{"code":"75","nom":"Nouvelle-Aquitaine"}},{"nom":"Saint-Pastour","code":"47265","codesPostaux":["47290"],"centre":{"type":"Point","coordinates":[0.5984,44.4856]},"surface":1466.66,"population":377,"departement":{"code":"47","nom":"Lot-et-Garonne"},"region":{"code":"75","nom":"Nouvelle-Aquitaine"}},{"nom":"Saint-Pé-Saint-Simon","code":"47266","codesPostaux":["47170"],"centre":{"type":"Point","coordinates":[0.0961,44.0016]},"surface":1761.93,"population":185,"departement":{"code":"47","nom":"Lot-et-Garonne"},"region":{"code":"75","nom":"Nouvelle-Aquitaine"}},{"nom":"Saint-Pierre-de-Buzet","code":"47267","codesPostaux":["47160"],"centre":{"type":"Point","coordinates":[0.2673,44.2594]},"surface":854.5,"population":276,"departement":{"code":"47","nom":"Lot-et-Garonne"},"region":{"code":"75","nom":"Nouvelle-Aquitaine"}},{"nom":"Saint-Pierre-de-Clairac","code":"47269","codesPostaux":["47270"],"centre":{"type":"Point","coordinates":[0.7512,44.1832]},"surface":1325.62,"population":871,"departement":{"code":"47","nom":"Lot-et-Garonne"},"region":{"code":"75","nom":"Nouvelle-Aquitaine"}},{"nom":"Saint-Pierre-sur-Dropt","code":"47271","codesPostaux":["47120"],"centre":{"type":"Point","coordinates":[0.2097,44.6496]},"surface":824.24,"population":358,"departement":{"code":"47","nom":"Lot-et-Garonne"},"region":{"code":"75","nom":"Nouvelle-Aquitaine"}},{"nom":"Saint-Quentin-du-Dropt","code":"47272","codesPostaux":["47330"],"centre":{"type":"Point","coordinates":[0.6031,44.6816]},"surface":1191.18,"population":185,"departement":{"code":"47","nom":"Lot-et-Garonne"},"region":{"code":"75","nom":"Nouvelle-Aquitaine"}},{"nom":"Saint-Robert","code":"47273","codesPostaux":["47340"],"centre":{"type":"Point","coordinates":[0.7919,44.2504]},"surface":671.78,"population":192,"departement":{"code":"47","nom":"Lot-et-Garonne"},"region":{"code":"75","nom":"Nouvelle-Aquitaine"}},{"nom":"Saint-Romain-le-Noble","code":"47274","codesPostaux":["47270"],"centre":{"type":"Point","coordinates":[0.7749,44.1571]},"surface":852.41,"population":401,"departement":{"code":"47","nom":"Lot-et-Garonne"},"region":{"code":"75","nom":"Nouvelle-Aquitaine"}},{"nom":"Saint-Salvy","code":"47275","codesPostaux":["47360"],"centre":{"type":"Point","coordinates":[0.4479,44.3009]},"surface":934.57,"population":200,"departement":{"code":"47","nom":"Lot-et-Garonne"},"region":{"code":"75","nom":"Nouvelle-Aquitaine"}},{"nom":"Saint-Sardos","code":"47276","codesPostaux":["47360"],"centre":{"type":"Point","coordinates":[0.4905,44.3404]},"surface":1446.66,"population":292,"departement":{"code":"47","nom":"Lot-et-Garonne"},"region":{"code":"75","nom":"Nouvelle-Aquitaine"}},{"nom":"Saint-Sauveur-de-Meilhan","code":"47277","codesPostaux":["47180"],"centre":{"type":"Point","coordinates":[-0.0035,44.4892]},"surface":705.79,"population":344,"departement":{"code":"47","nom":"Lot-et-Garonne"},"region":{"code":"75","nom":"Nouvelle-Aquitaine"}},{"nom":"Saint-Sernin","code":"47278","codesPostaux":["47120"],"centre":{"type":"Point","coordinates":[0.243,44.7043]},"surface":2127.1,"population":483,"departement":{"code":"47","nom":"Lot-et-Garonne"},"region":{"code":"75","nom":"Nouvelle-Aquitaine"}},{"nom":"Saint-Sixte","code":"47279","codesPostaux":["47220"],"centre":{"type":"Point","coordinates":[0.7806,44.1269]},"surface":587.43,"population":356,"departement":{"code":"47","nom":"Lot-et-Garonne"},"region":{"code":"75","nom":"Nouvelle-Aquitaine"}},{"nom":"Saint-Sylvestre-sur-Lot","code":"47280","codesPostaux":["47140"],"centre":{"type":"Point","coordinates":[0.8075,44.4192]},"surface":2146.21,"population":2388,"departement":{"code":"47","nom":"Lot-et-Garonne"},"region":{"code":"75","nom":"Nouvelle-Aquitaine"}},{"nom":"Saint-Urcisse","code":"47281","codesPostaux":["47270"],"centre":{"type":"Point","coordinates":[0.8311,44.1632]},"surface":1095.76,"population":245,"departement":{"code":"47","nom":"Lot-et-Garonne"},"region":{"code":"75","nom":"Nouvelle-Aquitaine"}},{"nom":"Saint-Vincent-de-Lamontjoie","code":"47282","codesPostaux":["47310"],"centre":{"type":"Point","coordinates":[0.5018,44.095]},"surface":1529.18,"population":226,"departement":{"code":"47","nom":"Lot-et-Garonne"},"region":{"code":"75","nom":"Nouvelle-Aquitaine"}},{"nom":"Saint-Vite","code":"47283","codesPostaux":["47500"],"centre":{"type":"Point","coordinates":[0.9312,44.4688]},"surface":556.62,"population":1187,"departement":{"code":"47","nom":"Lot-et-Garonne"},"region":{"code":"75","nom":"Nouvelle-Aquitaine"}},{"nom":"Salles","code":"47284","codesPostaux":["47150"],"centre":{"type":"Point","coordinates":[0.896,44.5352]},"surface":2157.68,"population":287,"departement":{"code":"47","nom":"Lot-et-Garonne"},"region":{"code":"75","nom":"Nouvelle-Aquitaine"}},{"nom":"Samazan","code":"47285","codesPostaux":["47250"],"centre":{"type":"Point","coordinates":[0.1073,44.4382]},"surface":1730.62,"population":855,"departement":{"code":"47","nom":"Lot-et-Garonne"},"region":{"code":"75","nom":"Nouvelle-Aquitaine"}},{"nom":"Sauméjan","code":"47286","codesPostaux":["47420"],"centre":{"type":"Point","coordinates":[-0.0227,44.2273]},"surface":1972.41,"population":87,"departement":{"code":"47","nom":"Lot-et-Garonne"},"region":{"code":"75","nom":"Nouvelle-Aquitaine"}},{"nom":"Saumont","code":"47287","codesPostaux":["47600"],"centre":{"type":"Point","coordinates":[0.4556,44.1283]},"surface":677.54,"population":242,"departement":{"code":"47","nom":"Lot-et-Garonne"},"region":{"code":"75","nom":"Nouvelle-Aquitaine"}},{"nom":"Sauvagnas","code":"47288","codesPostaux":["47340"],"centre":{"type":"Point","coordinates":[0.7465,44.2448]},"surface":1361.43,"population":525,"departement":{"code":"47","nom":"Lot-et-Garonne"},"region":{"code":"75","nom":"Nouvelle-Aquitaine"}},{"nom":"La Sauvetat-de-Savères","code":"47289","codesPostaux":["47270"],"centre":{"type":"Point","coordinates":[0.7965,44.2333]},"surface":691.97,"population":482,"departement":{"code":"47","nom":"Lot-et-Garonne"},"region":{"code":"75","nom":"Nouvelle-Aquitaine"}},{"nom":"La Sauvetat-du-Dropt","code":"47290","codesPostaux":["47800"],"centre":{"type":"Point","coordinates":[0.3303,44.6452]},"surface":1029.97,"population":565,"departement":{"code":"47","nom":"Lot-et-Garonne"},"region":{"code":"75","nom":"Nouvelle-Aquitaine"}},{"nom":"La Sauvetat-sur-Lède","code":"47291","codesPostaux":["47150"],"centre":{"type":"Point","coordinates":[0.7183,44.4824]},"surface":1409.41,"population":638,"departement":{"code":"47","nom":"Lot-et-Garonne"},"region":{"code":"75","nom":"Nouvelle-Aquitaine"}},{"nom":"Sauveterre-la-Lémance","code":"47292","codesPostaux":["47500"],"centre":{"type":"Point","coordinates":[1.0366,44.5868]},"surface":2358.32,"population":569,"departement":{"code":"47","nom":"Lot-et-Garonne"},"region":{"code":"75","nom":"Nouvelle-Aquitaine"}},{"nom":"Sauveterre-Saint-Denis","code":"47293","codesPostaux":["47220"],"centre":{"type":"Point","coordinates":[0.7022,44.1489]},"surface":824.59,"population":385,"departement":{"code":"47","nom":"Lot-et-Garonne"},"region":{"code":"75","nom":"Nouvelle-Aquitaine"}},{"nom":"Savignac-de-Duras","code":"47294","codesPostaux":["47120"],"centre":{"type":"Point","coordinates":[0.1846,44.7193]},"surface":1491.51,"population":214,"departement":{"code":"47","nom":"Lot-et-Garonne"},"region":{"code":"75","nom":"Nouvelle-Aquitaine"}},{"nom":"Savignac-sur-Leyze","code":"47295","codesPostaux":["47150"],"centre":{"type":"Point","coordinates":[0.796,44.4855]},"surface":1151.38,"population":317,"departement":{"code":"47","nom":"Lot-et-Garonne"},"region":{"code":"75","nom":"Nouvelle-Aquitaine"}},{"nom":"Ségalas","code":"47296","codesPostaux":["47410"],"centre":{"type":"Point","coordinates":[0.5336,44.589]},"surface":1288.54,"population":156,"departement":{"code":"47","nom":"Lot-et-Garonne"},"region":{"code":"75","nom":"Nouvelle-Aquitaine"}},{"nom":"Sembas","code":"47297","codesPostaux":["47360"],"centre":{"type":"Point","coordinates":[0.6448,44.3222]},"surface":1261.08,"population":142,"departement":{"code":"47","nom":"Lot-et-Garonne"},"region":{"code":"75","nom":"Nouvelle-Aquitaine"}},{"nom":"Sénestis","code":"47298","codesPostaux":["47430"],"centre":{"type":"Point","coordinates":[0.2379,44.4204]},"surface":1129.6,"population":199,"departement":{"code":"47","nom":"Lot-et-Garonne"},"region":{"code":"75","nom":"Nouvelle-Aquitaine"}},{"nom":"Sérignac-Péboudou","code":"47299","codesPostaux":["47410"],"centre":{"type":"Point","coordinates":[0.5352,44.6177]},"surface":1222.69,"population":176,"departement":{"code":"47","nom":"Lot-et-Garonne"},"region":{"code":"75","nom":"Nouvelle-Aquitaine"}},{"nom":"Sérignac-sur-Garonne","code":"47300","codesPostaux":["47310"],"centre":{"type":"Point","coordinates":[0.4974,44.214]},"surface":891.49,"population":1178,"departement":{"code":"47","nom":"Lot-et-Garonne"},"region":{"code":"75","nom":"Nouvelle-Aquitaine"}},{"nom":"Seyches","code":"47301","codesPostaux":["47350"],"centre":{"type":"Point","coordinates":[0.2958,44.5471]},"surface":2490.5,"population":1057,"departement":{"code":"47","nom":"Lot-et-Garonne"},"region":{"code":"75","nom":"Nouvelle-Aquitaine"}},{"nom":"Sos","code":"47302","codesPostaux":["47170"],"centre":{"type":"Point","coordinates":[0.1303,44.0628]},"surface":5322.15,"population":659,"departement":{"code":"47","nom":"Lot-et-Garonne"},"region":{"code":"75","nom":"Nouvelle-Aquitaine"}},{"nom":"Soumensac","code":"47303","codesPostaux":["47120"],"centre":{"type":"Point","coordinates":[0.332,44.6877]},"surface":1142.22,"population":224,"departement":{"code":"47","nom":"Lot-et-Garonne"},"region":{"code":"75","nom":"Nouvelle-Aquitaine"}},{"nom":"Taillebourg","code":"47304","codesPostaux":["47200"],"centre":{"type":"Point","coordinates":[0.2053,44.4447]},"surface":716.17,"population":65,"departement":{"code":"47","nom":"Lot-et-Garonne"},"region":{"code":"75","nom":"Nouvelle-Aquitaine"}},{"nom":"Tayrac","code":"47305","codesPostaux":["47270"],"centre":{"type":"Point","coordinates":[0.8351,44.2087]},"surface":1298.75,"population":380,"departement":{"code":"47","nom":"Lot-et-Garonne"},"region":{"code":"75","nom":"Nouvelle-Aquitaine"}},{"nom":"Le Temple-sur-Lot","code":"47306","codesPostaux":["47110"],"centre":{"type":"Point","coordinates":[0.5203,44.3761]},"surface":1701.16,"population":1112,"departement":{"code":"47","nom":"Lot-et-Garonne"},"region":{"code":"75","nom":"Nouvelle-Aquitaine"}},{"nom":"Thézac","code":"47307","codesPostaux":["47370"],"centre":{"type":"Point","coordinates":[1.0194,44.4343]},"surface":1130.93,"population":209,"departement":{"code":"47","nom":"Lot-et-Garonne"},"region":{"code":"75","nom":"Nouvelle-Aquitaine"}},{"nom":"Thouars-sur-Garonne","code":"47308","codesPostaux":["47230"],"centre":{"type":"Point","coordinates":[0.3304,44.2557]},"surface":401.56,"population":225,"departement":{"code":"47","nom":"Lot-et-Garonne"},"region":{"code":"75","nom":"Nouvelle-Aquitaine"}},{"nom":"Tombebœuf","code":"47309","codesPostaux":["47380"],"centre":{"type":"Point","coordinates":[0.46,44.5208]},"surface":1842.42,"population":448,"departement":{"code":"47","nom":"Lot-et-Garonne"},"region":{"code":"75","nom":"Nouvelle-Aquitaine"}},{"nom":"Tonneins","code":"47310","codesPostaux":["47400"],"centre":{"type":"Point","coordinates":[0.3296,44.3842]},"surface":3482.36,"population":9461,"departement":{"code":"47","nom":"Lot-et-Garonne"},"region":{"code":"75","nom":"Nouvelle-Aquitaine"}},{"nom":"Tourliac","code":"47311","codesPostaux":["47210"],"centre":{"type":"Point","coordinates":[0.8081,44.6848]},"surface":978.57,"population":140,"departement":{"code":"47","nom":"Lot-et-Garonne"},"region":{"code":"75","nom":"Nouvelle-Aquitaine"}},{"nom":"Tournon-d'Agenais","code":"47312","codesPostaux":["47370"],"centre":{"type":"Point","coordinates":[0.989,44.3922]},"surface":2145.26,"population":742,"departement":{"code":"47","nom":"Lot-et-Garonne"},"region":{"code":"75","nom":"Nouvelle-Aquitaine"}},{"nom":"Tourtrès","code":"47313","codesPostaux":["47380"],"centre":{"type":"Point","coordinates":[0.417,44.5098]},"surface":1174.68,"population":140,"departement":{"code":"47","nom":"Lot-et-Garonne"},"region":{"code":"75","nom":"Nouvelle-Aquitaine"}},{"nom":"Trémons","code":"47314","codesPostaux":["47140"],"centre":{"type":"Point","coordinates":[0.8862,44.4169]},"surface":1355.14,"population":404,"departement":{"code":"47","nom":"Lot-et-Garonne"},"region":{"code":"75","nom":"Nouvelle-Aquitaine"}},{"nom":"Trentels","code":"47315","codesPostaux":["47140"],"centre":{"type":"Point","coordinates":[0.8615,44.4438]},"surface":1960.04,"population":866,"departement":{"code":"47","nom":"Lot-et-Garonne"},"region":{"code":"75","nom":"Nouvelle-Aquitaine"}},{"nom":"Varès","code":"47316","codesPostaux":["47400"],"centre":{"type":"Point","coordinates":[0.3604,44.4321]},"surface":1683.34,"population":658,"departement":{"code":"47","nom":"Lot-et-Garonne"},"region":{"code":"75","nom":"Nouvelle-Aquitaine"}},{"nom":"Verteuil-d'Agenais","code":"47317","codesPostaux":["47260"],"centre":{"type":"Point","coordinates":[0.4021,44.4684]},"surface":2245.59,"population":544,"departement":{"code":"47","nom":"Lot-et-Garonne"},"region":{"code":"75","nom":"Nouvelle-Aquitaine"}},{"nom":"Vianne","code":"47318","codesPostaux":["47230"],"centre":{"type":"Point","coordinates":[0.3202,44.2149]},"surface":989.32,"population":980,"departement":{"code":"47","nom":"Lot-et-Garonne"},"region":{"code":"75","nom":"Nouvelle-Aquitaine"}},{"nom":"Villebramar","code":"47319","codesPostaux":["47380"],"centre":{"type":"Point","coordinates":[0.4749,44.525]},"surface":1007.96,"population":109,"departement":{"code":"47","nom":"Lot-et-Garonne"},"region":{"code":"75","nom":"Nouvelle-Aquitaine"}},{"nom":"Villefranche-du-Queyran","code":"47320","codesPostaux":["47160"],"centre":{"type":"Point","coordinates":[0.2185,44.3064]},"surface":1677.92,"population":411,"departement":{"code":"47","nom":"Lot-et-Garonne"},"region":{"code":"75","nom":"Nouvelle-Aquitaine"}},{"nom":"Villeneuve-de-Duras","code":"47321","codesPostaux":["47120"],"centre":{"type":"Point","coordinates":[0.2412,44.7441]},"surface":1185.69,"population":321,"departement":{"code":"47","nom":"Lot-et-Garonne"},"region":{"code":"75","nom":"Nouvelle-Aquitaine"}},{"nom":"Villeneuve-sur-Lot","code":"47323","codesPostaux":["47300"],"centre":{"type":"Point","coordinates":[0.7484,44.4183]},"surface":8140.79,"population":22004,"departement":{"code":"47","nom":"Lot-et-Garonne"},"region":{"code":"75","nom":"Nouvelle-Aquitaine"}},{"nom":"Villeréal","code":"47324","codesPostaux":["47210"],"centre":{"type":"Point","coordinates":[0.7596,44.6316]},"surface":1397.93,"population":1265,"departement":{"code":"47","nom":"Lot-et-Garonne"},"region":{"code":"75","nom":"Nouvelle-Aquitaine"}},{"nom":"Villeton","code":"47325","codesPostaux":["47400"],"centre":{"type":"Point","coordinates":[0.2791,44.3716]},"surface":1082.79,"population":474,"departement":{"code":"47","nom":"Lot-et-Garonne"},"region":{"code":"75","nom":"Nouvelle-Aquitaine"}},{"nom":"Virazeil","code":"47326","codesPostaux":["47200"],"centre":{"type":"Point","coordinates":[0.2391,44.5114]},"surface":1995.39,"population":1696,"departement":{"code":"47","nom":"Lot-et-Garonne"},"region":{"code":"75","nom":"Nouvelle-Aquitaine"}},{"nom":"Xaintrailles","code":"47327","codesPostaux":["47230"],"centre":{"type":"Point","coordinates":[0.2547,44.2077]},"surface":1034.97,"population":378,"departement":{"code":"47","nom":"Lot-et-Garonne"},"region":{"code":"75","nom":"Nouvelle-Aquitaine"}},{"nom":"Saint-Georges","code":"47328","codesPostaux":["47370"],"centre":{"type":"Point","coordinates":[0.928,44.4403]},"surface":1600.95,"population":510,"departement":{"code":"47","nom":"Lot-et-Garonne"},"region":{"code":"75","nom":"Nouvelle-Aquitaine"}}]