[{"nom":"Abbans-Dessous","code":"25001","codesPostaux":["25320"],"centre":{"type":"Point","coordinates":[5.871,47.1345]},"surface":320.51,"population":246,"departement":{"code":"25","nom":"Doubs"},"region":{"code":"27","nom":"Bourgogne-Franche-Comté"}},{"nom":"Abbans-Dessus","code":"25002","codesPostaux":["25440"],"centre":{"type":"Point","coordinates":[5.8877,47.1267]},"surface":443.06,"population":290,"departement":{"code":"25","nom":"Doubs"},"region":{"code":"27","nom":"Bourgogne-Franche-Comté"}},{"nom":"Abbenans","code":"25003","codesPostaux":["25340"],"centre":{"type":"Point","coordinates":[6.4494,47.4957]},"surface":1129.28,"population":320,"departement":{"code":"25","nom":"Doubs"},"region":{"code":"27","nom":"Bourgogne-Franche-Comté"}},{"nom":"Abbévillers","code":"25004","codesPostaux":["25310"],"centre":{"type":"Point","coordinates":[6.9195,47.4263]},"surface":1121.71,"population":1090,"departement":{"code":"25","nom":"Doubs"},"region":{"code":"27","nom":"Bourgogne-Franche-Comté"}},{"nom":"Accolans","code":"25005","codesPostaux":["25250"],"centre":{"type":"Point","coordinates":[6.5353,47.4908]},"surface":519.55,"population":88,"departement":{"code":"25","nom":"Doubs"},"region":{"code":"27","nom":"Bourgogne-Franche-Comté"}},{"nom":"Adam-lès-Passavant","code":"25006","codesPostaux":["25360"],"centre":{"type":"Point","coordinates":[6.3692,47.3049]},"surface":951.94,"population":88,"departement":{"code":"25","nom":"Doubs"},"region":{"code":"27","nom":"Bourgogne-Franche-Comté"}},{"nom":"Adam-lès-Vercel","code":"25007","codesPostaux":["25530"],"centre":{"type":"Point","coordinates":[6.3904,47.1646]},"surface":311.65,"population":105,"departement":{"code":"25","nom":"Doubs"},"region":{"code":"27","nom":"Bourgogne-Franche-Comté"}},{"nom":"Aibre","code":"25008","codesPostaux":["25750"],"centre":{"type":"Point","coordinates":[6.6995,47.5532]},"surface":445.5,"population":464,"departement":{"code":"25","nom":"Doubs"},"region":{"code":"27","nom":"Bourgogne-Franche-Comté"}},{"nom":"Aïssey","code":"25009","codesPostaux":["25360"],"centre":{"type":"Point","coordinates":[6.3277,47.2733]},"surface":1075.19,"population":163,"departement":{"code":"25","nom":"Doubs"},"region":{"code":"27","nom":"Bourgogne-Franche-Comté"}},{"nom":"Allenjoie","code":"25011","codesPostaux":["25490"],"centre":{"type":"Point","coordinates":[6.8951,47.5351]},"surface":655.45,"population":738,"departement":{"code":"25","nom":"Doubs"},"region":{"code":"27","nom":"Bourgogne-Franche-Comté"}},{"nom":"Les Alliés","code":"25012","codesPostaux":["25300"],"centre":{"type":"Point","coordinates":[6.4486,46.9466]},"surface":532.38,"population":171,"departement":{"code":"25","nom":"Doubs"},"region":{"code":"27","nom":"Bourgogne-Franche-Comté"}},{"nom":"Allondans","code":"25013","codesPostaux":["25550"],"centre":{"type":"Point","coordinates":[6.7508,47.5238]},"surface":511.48,"population":245,"departement":{"code":"25","nom":"Doubs"},"region":{"code":"27","nom":"Bourgogne-Franche-Comté"}},{"nom":"Amagney","code":"25014","codesPostaux":["25220"],"centre":{"type":"Point","coordinates":[6.1471,47.3041]},"surface":1309.7,"population":941,"departement":{"code":"25","nom":"Doubs"},"region":{"code":"27","nom":"Bourgogne-Franche-Comté"}},{"nom":"Amancey","code":"25015","codesPostaux":["25330"],"centre":{"type":"Point","coordinates":[6.0719,47.034]},"surface":1380.83,"population":719,"departement":{"code":"25","nom":"Doubs"},"region":{"code":"27","nom":"Bourgogne-Franche-Comté"}},{"nom":"Amathay-Vésigneux","code":"25016","codesPostaux":["25330"],"centre":{"type":"Point","coordinates":[6.1971,47.0237]},"surface":1215.31,"population":170,"departement":{"code":"25","nom":"Doubs"},"region":{"code":"27","nom":"Bourgogne-Franche-Comté"}},{"nom":"Amondans","code":"25017","codesPostaux":["25330"],"centre":{"type":"Point","coordinates":[6.0346,47.0722]},"surface":569.65,"population":88,"departement":{"code":"25","nom":"Doubs"},"region":{"code":"27","nom":"Bourgogne-Franche-Comté"}},{"nom":"Anteuil","code":"25018","codesPostaux":["25340"],"centre":{"type":"Point","coordinates":[6.5781,47.3769]},"surface":2420.19,"population":605,"departement":{"code":"25","nom":"Doubs"},"region":{"code":"27","nom":"Bourgogne-Franche-Comté"}},{"nom":"Appenans","code":"25019","codesPostaux":["25250"],"centre":{"type":"Point","coordinates":[6.568,47.4549]},"surface":412.34,"population":384,"departement":{"code":"25","nom":"Doubs"},"region":{"code":"27","nom":"Bourgogne-Franche-Comté"}},{"nom":"Arbouans","code":"25020","codesPostaux":["25400"],"centre":{"type":"Point","coordinates":[6.8095,47.4883]},"surface":132.67,"population":898,"departement":{"code":"25","nom":"Doubs"},"region":{"code":"27","nom":"Bourgogne-Franche-Comté"}},{"nom":"Arc-et-Senans","code":"25021","codesPostaux":["25610"],"centre":{"type":"Point","coordinates":[5.7686,47.0344]},"surface":1496.35,"population":1619,"departement":{"code":"25","nom":"Doubs"},"region":{"code":"27","nom":"Bourgogne-Franche-Comté"}},{"nom":"Arcey","code":"25022","codesPostaux":["25750"],"centre":{"type":"Point","coordinates":[6.651,47.5207]},"surface":1253.39,"population":1484,"departement":{"code":"25","nom":"Doubs"},"region":{"code":"27","nom":"Bourgogne-Franche-Comté"}},{"nom":"Arçon","code":"25024","codesPostaux":["25300"],"centre":{"type":"Point","coordinates":[6.3843,46.9702]},"surface":2150.19,"population":936,"departement":{"code":"25","nom":"Doubs"},"region":{"code":"27","nom":"Bourgogne-Franche-Comté"}},{"nom":"Arc-sous-Cicon","code":"25025","codesPostaux":["25520"],"centre":{"type":"Point","coordinates":[6.4038,47.0524]},"surface":2858.81,"population":735,"departement":{"code":"25","nom":"Doubs"},"region":{"code":"27","nom":"Bourgogne-Franche-Comté"}},{"nom":"Arc-sous-Montenot","code":"25026","codesPostaux":["25270"],"centre":{"type":"Point","coordinates":[6.0086,46.9148]},"surface":1082.96,"population":225,"departement":{"code":"25","nom":"Doubs"},"region":{"code":"27","nom":"Bourgogne-Franche-Comté"}},{"nom":"Aubonne","code":"25029","codesPostaux":["25520"],"centre":{"type":"Point","coordinates":[6.3446,47.0417]},"surface":1526.54,"population":251,"departement":{"code":"25","nom":"Doubs"},"region":{"code":"27","nom":"Bourgogne-Franche-Comté"}},{"nom":"Audeux","code":"25030","codesPostaux":["25170"],"centre":{"type":"Point","coordinates":[5.8689,47.2578]},"surface":175.56,"population":425,"departement":{"code":"25","nom":"Doubs"},"region":{"code":"27","nom":"Bourgogne-Franche-Comté"}},{"nom":"Audincourt","code":"25031","codesPostaux":["25400"],"centre":{"type":"Point","coordinates":[6.8498,47.4779]},"surface":877.58,"population":13944,"departement":{"code":"25","nom":"Doubs"},"region":{"code":"27","nom":"Bourgogne-Franche-Comté"}},{"nom":"Autechaux","code":"25032","codesPostaux":["25110"],"centre":{"type":"Point","coordinates":[6.3868,47.3818]},"surface":658.94,"population":429,"departement":{"code":"25","nom":"Doubs"},"region":{"code":"27","nom":"Bourgogne-Franche-Comté"}},{"nom":"Autechaux-Roide","code":"25033","codesPostaux":["25150"],"centre":{"type":"Point","coordinates":[6.811,47.3903]},"surface":659.39,"population":507,"departement":{"code":"25","nom":"Doubs"},"region":{"code":"27","nom":"Bourgogne-Franche-Comté"}},{"nom":"Les Auxons","code":"25035","codesPostaux":["25870"],"centre":{"type":"Point","coordinates":[5.9557,47.3001]},"surface":1015.99,"population":2510,"departement":{"code":"25","nom":"Doubs"},"region":{"code":"27","nom":"Bourgogne-Franche-Comté"}},{"nom":"Avanne-Aveney","code":"25036","codesPostaux":["25720"],"centre":{"type":"Point","coordinates":[5.9581,47.2005]},"surface":854.81,"population":2235,"departement":{"code":"25","nom":"Doubs"},"region":{"code":"27","nom":"Bourgogne-Franche-Comté"}},{"nom":"Avilley","code":"25038","codesPostaux":["25680"],"centre":{"type":"Point","coordinates":[6.2674,47.4297]},"surface":563.32,"population":157,"departement":{"code":"25","nom":"Doubs"},"region":{"code":"27","nom":"Bourgogne-Franche-Comté"}},{"nom":"Avoudrey","code":"25039","codesPostaux":["25690"],"centre":{"type":"Point","coordinates":[6.4334,47.1381]},"surface":1297.99,"population":941,"departement":{"code":"25","nom":"Doubs"},"region":{"code":"27","nom":"Bourgogne-Franche-Comté"}},{"nom":"Badevel","code":"25040","codesPostaux":["25490"],"centre":{"type":"Point","coordinates":[6.9362,47.5015]},"surface":374.08,"population":801,"departement":{"code":"25","nom":"Doubs"},"region":{"code":"27","nom":"Bourgogne-Franche-Comté"}},{"nom":"Bannans","code":"25041","codesPostaux":["25560"],"centre":{"type":"Point","coordinates":[6.2335,46.9027]},"surface":1164.95,"population":368,"departement":{"code":"25","nom":"Doubs"},"region":{"code":"27","nom":"Bourgogne-Franche-Comté"}},{"nom":"Le Barboux","code":"25042","codesPostaux":["25210"],"centre":{"type":"Point","coordinates":[6.7207,47.1219]},"surface":1135.46,"population":225,"departement":{"code":"25","nom":"Doubs"},"region":{"code":"27","nom":"Bourgogne-Franche-Comté"}},{"nom":"Bart","code":"25043","codesPostaux":["25420"],"centre":{"type":"Point","coordinates":[6.7656,47.4908]},"surface":379.65,"population":2010,"departement":{"code":"25","nom":"Doubs"},"region":{"code":"27","nom":"Bourgogne-Franche-Comté"}},{"nom":"Bartherans","code":"25044","codesPostaux":["25440"],"centre":{"type":"Point","coordinates":[5.9263,47.0365]},"surface":582.95,"population":59,"departement":{"code":"25","nom":"Doubs"},"region":{"code":"27","nom":"Bourgogne-Franche-Comté"}},{"nom":"Battenans-les-Mines","code":"25045","codesPostaux":["25640"],"centre":{"type":"Point","coordinates":[6.2702,47.4034]},"surface":285.43,"population":45,"departement":{"code":"25","nom":"Doubs"},"region":{"code":"27","nom":"Bourgogne-Franche-Comté"}},{"nom":"Battenans-Varin","code":"25046","codesPostaux":["25380"],"centre":{"type":"Point","coordinates":[6.7171,47.2416]},"surface":629.64,"population":77,"departement":{"code":"25","nom":"Doubs"},"region":{"code":"27","nom":"Bourgogne-Franche-Comté"}},{"nom":"Baume-les-Dames","code":"25047","codesPostaux":["25110"],"centre":{"type":"Point","coordinates":[6.3426,47.3492]},"surface":2496.19,"population":4991,"departement":{"code":"25","nom":"Doubs"},"region":{"code":"27","nom":"Bourgogne-Franche-Comté"}},{"nom":"Bavans","code":"25048","codesPostaux":["25550"],"centre":{"type":"Point","coordinates":[6.7294,47.4805]},"surface":886.83,"population":3585,"departement":{"code":"25","nom":"Doubs"},"region":{"code":"27","nom":"Bourgogne-Franche-Comté"}},{"nom":"Belfays","code":"25049","codesPostaux":["25470"],"centre":{"type":"Point","coordinates":[6.9041,47.2584]},"surface":323.82,"population":135,"departement":{"code":"25","nom":"Doubs"},"region":{"code":"27","nom":"Bourgogne-Franche-Comté"}},{"nom":"Le Bélieu","code":"25050","codesPostaux":["25500"],"centre":{"type":"Point","coordinates":[6.6306,47.124]},"surface":1082.82,"population":508,"departement":{"code":"25","nom":"Doubs"},"region":{"code":"27","nom":"Bourgogne-Franche-Comté"}},{"nom":"Belleherbe","code":"25051","codesPostaux":["25380"],"centre":{"type":"Point","coordinates":[6.6533,47.2659]},"surface":1615.09,"population":621,"departement":{"code":"25","nom":"Doubs"},"region":{"code":"27","nom":"Bourgogne-Franche-Comté"}},{"nom":"Belmont","code":"25052","codesPostaux":["25530"],"centre":{"type":"Point","coordinates":[6.3596,47.2204]},"surface":466.93,"population":70,"departement":{"code":"25","nom":"Doubs"},"region":{"code":"27","nom":"Bourgogne-Franche-Comté"}},{"nom":"Belvoir","code":"25053","codesPostaux":["25430"],"centre":{"type":"Point","coordinates":[6.6152,47.3182]},"surface":928.41,"population":92,"departement":{"code":"25","nom":"Doubs"},"region":{"code":"27","nom":"Bourgogne-Franche-Comté"}},{"nom":"Berche","code":"25054","codesPostaux":["25420"],"centre":{"type":"Point","coordinates":[6.7479,47.466]},"surface":313.43,"population":541,"departement":{"code":"25","nom":"Doubs"},"region":{"code":"27","nom":"Bourgogne-Franche-Comté"}},{"nom":"Berthelange","code":"25055","codesPostaux":["25410"],"centre":{"type":"Point","coordinates":[5.7798,47.2022]},"surface":408.43,"population":361,"departement":{"code":"25","nom":"Doubs"},"region":{"code":"27","nom":"Bourgogne-Franche-Comté"}},{"nom":"Besançon","code":"25056","codesPostaux":["25000"],"centre":{"type":"Point","coordinates":[6.0123,47.2602]},"surface":6516.07,"population":119198,"departement":{"code":"25","nom":"Doubs"},"region":{"code":"27","nom":"Bourgogne-Franche-Comté"}},{"nom":"Bethoncourt","code":"25057","codesPostaux":["25200"],"centre":{"type":"Point","coordinates":[6.7988,47.5418]},"surface":659.95,"population":5308,"departement":{"code":"25","nom":"Doubs"},"region":{"code":"27","nom":"Bourgogne-Franche-Comté"}},{"nom":"Beure","code":"25058","codesPostaux":["25720"],"centre":{"type":"Point","coordinates":[6.0048,47.2043]},"surface":400.94,"population":1380,"departement":{"code":"25","nom":"Doubs"},"region":{"code":"27","nom":"Bourgogne-Franche-Comté"}},{"nom":"Beutal","code":"25059","codesPostaux":["25250"],"centre":{"type":"Point","coordinates":[6.6371,47.4763]},"surface":591.24,"population":267,"departement":{"code":"25","nom":"Doubs"},"region":{"code":"27","nom":"Bourgogne-Franche-Comté"}},{"nom":"Val-d'Usiers","code":"25060","codesPostaux":["25520"],"centre":{"type":"Point","coordinates":[6.27,46.966]},"surface":5118.59,"population":694,"departement":{"code":"25","nom":"Doubs"},"region":{"code":"27","nom":"Bourgogne-Franche-Comté"}},{"nom":"Bief","code":"25061","codesPostaux":["25190"],"centre":{"type":"Point","coordinates":[6.7752,47.3235]},"surface":378.82,"population":114,"departement":{"code":"25","nom":"Doubs"},"region":{"code":"27","nom":"Bourgogne-Franche-Comté"}},{"nom":"Le Bizot","code":"25062","codesPostaux":["25210"],"centre":{"type":"Point","coordinates":[6.6752,47.1374]},"surface":790.98,"population":300,"departement":{"code":"25","nom":"Doubs"},"region":{"code":"27","nom":"Bourgogne-Franche-Comté"}},{"nom":"Blamont","code":"25063","codesPostaux":["25310"],"centre":{"type":"Point","coordinates":[6.8566,47.3907]},"surface":993.99,"population":1224,"departement":{"code":"25","nom":"Doubs"},"region":{"code":"27","nom":"Bourgogne-Franche-Comté"}},{"nom":"Blarians","code":"25065","codesPostaux":["25640"],"centre":{"type":"Point","coordinates":[6.1799,47.4119]},"surface":89.15,"population":54,"departement":{"code":"25","nom":"Doubs"},"region":{"code":"27","nom":"Bourgogne-Franche-Comté"}},{"nom":"Blussangeaux","code":"25066","codesPostaux":["25250"],"centre":{"type":"Point","coordinates":[6.6176,47.4374]},"surface":216.93,"population":82,"departement":{"code":"25","nom":"Doubs"},"region":{"code":"27","nom":"Bourgogne-Franche-Comté"}},{"nom":"Blussans","code":"25067","codesPostaux":["25250"],"centre":{"type":"Point","coordinates":[6.6104,47.4123]},"surface":818.4,"population":190,"departement":{"code":"25","nom":"Doubs"},"region":{"code":"27","nom":"Bourgogne-Franche-Comté"}},{"nom":"Bolandoz","code":"25070","codesPostaux":["25330"],"centre":{"type":"Point","coordinates":[6.1141,47.006]},"surface":1215.56,"population":374,"departement":{"code":"25","nom":"Doubs"},"region":{"code":"27","nom":"Bourgogne-Franche-Comté"}},{"nom":"Bondeval","code":"25071","codesPostaux":["25230"],"centre":{"type":"Point","coordinates":[6.8442,47.4345]},"surface":468.63,"population":479,"departement":{"code":"25","nom":"Doubs"},"region":{"code":"27","nom":"Bourgogne-Franche-Comté"}},{"nom":"Bonnal","code":"25072","codesPostaux":["25680"],"centre":{"type":"Point","coordinates":[6.3632,47.5066]},"surface":174.04,"population":20,"departement":{"code":"25","nom":"Doubs"},"region":{"code":"27","nom":"Bourgogne-Franche-Comté"}},{"nom":"Bonnay","code":"25073","codesPostaux":["25870"],"centre":{"type":"Point","coordinates":[6.0437,47.3292]},"surface":770.08,"population":830,"departement":{"code":"25","nom":"Doubs"},"region":{"code":"27","nom":"Bourgogne-Franche-Comté"}},{"nom":"Bonnétage","code":"25074","codesPostaux":["25210"],"centre":{"type":"Point","coordinates":[6.7535,47.1734]},"surface":1789.79,"population":993,"departement":{"code":"25","nom":"Doubs"},"region":{"code":"27","nom":"Bourgogne-Franche-Comté"}},{"nom":"Bonnevaux","code":"25075","codesPostaux":["25560"],"centre":{"type":"Point","coordinates":[6.1975,46.8056]},"surface":1655.86,"population":411,"departement":{"code":"25","nom":"Doubs"},"region":{"code":"27","nom":"Bourgogne-Franche-Comté"}},{"nom":"La Bosse","code":"25077","codesPostaux":["25210"],"centre":{"type":"Point","coordinates":[6.6485,47.1428]},"surface":516.14,"population":80,"departement":{"code":"25","nom":"Doubs"},"region":{"code":"27","nom":"Bourgogne-Franche-Comté"}},{"nom":"Bouclans","code":"25078","codesPostaux":["25360"],"centre":{"type":"Point","coordinates":[6.229,47.2443]},"surface":2441.85,"population":1060,"departement":{"code":"25","nom":"Doubs"},"region":{"code":"27","nom":"Bourgogne-Franche-Comté"}},{"nom":"Boujailles","code":"25079","codesPostaux":["25560"],"centre":{"type":"Point","coordinates":[6.0786,46.887]},"surface":2817.71,"population":452,"departement":{"code":"25","nom":"Doubs"},"region":{"code":"27","nom":"Bourgogne-Franche-Comté"}},{"nom":"Bourguignon","code":"25082","codesPostaux":["25150"],"centre":{"type":"Point","coordinates":[6.7739,47.4106]},"surface":557.5,"population":884,"departement":{"code":"25","nom":"Doubs"},"region":{"code":"27","nom":"Bourgogne-Franche-Comté"}},{"nom":"Bournois","code":"25083","codesPostaux":["25250"],"centre":{"type":"Point","coordinates":[6.4975,47.4914]},"surface":1045.21,"population":190,"departement":{"code":"25","nom":"Doubs"},"region":{"code":"27","nom":"Bourgogne-Franche-Comté"}},{"nom":"Boussières","code":"25084","codesPostaux":["25320"],"centre":{"type":"Point","coordinates":[5.9013,47.1498]},"surface":560.25,"population":1188,"departement":{"code":"25","nom":"Doubs"},"region":{"code":"27","nom":"Bourgogne-Franche-Comté"}},{"nom":"Bouverans","code":"25085","codesPostaux":["25560"],"centre":{"type":"Point","coordinates":[6.2152,46.8413]},"surface":1855.8,"population":420,"departement":{"code":"25","nom":"Doubs"},"region":{"code":"27","nom":"Bourgogne-Franche-Comté"}},{"nom":"Braillans","code":"25086","codesPostaux":["25640"],"centre":{"type":"Point","coordinates":[6.0873,47.3106]},"surface":196.18,"population":206,"departement":{"code":"25","nom":"Doubs"},"region":{"code":"27","nom":"Bourgogne-Franche-Comté"}},{"nom":"Branne","code":"25087","codesPostaux":["25340"],"centre":{"type":"Point","coordinates":[6.4779,47.3806]},"surface":647.93,"population":182,"departement":{"code":"25","nom":"Doubs"},"region":{"code":"27","nom":"Bourgogne-Franche-Comté"}},{"nom":"Breconchaux","code":"25088","codesPostaux":["25640"],"centre":{"type":"Point","coordinates":[6.2726,47.342]},"surface":332.32,"population":86,"departement":{"code":"25","nom":"Doubs"},"region":{"code":"27","nom":"Bourgogne-Franche-Comté"}},{"nom":"Bremondans","code":"25089","codesPostaux":["25530"],"centre":{"type":"Point","coordinates":[6.3983,47.2316]},"surface":723.64,"population":101,"departement":{"code":"25","nom":"Doubs"},"region":{"code":"27","nom":"Bourgogne-Franche-Comté"}},{"nom":"Brères","code":"25090","codesPostaux":["25440"],"centre":{"type":"Point","coordinates":[5.8646,47.0583]},"surface":215.89,"population":72,"departement":{"code":"25","nom":"Doubs"},"region":{"code":"27","nom":"Bourgogne-Franche-Comté"}},{"nom":"Les Bréseux","code":"25091","codesPostaux":["25120"],"centre":{"type":"Point","coordinates":[6.8017,47.274]},"surface":745.93,"population":480,"departement":{"code":"25","nom":"Doubs"},"region":{"code":"27","nom":"Bourgogne-Franche-Comté"}},{"nom":"La Bretenière","code":"25092","codesPostaux":["25640"],"centre":{"type":"Point","coordinates":[6.2756,47.3792]},"surface":418.74,"population":70,"departement":{"code":"25","nom":"Doubs"},"region":{"code":"27","nom":"Bourgogne-Franche-Comté"}},{"nom":"Bretigney","code":"25093","codesPostaux":["25250"],"centre":{"type":"Point","coordinates":[6.6354,47.4867]},"surface":180.32,"population":76,"departement":{"code":"25","nom":"Doubs"},"region":{"code":"27","nom":"Bourgogne-Franche-Comté"}},{"nom":"Bretigney-Notre-Dame","code":"25094","codesPostaux":["25110"],"centre":{"type":"Point","coordinates":[6.3037,47.3085]},"surface":578.28,"population":120,"departement":{"code":"25","nom":"Doubs"},"region":{"code":"27","nom":"Bourgogne-Franche-Comté"}},{"nom":"Bretonvillers","code":"25095","codesPostaux":["25380"],"centre":{"type":"Point","coordinates":[6.6186,47.2164]},"surface":1379.55,"population":289,"departement":{"code":"25","nom":"Doubs"},"region":{"code":"27","nom":"Bourgogne-Franche-Comté"}},{"nom":"Brey-et-Maison-du-Bois","code":"25096","codesPostaux":["25240"],"centre":{"type":"Point","coordinates":[6.239,46.7469]},"surface":612.76,"population":171,"departement":{"code":"25","nom":"Doubs"},"region":{"code":"27","nom":"Bourgogne-Franche-Comté"}},{"nom":"Brognard","code":"25097","codesPostaux":["25600"],"centre":{"type":"Point","coordinates":[6.8653,47.5279]},"surface":290.11,"population":476,"departement":{"code":"25","nom":"Doubs"},"region":{"code":"27","nom":"Bourgogne-Franche-Comté"}},{"nom":"Buffard","code":"25098","codesPostaux":["25440"],"centre":{"type":"Point","coordinates":[5.8249,47.0325]},"surface":811.03,"population":193,"departement":{"code":"25","nom":"Doubs"},"region":{"code":"27","nom":"Bourgogne-Franche-Comté"}},{"nom":"Bugny","code":"25099","codesPostaux":["25520"],"centre":{"type":"Point","coordinates":[6.3617,46.9972]},"surface":477.92,"population":239,"departement":{"code":"25","nom":"Doubs"},"region":{"code":"27","nom":"Bourgogne-Franche-Comté"}},{"nom":"Bulle","code":"25100","codesPostaux":["25560"],"centre":{"type":"Point","coordinates":[6.1958,46.904]},"surface":1419.77,"population":494,"departement":{"code":"25","nom":"Doubs"},"region":{"code":"27","nom":"Bourgogne-Franche-Comté"}},{"nom":"Burgille","code":"25101","codesPostaux":["25170"],"centre":{"type":"Point","coordinates":[5.781,47.2609]},"surface":930.66,"population":573,"departement":{"code":"25","nom":"Doubs"},"region":{"code":"27","nom":"Bourgogne-Franche-Comté"}},{"nom":"Burnevillers","code":"25102","codesPostaux":["25470"],"centre":{"type":"Point","coordinates":[7.0198,47.334]},"surface":675.8,"population":49,"departement":{"code":"25","nom":"Doubs"},"region":{"code":"27","nom":"Bourgogne-Franche-Comté"}},{"nom":"Busy","code":"25103","codesPostaux":["25320"],"centre":{"type":"Point","coordinates":[5.9536,47.1688]},"surface":530.12,"population":662,"departement":{"code":"25","nom":"Doubs"},"region":{"code":"27","nom":"Bourgogne-Franche-Comté"}},{"nom":"By","code":"25104","codesPostaux":["25440"],"centre":{"type":"Point","coordinates":[5.8993,47.0125]},"surface":730.74,"population":86,"departement":{"code":"25","nom":"Doubs"},"region":{"code":"27","nom":"Bourgogne-Franche-Comté"}},{"nom":"Byans-sur-Doubs","code":"25105","codesPostaux":["25320"],"centre":{"type":"Point","coordinates":[5.8483,47.1102]},"surface":994.43,"population":624,"departement":{"code":"25","nom":"Doubs"},"region":{"code":"27","nom":"Bourgogne-Franche-Comté"}},{"nom":"Cademène","code":"25106","codesPostaux":["25290"],"centre":{"type":"Point","coordinates":[6.0279,47.0939]},"surface":345.84,"population":67,"departement":{"code":"25","nom":"Doubs"},"region":{"code":"27","nom":"Bourgogne-Franche-Comté"}},{"nom":"Cendrey","code":"25107","codesPostaux":["25640"],"centre":{"type":"Point","coordinates":[6.2446,47.3935]},"surface":557.86,"population":197,"departement":{"code":"25","nom":"Doubs"},"region":{"code":"27","nom":"Bourgogne-Franche-Comté"}},{"nom":"Cernay-l'Église","code":"25108","codesPostaux":["25120"],"centre":{"type":"Point","coordinates":[6.8309,47.2485]},"surface":598.5,"population":315,"departement":{"code":"25","nom":"Doubs"},"region":{"code":"27","nom":"Bourgogne-Franche-Comté"}},{"nom":"Cessey","code":"25109","codesPostaux":["25440"],"centre":{"type":"Point","coordinates":[5.9222,47.1152]},"surface":754.3,"population":322,"departement":{"code":"25","nom":"Doubs"},"region":{"code":"27","nom":"Bourgogne-Franche-Comté"}},{"nom":"Chaffois","code":"25110","codesPostaux":["25300"],"centre":{"type":"Point","coordinates":[6.2469,46.9135]},"surface":1637.53,"population":1031,"departement":{"code":"25","nom":"Doubs"},"region":{"code":"27","nom":"Bourgogne-Franche-Comté"}},{"nom":"Chalèze","code":"25111","codesPostaux":["25220"],"centre":{"type":"Point","coordinates":[6.0968,47.2623]},"surface":567.12,"population":377,"departement":{"code":"25","nom":"Doubs"},"region":{"code":"27","nom":"Bourgogne-Franche-Comté"}},{"nom":"Chalezeule","code":"25112","codesPostaux":["25220"],"centre":{"type":"Point","coordinates":[6.0677,47.2552]},"surface":397.23,"population":1329,"departement":{"code":"25","nom":"Doubs"},"region":{"code":"27","nom":"Bourgogne-Franche-Comté"}},{"nom":"Chamesey","code":"25113","codesPostaux":["25380"],"centre":{"type":"Point","coordinates":[6.6317,47.2376]},"surface":648.71,"population":140,"departement":{"code":"25","nom":"Doubs"},"region":{"code":"27","nom":"Bourgogne-Franche-Comté"}},{"nom":"Chamesol","code":"25114","codesPostaux":["25190"],"centre":{"type":"Point","coordinates":[6.8499,47.3434]},"surface":1024.96,"population":386,"departement":{"code":"25","nom":"Doubs"},"region":{"code":"27","nom":"Bourgogne-Franche-Comté"}},{"nom":"Champagney","code":"25115","codesPostaux":["25170"],"centre":{"type":"Point","coordinates":[5.8917,47.2552]},"surface":300.98,"population":274,"departement":{"code":"25","nom":"Doubs"},"region":{"code":"27","nom":"Bourgogne-Franche-Comté"}},{"nom":"Champlive","code":"25116","codesPostaux":["25360"],"centre":{"type":"Point","coordinates":[6.2406,47.2885]},"surface":825.69,"population":246,"departement":{"code":"25","nom":"Doubs"},"region":{"code":"27","nom":"Bourgogne-Franche-Comté"}},{"nom":"Champoux","code":"25117","codesPostaux":["25640"],"centre":{"type":"Point","coordinates":[6.1342,47.342]},"surface":303.2,"population":90,"departement":{"code":"25","nom":"Doubs"},"region":{"code":"27","nom":"Bourgogne-Franche-Comté"}},{"nom":"Champvans-les-Moulins","code":"25119","codesPostaux":["25170"],"centre":{"type":"Point","coordinates":[5.9074,47.256]},"surface":254.17,"population":318,"departement":{"code":"25","nom":"Doubs"},"region":{"code":"27","nom":"Bourgogne-Franche-Comté"}},{"nom":"Chantrans","code":"25120","codesPostaux":["25330"],"centre":{"type":"Point","coordinates":[6.1658,47.0475]},"surface":1430.56,"population":390,"departement":{"code":"25","nom":"Doubs"},"region":{"code":"27","nom":"Bourgogne-Franche-Comté"}},{"nom":"Chapelle-des-Bois","code":"25121","codesPostaux":["25240"],"centre":{"type":"Point","coordinates":[6.1118,46.5952]},"surface":3988.8,"population":260,"departement":{"code":"25","nom":"Doubs"},"region":{"code":"27","nom":"Bourgogne-Franche-Comté"}},{"nom":"Chapelle-d'Huin","code":"25122","codesPostaux":["25270"],"centre":{"type":"Point","coordinates":[6.1704,46.9329]},"surface":2387.9,"population":531,"departement":{"code":"25","nom":"Doubs"},"region":{"code":"27","nom":"Bourgogne-Franche-Comté"}},{"nom":"Charmauvillers","code":"25124","codesPostaux":["25470"],"centre":{"type":"Point","coordinates":[6.9185,47.2297]},"surface":1086.28,"population":280,"departement":{"code":"25","nom":"Doubs"},"region":{"code":"27","nom":"Bourgogne-Franche-Comté"}},{"nom":"Charmoille","code":"25125","codesPostaux":["25380"],"centre":{"type":"Point","coordinates":[6.663,47.2342]},"surface":996.79,"population":322,"departement":{"code":"25","nom":"Doubs"},"region":{"code":"27","nom":"Bourgogne-Franche-Comté"}},{"nom":"Charnay","code":"25126","codesPostaux":["25440"],"centre":{"type":"Point","coordinates":[5.9523,47.1301]},"surface":569,"population":474,"departement":{"code":"25","nom":"Doubs"},"region":{"code":"27","nom":"Bourgogne-Franche-Comté"}},{"nom":"Charquemont","code":"25127","codesPostaux":["25140"],"centre":{"type":"Point","coordinates":[6.8485,47.2017]},"surface":2171.23,"population":2835,"departement":{"code":"25","nom":"Doubs"},"region":{"code":"27","nom":"Bourgogne-Franche-Comté"}},{"nom":"Chassagne-Saint-Denis","code":"25129","codesPostaux":["25290"],"centre":{"type":"Point","coordinates":[6.1064,47.0828]},"surface":915.77,"population":120,"departement":{"code":"25","nom":"Doubs"},"region":{"code":"27","nom":"Bourgogne-Franche-Comté"}},{"nom":"Châteauvieux-les-Fossés","code":"25130","codesPostaux":["25840"],"centre":{"type":"Point","coordinates":[6.2002,47.0553]},"surface":449.54,"population":10,"departement":{"code":"25","nom":"Doubs"},"region":{"code":"27","nom":"Bourgogne-Franche-Comté"}},{"nom":"Châtelblanc","code":"25131","codesPostaux":["25240"],"centre":{"type":"Point","coordinates":[6.1087,46.6661]},"surface":2088.22,"population":109,"departement":{"code":"25","nom":"Doubs"},"region":{"code":"27","nom":"Bourgogne-Franche-Comté"}},{"nom":"Châtillon-Guyotte","code":"25132","codesPostaux":["25640"],"centre":{"type":"Point","coordinates":[6.168,47.3292]},"surface":445.18,"population":140,"departement":{"code":"25","nom":"Doubs"},"region":{"code":"27","nom":"Bourgogne-Franche-Comté"}},{"nom":"Châtillon-le-Duc","code":"25133","codesPostaux":["25870"],"centre":{"type":"Point","coordinates":[6.0066,47.303]},"surface":620.61,"population":2020,"departement":{"code":"25","nom":"Doubs"},"region":{"code":"27","nom":"Bourgogne-Franche-Comté"}},{"nom":"Chaucenne","code":"25136","codesPostaux":["25170"],"centre":{"type":"Point","coordinates":[5.8974,47.2835]},"surface":489.22,"population":517,"departement":{"code":"25","nom":"Doubs"},"region":{"code":"27","nom":"Bourgogne-Franche-Comté"}},{"nom":"Les Terres-de-Chaux","code":"25138","codesPostaux":["25190"],"centre":{"type":"Point","coordinates":[6.7327,47.3151]},"surface":1449.37,"population":124,"departement":{"code":"25","nom":"Doubs"},"region":{"code":"27","nom":"Bourgogne-Franche-Comté"}},{"nom":"La Chaux","code":"25139","codesPostaux":["25650"],"centre":{"type":"Point","coordinates":[6.4093,47.0202]},"surface":1699.4,"population":609,"departement":{"code":"25","nom":"Doubs"},"region":{"code":"27","nom":"Bourgogne-Franche-Comté"}},{"nom":"Chaux-lès-Passavant","code":"25141","codesPostaux":["25530"],"centre":{"type":"Point","coordinates":[6.3485,47.2342]},"surface":854.42,"population":121,"departement":{"code":"25","nom":"Doubs"},"region":{"code":"27","nom":"Bourgogne-Franche-Comté"}},{"nom":"Chaux-Neuve","code":"25142","codesPostaux":["25240"],"centre":{"type":"Point","coordinates":[6.1583,46.661]},"surface":2829.45,"population":328,"departement":{"code":"25","nom":"Doubs"},"region":{"code":"27","nom":"Bourgogne-Franche-Comté"}},{"nom":"Chay","code":"25143","codesPostaux":["25440"],"centre":{"type":"Point","coordinates":[5.8634,47.033]},"surface":655.16,"population":201,"departement":{"code":"25","nom":"Doubs"},"region":{"code":"27","nom":"Bourgogne-Franche-Comté"}},{"nom":"Chazot","code":"25145","codesPostaux":["25430"],"centre":{"type":"Point","coordinates":[6.5354,47.3333]},"surface":526,"population":117,"departement":{"code":"25","nom":"Doubs"},"region":{"code":"27","nom":"Bourgogne-Franche-Comté"}},{"nom":"Chemaudin et Vaux","code":"25147","codesPostaux":["25320","25770"],"centre":{"type":"Point","coordinates":[5.8897,47.2263]},"surface":1255.1,"population":2114,"departement":{"code":"25","nom":"Doubs"},"region":{"code":"27","nom":"Bourgogne-Franche-Comté"}},{"nom":"La Chenalotte","code":"25148","codesPostaux":["25500"],"centre":{"type":"Point","coordinates":[6.6901,47.1088]},"surface":493.49,"population":515,"departement":{"code":"25","nom":"Doubs"},"region":{"code":"27","nom":"Bourgogne-Franche-Comté"}},{"nom":"Chenecey-Buillon","code":"25149","codesPostaux":["25440"],"centre":{"type":"Point","coordinates":[5.9724,47.1318]},"surface":1672.51,"population":502,"departement":{"code":"25","nom":"Doubs"},"region":{"code":"27","nom":"Bourgogne-Franche-Comté"}},{"nom":"Chevigney-sur-l'Ognon","code":"25150","codesPostaux":["25170"],"centre":{"type":"Point","coordinates":[5.8419,47.292]},"surface":461.65,"population":290,"departement":{"code":"25","nom":"Doubs"},"region":{"code":"27","nom":"Bourgogne-Franche-Comté"}},{"nom":"Chevigney-lès-Vercel","code":"25151","codesPostaux":["25530"],"centre":{"type":"Point","coordinates":[6.3685,47.1653]},"surface":538.35,"population":138,"departement":{"code":"25","nom":"Doubs"},"region":{"code":"27","nom":"Bourgogne-Franche-Comté"}},{"nom":"La Chevillotte","code":"25152","codesPostaux":["25620"],"centre":{"type":"Point","coordinates":[6.1592,47.2188]},"surface":767.09,"population":152,"departement":{"code":"25","nom":"Doubs"},"region":{"code":"27","nom":"Bourgogne-Franche-Comté"}},{"nom":"Chevroz","code":"25153","codesPostaux":["25870"],"centre":{"type":"Point","coordinates":[5.9998,47.3314]},"surface":198.99,"population":136,"departement":{"code":"25","nom":"Doubs"},"region":{"code":"27","nom":"Bourgogne-Franche-Comté"}},{"nom":"Chouzelot","code":"25154","codesPostaux":["25440"],"centre":{"type":"Point","coordinates":[5.91,47.1231]},"surface":634.3,"population":258,"departement":{"code":"25","nom":"Doubs"},"region":{"code":"27","nom":"Bourgogne-Franche-Comté"}},{"nom":"Cléron","code":"25155","codesPostaux":["25330"],"centre":{"type":"Point","coordinates":[6.0664,47.0789]},"surface":1449.85,"population":295,"departement":{"code":"25","nom":"Doubs"},"region":{"code":"27","nom":"Bourgogne-Franche-Comté"}},{"nom":"Pays-de-Clerval","code":"25156","codesPostaux":["25340"],"centre":{"type":"Point","coordinates":[6.5021,47.3875]},"surface":2254.95,"population":1146,"departement":{"code":"25","nom":"Doubs"},"region":{"code":"27","nom":"Bourgogne-Franche-Comté"}},{"nom":"La Cluse-et-Mijoux","code":"25157","codesPostaux":["25300"],"centre":{"type":"Point","coordinates":[6.3979,46.8575]},"surface":2274.7,"population":1323,"departement":{"code":"25","nom":"Doubs"},"region":{"code":"27","nom":"Bourgogne-Franche-Comté"}},{"nom":"Colombier-Fontaine","code":"25159","codesPostaux":["25260"],"centre":{"type":"Point","coordinates":[6.6888,47.4496]},"surface":774.84,"population":1195,"departement":{"code":"25","nom":"Doubs"},"region":{"code":"27","nom":"Bourgogne-Franche-Comté"}},{"nom":"Les Combes","code":"25160","codesPostaux":["25500"],"centre":{"type":"Point","coordinates":[6.5349,47.0462]},"surface":1779.77,"population":766,"departement":{"code":"25","nom":"Doubs"},"region":{"code":"27","nom":"Bourgogne-Franche-Comté"}},{"nom":"Consolation-Maisonnettes","code":"25161","codesPostaux":["25390"],"centre":{"type":"Point","coordinates":[6.6037,47.1564]},"surface":429.57,"population":25,"departement":{"code":"25","nom":"Doubs"},"region":{"code":"27","nom":"Bourgogne-Franche-Comté"}},{"nom":"Corcelles-Ferrières","code":"25162","codesPostaux":["25410"],"centre":{"type":"Point","coordinates":[5.8037,47.2251]},"surface":226.22,"population":213,"departement":{"code":"25","nom":"Doubs"},"region":{"code":"27","nom":"Bourgogne-Franche-Comté"}},{"nom":"Corcelle-Mieslot","code":"25163","codesPostaux":["25640"],"centre":{"type":"Point","coordinates":[6.182,47.3604]},"surface":645.66,"population":100,"departement":{"code":"25","nom":"Doubs"},"region":{"code":"27","nom":"Bourgogne-Franche-Comté"}},{"nom":"Corcondray","code":"25164","codesPostaux":["25410"],"centre":{"type":"Point","coordinates":[5.8284,47.2249]},"surface":538.34,"population":145,"departement":{"code":"25","nom":"Doubs"},"region":{"code":"27","nom":"Bourgogne-Franche-Comté"}},{"nom":"Côtebrune","code":"25166","codesPostaux":["25360"],"centre":{"type":"Point","coordinates":[6.309,47.2516]},"surface":326.07,"population":87,"departement":{"code":"25","nom":"Doubs"},"region":{"code":"27","nom":"Bourgogne-Franche-Comté"}},{"nom":"Courcelles-lès-Montbéliard","code":"25170","codesPostaux":["25420"],"centre":{"type":"Point","coordinates":[6.7851,47.496]},"surface":241.01,"population":1405,"departement":{"code":"25","nom":"Doubs"},"region":{"code":"27","nom":"Bourgogne-Franche-Comté"}},{"nom":"Courcelles","code":"25171","codesPostaux":["25440"],"centre":{"type":"Point","coordinates":[5.9623,47.1007]},"surface":363.3,"population":107,"departement":{"code":"25","nom":"Doubs"},"region":{"code":"27","nom":"Bourgogne-Franche-Comté"}},{"nom":"Courchapon","code":"25172","codesPostaux":["25170"],"centre":{"type":"Point","coordinates":[5.7499,47.2595]},"surface":540.49,"population":236,"departement":{"code":"25","nom":"Doubs"},"region":{"code":"27","nom":"Bourgogne-Franche-Comté"}},{"nom":"Cour-Saint-Maurice","code":"25173","codesPostaux":["25380"],"centre":{"type":"Point","coordinates":[6.7106,47.2643]},"surface":451.62,"population":148,"departement":{"code":"25","nom":"Doubs"},"region":{"code":"27","nom":"Bourgogne-Franche-Comté"}},{"nom":"Courtefontaine","code":"25174","codesPostaux":["25470"],"centre":{"type":"Point","coordinates":[6.914,47.3191]},"surface":774.73,"population":247,"departement":{"code":"25","nom":"Doubs"},"region":{"code":"27","nom":"Bourgogne-Franche-Comté"}},{"nom":"Courtetain-et-Salans","code":"25175","codesPostaux":["25530"],"centre":{"type":"Point","coordinates":[6.4285,47.2579]},"surface":688.98,"population":91,"departement":{"code":"25","nom":"Doubs"},"region":{"code":"27","nom":"Bourgogne-Franche-Comté"}},{"nom":"Courvières","code":"25176","codesPostaux":["25560"],"centre":{"type":"Point","coordinates":[6.0985,46.866]},"surface":1095.03,"population":321,"departement":{"code":"25","nom":"Doubs"},"region":{"code":"27","nom":"Bourgogne-Franche-Comté"}},{"nom":"Crosey-le-Grand","code":"25177","codesPostaux":["25340"],"centre":{"type":"Point","coordinates":[6.5315,47.344]},"surface":1029.24,"population":144,"departement":{"code":"25","nom":"Doubs"},"region":{"code":"27","nom":"Bourgogne-Franche-Comté"}},{"nom":"Crosey-le-Petit","code":"25178","codesPostaux":["25340"],"centre":{"type":"Point","coordinates":[6.4851,47.3426]},"surface":962.63,"population":122,"departement":{"code":"25","nom":"Doubs"},"region":{"code":"27","nom":"Bourgogne-Franche-Comté"}},{"nom":"Le Crouzet","code":"25179","codesPostaux":["25240"],"centre":{"type":"Point","coordinates":[6.132,46.7088]},"surface":378.26,"population":61,"departement":{"code":"25","nom":"Doubs"},"region":{"code":"27","nom":"Bourgogne-Franche-Comté"}},{"nom":"Crouzet-Migette","code":"25180","codesPostaux":["25270"],"centre":{"type":"Point","coordinates":[6.0121,46.9563]},"surface":560.85,"population":116,"departement":{"code":"25","nom":"Doubs"},"region":{"code":"27","nom":"Bourgogne-Franche-Comté"}},{"nom":"Cubrial","code":"25181","codesPostaux":["25680"],"centre":{"type":"Point","coordinates":[6.4008,47.5037]},"surface":583.15,"population":149,"departement":{"code":"25","nom":"Doubs"},"region":{"code":"27","nom":"Bourgogne-Franche-Comté"}},{"nom":"Cubry","code":"25182","codesPostaux":["25680"],"centre":{"type":"Point","coordinates":[6.4271,47.5008]},"surface":543.36,"population":99,"departement":{"code":"25","nom":"Doubs"},"region":{"code":"27","nom":"Bourgogne-Franche-Comté"}},{"nom":"Cusance","code":"25183","codesPostaux":["25110"],"centre":{"type":"Point","coordinates":[6.434,47.321]},"surface":404.71,"population":77,"departement":{"code":"25","nom":"Doubs"},"region":{"code":"27","nom":"Bourgogne-Franche-Comté"}},{"nom":"Cuse-et-Adrisans","code":"25184","codesPostaux":["25680"],"centre":{"type":"Point","coordinates":[6.387,47.4828]},"surface":550.03,"population":285,"departement":{"code":"25","nom":"Doubs"},"region":{"code":"27","nom":"Bourgogne-Franche-Comté"}},{"nom":"Cussey-sur-Lison","code":"25185","codesPostaux":["25440"],"centre":{"type":"Point","coordinates":[5.9626,47.0711]},"surface":856.78,"population":68,"departement":{"code":"25","nom":"Doubs"},"region":{"code":"27","nom":"Bourgogne-Franche-Comté"}},{"nom":"Cussey-sur-l'Ognon","code":"25186","codesPostaux":["25870"],"centre":{"type":"Point","coordinates":[5.9425,47.3277]},"surface":747.2,"population":1056,"departement":{"code":"25","nom":"Doubs"},"region":{"code":"27","nom":"Bourgogne-Franche-Comté"}},{"nom":"Dambelin","code":"25187","codesPostaux":["25150"],"centre":{"type":"Point","coordinates":[6.6654,47.3706]},"surface":1249.16,"population":501,"departement":{"code":"25","nom":"Doubs"},"region":{"code":"27","nom":"Bourgogne-Franche-Comté"}},{"nom":"Dambenois","code":"25188","codesPostaux":["25600"],"centre":{"type":"Point","coordinates":[6.8735,47.5447]},"surface":328.37,"population":738,"departement":{"code":"25","nom":"Doubs"},"region":{"code":"27","nom":"Bourgogne-Franche-Comté"}},{"nom":"Dammartin-les-Templiers","code":"25189","codesPostaux":["25110"],"centre":{"type":"Point","coordinates":[6.2847,47.2948]},"surface":1000.19,"population":195,"departement":{"code":"25","nom":"Doubs"},"region":{"code":"27","nom":"Bourgogne-Franche-Comté"}},{"nom":"Dampierre-les-Bois","code":"25190","codesPostaux":["25490"],"centre":{"type":"Point","coordinates":[6.9181,47.5073]},"surface":476.75,"population":1577,"departement":{"code":"25","nom":"Doubs"},"region":{"code":"27","nom":"Bourgogne-Franche-Comté"}},{"nom":"Dampierre-sur-le-Doubs","code":"25191","codesPostaux":["25420"],"centre":{"type":"Point","coordinates":[6.7329,47.4644]},"surface":315.5,"population":453,"departement":{"code":"25","nom":"Doubs"},"region":{"code":"27","nom":"Bourgogne-Franche-Comté"}},{"nom":"Dampjoux","code":"25192","codesPostaux":["25190"],"centre":{"type":"Point","coordinates":[6.7454,47.3386]},"surface":235.55,"population":167,"departement":{"code":"25","nom":"Doubs"},"region":{"code":"27","nom":"Bourgogne-Franche-Comté"}},{"nom":"Damprichard","code":"25193","codesPostaux":["25450"],"centre":{"type":"Point","coordinates":[6.8796,47.238]},"surface":2180.44,"population":1829,"departement":{"code":"25","nom":"Doubs"},"region":{"code":"27","nom":"Bourgogne-Franche-Comté"}},{"nom":"Dannemarie","code":"25194","codesPostaux":["25310"],"centre":{"type":"Point","coordinates":[6.8992,47.3896]},"surface":230.8,"population":118,"departement":{"code":"25","nom":"Doubs"},"region":{"code":"27","nom":"Bourgogne-Franche-Comté"}},{"nom":"Dannemarie-sur-Crète","code":"25195","codesPostaux":["25410"],"centre":{"type":"Point","coordinates":[5.8674,47.2075]},"surface":409.26,"population":1549,"departement":{"code":"25","nom":"Doubs"},"region":{"code":"27","nom":"Bourgogne-Franche-Comté"}},{"nom":"Dasle","code":"25196","codesPostaux":["25230"],"centre":{"type":"Point","coordinates":[6.897,47.4822]},"surface":561.4,"population":1379,"departement":{"code":"25","nom":"Doubs"},"region":{"code":"27","nom":"Bourgogne-Franche-Comté"}},{"nom":"Deluz","code":"25197","codesPostaux":["25960"],"centre":{"type":"Point","coordinates":[6.1905,47.2987]},"surface":796.53,"population":623,"departement":{"code":"25","nom":"Doubs"},"region":{"code":"27","nom":"Bourgogne-Franche-Comté"}},{"nom":"Désandans","code":"25198","codesPostaux":["25750"],"centre":{"type":"Point","coordinates":[6.6715,47.54]},"surface":550.33,"population":716,"departement":{"code":"25","nom":"Doubs"},"region":{"code":"27","nom":"Bourgogne-Franche-Comté"}},{"nom":"Déservillers","code":"25199","codesPostaux":["25330"],"centre":{"type":"Point","coordinates":[6.0758,46.9991]},"surface":1397.78,"population":339,"departement":{"code":"25","nom":"Doubs"},"region":{"code":"27","nom":"Bourgogne-Franche-Comté"}},{"nom":"Devecey","code":"25200","codesPostaux":["25870"],"centre":{"type":"Point","coordinates":[6.0172,47.3231]},"surface":374.78,"population":1329,"departement":{"code":"25","nom":"Doubs"},"region":{"code":"27","nom":"Bourgogne-Franche-Comté"}},{"nom":"Dommartin","code":"25201","codesPostaux":["25300"],"centre":{"type":"Point","coordinates":[6.3112,46.9302]},"surface":645.97,"population":789,"departement":{"code":"25","nom":"Doubs"},"region":{"code":"27","nom":"Bourgogne-Franche-Comté"}},{"nom":"Dompierre-les-Tilleuls","code":"25202","codesPostaux":["25560"],"centre":{"type":"Point","coordinates":[6.1641,46.8865]},"surface":1306.41,"population":299,"departement":{"code":"25","nom":"Doubs"},"region":{"code":"27","nom":"Bourgogne-Franche-Comté"}},{"nom":"Domprel","code":"25203","codesPostaux":["25510"],"centre":{"type":"Point","coordinates":[6.4751,47.1958]},"surface":950.34,"population":178,"departement":{"code":"25","nom":"Doubs"},"region":{"code":"27","nom":"Bourgogne-Franche-Comté"}},{"nom":"Doubs","code":"25204","codesPostaux":["25300"],"centre":{"type":"Point","coordinates":[6.3651,46.9321]},"surface":894.56,"population":3272,"departement":{"code":"25","nom":"Doubs"},"region":{"code":"27","nom":"Bourgogne-Franche-Comté"}},{"nom":"Dung","code":"25207","codesPostaux":["25550"],"centre":{"type":"Point","coordinates":[6.7442,47.5051]},"surface":328.77,"population":613,"departement":{"code":"25","nom":"Doubs"},"region":{"code":"27","nom":"Bourgogne-Franche-Comté"}},{"nom":"Durnes","code":"25208","codesPostaux":["25580"],"centre":{"type":"Point","coordinates":[6.2238,47.1068]},"surface":855.63,"population":191,"departement":{"code":"25","nom":"Doubs"},"region":{"code":"27","nom":"Bourgogne-Franche-Comté"}},{"nom":"Échay","code":"25209","codesPostaux":["25440"],"centre":{"type":"Point","coordinates":[5.9491,47.0465]},"surface":551.13,"population":120,"departement":{"code":"25","nom":"Doubs"},"region":{"code":"27","nom":"Bourgogne-Franche-Comté"}},{"nom":"Échenans","code":"25210","codesPostaux":["25550"],"centre":{"type":"Point","coordinates":[6.6931,47.5272]},"surface":173.37,"population":163,"departement":{"code":"25","nom":"Doubs"},"region":{"code":"27","nom":"Bourgogne-Franche-Comté"}},{"nom":"Échevannes","code":"25211","codesPostaux":["25580"],"centre":{"type":"Point","coordinates":[6.2325,47.0704]},"surface":533.32,"population":87,"departement":{"code":"25","nom":"Doubs"},"region":{"code":"27","nom":"Bourgogne-Franche-Comté"}},{"nom":"École-Valentin","code":"25212","codesPostaux":["25480"],"centre":{"type":"Point","coordinates":[5.9877,47.2743]},"surface":322.48,"population":2662,"departement":{"code":"25","nom":"Doubs"},"region":{"code":"27","nom":"Bourgogne-Franche-Comté"}},{"nom":"Les Écorces","code":"25213","codesPostaux":["25140"],"centre":{"type":"Point","coordinates":[6.799,47.2053]},"surface":957.16,"population":756,"departement":{"code":"25","nom":"Doubs"},"region":{"code":"27","nom":"Bourgogne-Franche-Comté"}},{"nom":"Écot","code":"25214","codesPostaux":["25150"],"centre":{"type":"Point","coordinates":[6.7338,47.4222]},"surface":1094.76,"population":491,"departement":{"code":"25","nom":"Doubs"},"region":{"code":"27","nom":"Bourgogne-Franche-Comté"}},{"nom":"L'Écouvotte","code":"25215","codesPostaux":["25640"],"centre":{"type":"Point","coordinates":[6.2519,47.3443]},"surface":209.22,"population":92,"departement":{"code":"25","nom":"Doubs"},"region":{"code":"27","nom":"Bourgogne-Franche-Comté"}},{"nom":"Écurcey","code":"25216","codesPostaux":["25150"],"centre":{"type":"Point","coordinates":[6.8071,47.4028]},"surface":752.16,"population":263,"departement":{"code":"25","nom":"Doubs"},"region":{"code":"27","nom":"Bourgogne-Franche-Comté"}},{"nom":"Émagny","code":"25217","codesPostaux":["25170"],"centre":{"type":"Point","coordinates":[5.8645,47.3039]},"surface":524.07,"population":612,"departement":{"code":"25","nom":"Doubs"},"region":{"code":"27","nom":"Bourgogne-Franche-Comté"}},{"nom":"Épenouse","code":"25218","codesPostaux":["25530"],"centre":{"type":"Point","coordinates":[6.3955,47.2137]},"surface":570.59,"population":167,"departement":{"code":"25","nom":"Doubs"},"region":{"code":"27","nom":"Bourgogne-Franche-Comté"}},{"nom":"Épenoy","code":"25219","codesPostaux":["25800"],"centre":{"type":"Point","coordinates":[6.3816,47.137]},"surface":1331.49,"population":640,"departement":{"code":"25","nom":"Doubs"},"region":{"code":"27","nom":"Bourgogne-Franche-Comté"}},{"nom":"Épeugney","code":"25220","codesPostaux":["25290"],"centre":{"type":"Point","coordinates":[6.0205,47.1291]},"surface":1402.8,"population":607,"departement":{"code":"25","nom":"Doubs"},"region":{"code":"27","nom":"Bourgogne-Franche-Comté"}},{"nom":"Esnans","code":"25221","codesPostaux":["25110"],"centre":{"type":"Point","coordinates":[6.3245,47.3326]},"surface":353.79,"population":64,"departement":{"code":"25","nom":"Doubs"},"region":{"code":"27","nom":"Bourgogne-Franche-Comté"}},{"nom":"Étalans","code":"25222","codesPostaux":["25580","25620"],"centre":{"type":"Point","coordinates":[6.2466,47.1668]},"surface":4122.99,"population":1618,"departement":{"code":"25","nom":"Doubs"},"region":{"code":"27","nom":"Bourgogne-Franche-Comté"}},{"nom":"Éternoz","code":"25223","codesPostaux":["25330"],"centre":{"type":"Point","coordinates":[5.9998,47.0177]},"surface":2909.97,"population":324,"departement":{"code":"25","nom":"Doubs"},"region":{"code":"27","nom":"Bourgogne-Franche-Comté"}},{"nom":"Étouvans","code":"25224","codesPostaux":["25260"],"centre":{"type":"Point","coordinates":[6.7211,47.4555]},"surface":656.96,"population":828,"departement":{"code":"25","nom":"Doubs"},"region":{"code":"27","nom":"Bourgogne-Franche-Comté"}},{"nom":"Étrabonne","code":"25225","codesPostaux":["25170"],"centre":{"type":"Point","coordinates":[5.7354,47.2343]},"surface":552.92,"population":186,"departement":{"code":"25","nom":"Doubs"},"region":{"code":"27","nom":"Bourgogne-Franche-Comté"}},{"nom":"Étrappe","code":"25226","codesPostaux":["25250"],"centre":{"type":"Point","coordinates":[6.5806,47.4705]},"surface":287.45,"population":209,"departement":{"code":"25","nom":"Doubs"},"region":{"code":"27","nom":"Bourgogne-Franche-Comté"}},{"nom":"Étray","code":"25227","codesPostaux":["25800"],"centre":{"type":"Point","coordinates":[6.3319,47.1292]},"surface":605.79,"population":288,"departement":{"code":"25","nom":"Doubs"},"region":{"code":"27","nom":"Bourgogne-Franche-Comté"}},{"nom":"Étupes","code":"25228","codesPostaux":["25460"],"centre":{"type":"Point","coordinates":[6.8734,47.5056]},"surface":997.8,"population":3715,"departement":{"code":"25","nom":"Doubs"},"region":{"code":"27","nom":"Bourgogne-Franche-Comté"}},{"nom":"Évillers","code":"25229","codesPostaux":["25520"],"centre":{"type":"Point","coordinates":[6.223,46.9884]},"surface":1300.68,"population":393,"departement":{"code":"25","nom":"Doubs"},"region":{"code":"27","nom":"Bourgogne-Franche-Comté"}},{"nom":"Exincourt","code":"25230","codesPostaux":["25400"],"centre":{"type":"Point","coordinates":[6.8371,47.5017]},"surface":349.75,"population":3245,"departement":{"code":"25","nom":"Doubs"},"region":{"code":"27","nom":"Bourgogne-Franche-Comté"}},{"nom":"Eysson","code":"25231","codesPostaux":["25530"],"centre":{"type":"Point","coordinates":[6.4308,47.2029]},"surface":598.59,"population":120,"departement":{"code":"25","nom":"Doubs"},"region":{"code":"27","nom":"Bourgogne-Franche-Comté"}},{"nom":"Faimbe","code":"25232","codesPostaux":["25250"],"centre":{"type":"Point","coordinates":[6.6157,47.4873]},"surface":197.6,"population":98,"departement":{"code":"25","nom":"Doubs"},"region":{"code":"27","nom":"Bourgogne-Franche-Comté"}},{"nom":"Fallerans","code":"25233","codesPostaux":["25580"],"centre":{"type":"Point","coordinates":[6.291,47.1463]},"surface":1054.48,"population":285,"departement":{"code":"25","nom":"Doubs"},"region":{"code":"27","nom":"Bourgogne-Franche-Comté"}},{"nom":"Ferrières-le-Lac","code":"25234","codesPostaux":["25470"],"centre":{"type":"Point","coordinates":[6.8895,47.2683]},"surface":249.15,"population":169,"departement":{"code":"25","nom":"Doubs"},"region":{"code":"27","nom":"Bourgogne-Franche-Comté"}},{"nom":"Ferrières-les-Bois","code":"25235","codesPostaux":["25410"],"centre":{"type":"Point","coordinates":[5.8019,47.2088]},"surface":421.55,"population":323,"departement":{"code":"25","nom":"Doubs"},"region":{"code":"27","nom":"Bourgogne-Franche-Comté"}},{"nom":"Fertans","code":"25236","codesPostaux":["25330"],"centre":{"type":"Point","coordinates":[6.0678,47.0559]},"surface":824.54,"population":309,"departement":{"code":"25","nom":"Doubs"},"region":{"code":"27","nom":"Bourgogne-Franche-Comté"}},{"nom":"Fesches-le-Châtel","code":"25237","codesPostaux":["25490"],"centre":{"type":"Point","coordinates":[6.9034,47.519]},"surface":345.65,"population":2164,"departement":{"code":"25","nom":"Doubs"},"region":{"code":"27","nom":"Bourgogne-Franche-Comté"}},{"nom":"Fessevillers","code":"25238","codesPostaux":["25470"],"centre":{"type":"Point","coordinates":[6.9204,47.2812]},"surface":611.68,"population":160,"departement":{"code":"25","nom":"Doubs"},"region":{"code":"27","nom":"Bourgogne-Franche-Comté"}},{"nom":"Feule","code":"25239","codesPostaux":["25190"],"centre":{"type":"Point","coordinates":[6.7377,47.3504]},"surface":382.28,"population":185,"departement":{"code":"25","nom":"Doubs"},"region":{"code":"27","nom":"Bourgogne-Franche-Comté"}},{"nom":"Les Fins","code":"25240","codesPostaux":["25500"],"centre":{"type":"Point","coordinates":[6.628,47.0794]},"surface":2568.06,"population":3109,"departement":{"code":"25","nom":"Doubs"},"region":{"code":"27","nom":"Bourgogne-Franche-Comté"}},{"nom":"Flagey","code":"25241","codesPostaux":["25330"],"centre":{"type":"Point","coordinates":[6.1108,47.0472]},"surface":766.07,"population":137,"departement":{"code":"25","nom":"Doubs"},"region":{"code":"27","nom":"Bourgogne-Franche-Comté"}},{"nom":"Flagey-Rigney","code":"25242","codesPostaux":["25640"],"centre":{"type":"Point","coordinates":[6.2196,47.4147]},"surface":296.62,"population":128,"departement":{"code":"25","nom":"Doubs"},"region":{"code":"27","nom":"Bourgogne-Franche-Comté"}},{"nom":"Flangebouche","code":"25243","codesPostaux":["25390"],"centre":{"type":"Point","coordinates":[6.4747,47.1197]},"surface":2300.29,"population":826,"departement":{"code":"25","nom":"Doubs"},"region":{"code":"27","nom":"Bourgogne-Franche-Comté"}},{"nom":"Fleurey","code":"25244","codesPostaux":["25190"],"centre":{"type":"Point","coordinates":[6.7803,47.2997]},"surface":813.08,"population":85,"departement":{"code":"25","nom":"Doubs"},"region":{"code":"27","nom":"Bourgogne-Franche-Comté"}},{"nom":"Fontain","code":"25245","codesPostaux":["25660","25720"],"centre":{"type":"Point","coordinates":[6.0308,47.1895]},"surface":2137.82,"population":1211,"departement":{"code":"25","nom":"Doubs"},"region":{"code":"27","nom":"Bourgogne-Franche-Comté"}},{"nom":"Fontaine-lès-Clerval","code":"25246","codesPostaux":["25340"],"centre":{"type":"Point","coordinates":[6.4672,47.4231]},"surface":1146.71,"population":264,"departement":{"code":"25","nom":"Doubs"},"region":{"code":"27","nom":"Bourgogne-Franche-Comté"}},{"nom":"Fontenelle-Montby","code":"25247","codesPostaux":["25340"],"centre":{"type":"Point","coordinates":[6.4118,47.4475]},"surface":670.71,"population":82,"departement":{"code":"25","nom":"Doubs"},"region":{"code":"27","nom":"Bourgogne-Franche-Comté"}},{"nom":"Les Fontenelles","code":"25248","codesPostaux":["25210"],"centre":{"type":"Point","coordinates":[6.7535,47.1925]},"surface":843.03,"population":526,"departement":{"code":"25","nom":"Doubs"},"region":{"code":"27","nom":"Bourgogne-Franche-Comté"}},{"nom":"Fontenotte","code":"25249","codesPostaux":["25110"],"centre":{"type":"Point","coordinates":[6.313,47.374]},"surface":573.08,"population":62,"departement":{"code":"25","nom":"Doubs"},"region":{"code":"27","nom":"Bourgogne-Franche-Comté"}},{"nom":"Fourbanne","code":"25251","codesPostaux":["25110"],"centre":{"type":"Point","coordinates":[6.3076,47.3368]},"surface":198.35,"population":168,"departement":{"code":"25","nom":"Doubs"},"region":{"code":"27","nom":"Bourgogne-Franche-Comté"}},{"nom":"Fourcatier-et-Maison-Neuve","code":"25252","codesPostaux":["25370"],"centre":{"type":"Point","coordinates":[6.313,46.7644]},"surface":275.66,"population":119,"departement":{"code":"25","nom":"Doubs"},"region":{"code":"27","nom":"Bourgogne-Franche-Comté"}},{"nom":"Fourg","code":"25253","codesPostaux":["25440"],"centre":{"type":"Point","coordinates":[5.8033,47.0951]},"surface":1208.09,"population":380,"departement":{"code":"25","nom":"Doubs"},"region":{"code":"27","nom":"Bourgogne-Franche-Comté"}},{"nom":"Les Fourgs","code":"25254","codesPostaux":["25300"],"centre":{"type":"Point","coordinates":[6.4163,46.84]},"surface":2794.76,"population":1414,"departement":{"code":"25","nom":"Doubs"},"region":{"code":"27","nom":"Bourgogne-Franche-Comté"}},{"nom":"Fournet-Blancheroche","code":"25255","codesPostaux":["25140"],"centre":{"type":"Point","coordinates":[6.8249,47.1649]},"surface":1314.63,"population":350,"departement":{"code":"25","nom":"Doubs"},"region":{"code":"27","nom":"Bourgogne-Franche-Comté"}},{"nom":"Frambouhans","code":"25256","codesPostaux":["25140"],"centre":{"type":"Point","coordinates":[6.7786,47.2003]},"surface":1011.88,"population":889,"departement":{"code":"25","nom":"Doubs"},"region":{"code":"27","nom":"Bourgogne-Franche-Comté"}},{"nom":"Franey","code":"25257","codesPostaux":["25170"],"centre":{"type":"Point","coordinates":[5.8174,47.2584]},"surface":338.57,"population":267,"departement":{"code":"25","nom":"Doubs"},"region":{"code":"27","nom":"Bourgogne-Franche-Comté"}},{"nom":"Franois","code":"25258","codesPostaux":["25770"],"centre":{"type":"Point","coordinates":[5.9261,47.2246]},"surface":730.21,"population":2260,"departement":{"code":"25","nom":"Doubs"},"region":{"code":"27","nom":"Bourgogne-Franche-Comté"}},{"nom":"Frasne","code":"25259","codesPostaux":["25560"],"centre":{"type":"Point","coordinates":[6.145,46.854]},"surface":3301.29,"population":1941,"departement":{"code":"25","nom":"Doubs"},"region":{"code":"27","nom":"Bourgogne-Franche-Comté"}},{"nom":"Froidevaux","code":"25261","codesPostaux":["25190"],"centre":{"type":"Point","coordinates":[6.6905,47.302]},"surface":401.36,"population":80,"departement":{"code":"25","nom":"Doubs"},"region":{"code":"27","nom":"Bourgogne-Franche-Comté"}},{"nom":"Fuans","code":"25262","codesPostaux":["25390"],"centre":{"type":"Point","coordinates":[6.5897,47.126]},"surface":1108.03,"population":467,"departement":{"code":"25","nom":"Doubs"},"region":{"code":"27","nom":"Bourgogne-Franche-Comté"}},{"nom":"Gellin","code":"25263","codesPostaux":["25240"],"centre":{"type":"Point","coordinates":[6.2359,46.7179]},"surface":482.52,"population":263,"departement":{"code":"25","nom":"Doubs"},"region":{"code":"27","nom":"Bourgogne-Franche-Comté"}},{"nom":"Gémonval","code":"25264","codesPostaux":["25250"],"centre":{"type":"Point","coordinates":[6.5928,47.5355]},"surface":343.54,"population":83,"departement":{"code":"25","nom":"Doubs"},"region":{"code":"27","nom":"Bourgogne-Franche-Comté"}},{"nom":"Geneuille","code":"25265","codesPostaux":["25870"],"centre":{"type":"Point","coordinates":[5.9696,47.3217]},"surface":642.66,"population":1282,"departement":{"code":"25","nom":"Doubs"},"region":{"code":"27","nom":"Bourgogne-Franche-Comté"}},{"nom":"Geney","code":"25266","codesPostaux":["25250"],"centre":{"type":"Point","coordinates":[6.5671,47.4815]},"surface":438.89,"population":122,"departement":{"code":"25","nom":"Doubs"},"region":{"code":"27","nom":"Bourgogne-Franche-Comté"}},{"nom":"Gennes","code":"25267","codesPostaux":["25660"],"centre":{"type":"Point","coordinates":[6.1305,47.2481]},"surface":724.38,"population":680,"departement":{"code":"25","nom":"Doubs"},"region":{"code":"27","nom":"Bourgogne-Franche-Comté"}},{"nom":"Germéfontaine","code":"25268","codesPostaux":["25510"],"centre":{"type":"Point","coordinates":[6.4859,47.2256]},"surface":1117.35,"population":113,"departement":{"code":"25","nom":"Doubs"},"region":{"code":"27","nom":"Bourgogne-Franche-Comté"}},{"nom":"Germondans","code":"25269","codesPostaux":["25640"],"centre":{"type":"Point","coordinates":[6.1992,47.4165]},"surface":371.75,"population":60,"departement":{"code":"25","nom":"Doubs"},"region":{"code":"27","nom":"Bourgogne-Franche-Comté"}},{"nom":"Gevresin","code":"25270","codesPostaux":["25270"],"centre":{"type":"Point","coordinates":[6.0495,46.9641]},"surface":706.24,"population":142,"departement":{"code":"25","nom":"Doubs"},"region":{"code":"27","nom":"Bourgogne-Franche-Comté"}},{"nom":"Gilley","code":"25271","codesPostaux":["25650"],"centre":{"type":"Point","coordinates":[6.4832,47.0554]},"surface":1746.13,"population":1767,"departement":{"code":"25","nom":"Doubs"},"region":{"code":"27","nom":"Bourgogne-Franche-Comté"}},{"nom":"Glamondans","code":"25273","codesPostaux":["25360"],"centre":{"type":"Point","coordinates":[6.2865,47.2658]},"surface":973.01,"population":199,"departement":{"code":"25","nom":"Doubs"},"region":{"code":"27","nom":"Bourgogne-Franche-Comté"}},{"nom":"Glay","code":"25274","codesPostaux":["25310"],"centre":{"type":"Point","coordinates":[6.8944,47.4019]},"surface":662.31,"population":339,"departement":{"code":"25","nom":"Doubs"},"region":{"code":"27","nom":"Bourgogne-Franche-Comté"}},{"nom":"Glère","code":"25275","codesPostaux":["25190"],"centre":{"type":"Point","coordinates":[6.984,47.3444]},"surface":1618.27,"population":185,"departement":{"code":"25","nom":"Doubs"},"region":{"code":"27","nom":"Bourgogne-Franche-Comté"}},{"nom":"Gondenans-Montby","code":"25276","codesPostaux":["25340"],"centre":{"type":"Point","coordinates":[6.4619,47.443]},"surface":1183.8,"population":166,"departement":{"code":"25","nom":"Doubs"},"region":{"code":"27","nom":"Bourgogne-Franche-Comté"}},{"nom":"Gondenans-les-Moulins","code":"25277","codesPostaux":["25680"],"centre":{"type":"Point","coordinates":[6.3832,47.4667]},"surface":393.65,"population":80,"departement":{"code":"25","nom":"Doubs"},"region":{"code":"27","nom":"Bourgogne-Franche-Comté"}},{"nom":"Gonsans","code":"25278","codesPostaux":["25360"],"centre":{"type":"Point","coordinates":[6.299,47.2255]},"surface":1734.96,"population":564,"departement":{"code":"25","nom":"Doubs"},"region":{"code":"27","nom":"Bourgogne-Franche-Comté"}},{"nom":"Gouhelans","code":"25279","codesPostaux":["25680"],"centre":{"type":"Point","coordinates":[6.3622,47.4532]},"surface":619.57,"population":119,"departement":{"code":"25","nom":"Doubs"},"region":{"code":"27","nom":"Bourgogne-Franche-Comté"}},{"nom":"Goumois","code":"25280","codesPostaux":["25470"],"centre":{"type":"Point","coordinates":[6.94,47.2662]},"surface":592.28,"population":153,"departement":{"code":"25","nom":"Doubs"},"region":{"code":"27","nom":"Bourgogne-Franche-Comté"}},{"nom":"Goux-lès-Dambelin","code":"25281","codesPostaux":["25150"],"centre":{"type":"Point","coordinates":[6.6814,47.3981]},"surface":887.34,"population":275,"departement":{"code":"25","nom":"Doubs"},"region":{"code":"27","nom":"Bourgogne-Franche-Comté"}},{"nom":"Goux-sous-Landet","code":"25283","codesPostaux":["25440"],"centre":{"type":"Point","coordinates":[5.934,47.0788]},"surface":543.7,"population":60,"departement":{"code":"25","nom":"Doubs"},"region":{"code":"27","nom":"Bourgogne-Franche-Comté"}},{"nom":"Grand-Charmont","code":"25284","codesPostaux":["25200"],"centre":{"type":"Point","coordinates":[6.823,47.5332]},"surface":450.4,"population":5857,"departement":{"code":"25","nom":"Doubs"},"region":{"code":"27","nom":"Bourgogne-Franche-Comté"}},{"nom":"Grand'Combe-Châteleu","code":"25285","codesPostaux":["25570"],"centre":{"type":"Point","coordinates":[6.555,47.016]},"surface":2160.47,"population":1506,"departement":{"code":"25","nom":"Doubs"},"region":{"code":"27","nom":"Bourgogne-Franche-Comté"}},{"nom":"Grand'Combe-des-Bois","code":"25286","codesPostaux":["25210"],"centre":{"type":"Point","coordinates":[6.7794,47.1329]},"surface":1188.94,"population":122,"departement":{"code":"25","nom":"Doubs"},"region":{"code":"27","nom":"Bourgogne-Franche-Comté"}},{"nom":"Grandfontaine","code":"25287","codesPostaux":["25320"],"centre":{"type":"Point","coordinates":[5.9053,47.1982]},"surface":572.59,"population":1797,"departement":{"code":"25","nom":"Doubs"},"region":{"code":"27","nom":"Bourgogne-Franche-Comté"}},{"nom":"Fournets-Luisans","code":"25288","codesPostaux":["25390"],"centre":{"type":"Point","coordinates":[6.5663,47.1077]},"surface":2778.32,"population":735,"departement":{"code":"25","nom":"Doubs"},"region":{"code":"27","nom":"Bourgogne-Franche-Comté"}},{"nom":"Grandfontaine-sur-Creuse","code":"25289","codesPostaux":["25510"],"centre":{"type":"Point","coordinates":[6.4575,47.1867]},"surface":596.64,"population":70,"departement":{"code":"25","nom":"Doubs"},"region":{"code":"27","nom":"Bourgogne-Franche-Comté"}},{"nom":"La Grange","code":"25290","codesPostaux":["25380"],"centre":{"type":"Point","coordinates":[6.6711,47.285]},"surface":632.05,"population":96,"departement":{"code":"25","nom":"Doubs"},"region":{"code":"27","nom":"Bourgogne-Franche-Comté"}},{"nom":"Granges-Narboz","code":"25293","codesPostaux":["25300"],"centre":{"type":"Point","coordinates":[6.3227,46.8781]},"surface":1628.03,"population":1324,"departement":{"code":"25","nom":"Doubs"},"region":{"code":"27","nom":"Bourgogne-Franche-Comté"}},{"nom":"Les Grangettes","code":"25295","codesPostaux":["25160"],"centre":{"type":"Point","coordinates":[6.3165,46.8324]},"surface":546.61,"population":310,"departement":{"code":"25","nom":"Doubs"},"region":{"code":"27","nom":"Bourgogne-Franche-Comté"}},{"nom":"Les Gras","code":"25296","codesPostaux":["25790"],"centre":{"type":"Point","coordinates":[6.5404,46.9894]},"surface":1496.59,"population":790,"departement":{"code":"25","nom":"Doubs"},"region":{"code":"27","nom":"Bourgogne-Franche-Comté"}},{"nom":"Le Gratteris","code":"25297","codesPostaux":["25620"],"centre":{"type":"Point","coordinates":[6.13,47.1801]},"surface":297.59,"population":161,"departement":{"code":"25","nom":"Doubs"},"region":{"code":"27","nom":"Bourgogne-Franche-Comté"}},{"nom":"Grosbois","code":"25298","codesPostaux":["25110"],"centre":{"type":"Point","coordinates":[6.3054,47.3491]},"surface":294.5,"population":252,"departement":{"code":"25","nom":"Doubs"},"region":{"code":"27","nom":"Bourgogne-Franche-Comté"}},{"nom":"Guillon-les-Bains","code":"25299","codesPostaux":["25110"],"centre":{"type":"Point","coordinates":[6.3946,47.3147]},"surface":476.7,"population":110,"departement":{"code":"25","nom":"Doubs"},"region":{"code":"27","nom":"Bourgogne-Franche-Comté"}},{"nom":"Guyans-Durnes","code":"25300","codesPostaux":["25580"],"centre":{"type":"Point","coordinates":[6.2427,47.1292]},"surface":914.27,"population":310,"departement":{"code":"25","nom":"Doubs"},"region":{"code":"27","nom":"Bourgogne-Franche-Comté"}},{"nom":"Guyans-Vennes","code":"25301","codesPostaux":["25390"],"centre":{"type":"Point","coordinates":[6.5914,47.1669]},"surface":1971.97,"population":856,"departement":{"code":"25","nom":"Doubs"},"region":{"code":"27","nom":"Bourgogne-Franche-Comté"}},{"nom":"Hauterive-la-Fresse","code":"25303","codesPostaux":["25650"],"centre":{"type":"Point","coordinates":[6.4612,46.9694]},"surface":749.96,"population":225,"departement":{"code":"25","nom":"Doubs"},"region":{"code":"27","nom":"Bourgogne-Franche-Comté"}},{"nom":"Hérimoncourt","code":"25304","codesPostaux":["25310"],"centre":{"type":"Point","coordinates":[6.8868,47.4358]},"surface":729.88,"population":3575,"departement":{"code":"25","nom":"Doubs"},"region":{"code":"27","nom":"Bourgogne-Franche-Comté"}},{"nom":"L'Hôpital-du-Grosbois","code":"25305","codesPostaux":["25620"],"centre":{"type":"Point","coordinates":[6.2111,47.1794]},"surface":776.74,"population":592,"departement":{"code":"25","nom":"Doubs"},"region":{"code":"27","nom":"Bourgogne-Franche-Comté"}},{"nom":"L'Hôpital-Saint-Lieffroy","code":"25306","codesPostaux":["25340"],"centre":{"type":"Point","coordinates":[6.4555,47.4006]},"surface":347.03,"population":123,"departement":{"code":"25","nom":"Doubs"},"region":{"code":"27","nom":"Bourgogne-Franche-Comté"}},{"nom":"Les Hôpitaux-Neufs","code":"25307","codesPostaux":["25370"],"centre":{"type":"Point","coordinates":[6.3957,46.7838]},"surface":657.13,"population":927,"departement":{"code":"25","nom":"Doubs"},"region":{"code":"27","nom":"Bourgogne-Franche-Comté"}},{"nom":"Les Hôpitaux-Vieux","code":"25308","codesPostaux":["25370"],"centre":{"type":"Point","coordinates":[6.3988,46.802]},"surface":1429.2,"population":463,"departement":{"code":"25","nom":"Doubs"},"region":{"code":"27","nom":"Bourgogne-Franche-Comté"}},{"nom":"Houtaud","code":"25309","codesPostaux":["25300"],"centre":{"type":"Point","coordinates":[6.3021,46.915]},"surface":784.32,"population":1178,"departement":{"code":"25","nom":"Doubs"},"region":{"code":"27","nom":"Bourgogne-Franche-Comté"}},{"nom":"Huanne-Montmartin","code":"25310","codesPostaux":["25680"],"centre":{"type":"Point","coordinates":[6.3418,47.4302]},"surface":355.64,"population":102,"departement":{"code":"25","nom":"Doubs"},"region":{"code":"27","nom":"Bourgogne-Franche-Comté"}},{"nom":"Hyémondans","code":"25311","codesPostaux":["25250"],"centre":{"type":"Point","coordinates":[6.6422,47.3816]},"surface":691.22,"population":214,"departement":{"code":"25","nom":"Doubs"},"region":{"code":"27","nom":"Bourgogne-Franche-Comté"}},{"nom":"Hyèvre-Magny","code":"25312","codesPostaux":["25110"],"centre":{"type":"Point","coordinates":[6.43,47.3616]},"surface":339.16,"population":64,"departement":{"code":"25","nom":"Doubs"},"region":{"code":"27","nom":"Bourgogne-Franche-Comté"}},{"nom":"Hyèvre-Paroisse","code":"25313","codesPostaux":["25110"],"centre":{"type":"Point","coordinates":[6.4297,47.3749]},"surface":877.81,"population":195,"departement":{"code":"25","nom":"Doubs"},"region":{"code":"27","nom":"Bourgogne-Franche-Comté"}},{"nom":"Indevillers","code":"25314","codesPostaux":["25470"],"centre":{"type":"Point","coordinates":[6.9706,47.3146]},"surface":2306.03,"population":260,"departement":{"code":"25","nom":"Doubs"},"region":{"code":"27","nom":"Bourgogne-Franche-Comté"}},{"nom":"L'Isle-sur-le-Doubs","code":"25315","codesPostaux":["25250"],"centre":{"type":"Point","coordinates":[6.5912,47.4242]},"surface":1076.1,"population":2830,"departement":{"code":"25","nom":"Doubs"},"region":{"code":"27","nom":"Bourgogne-Franche-Comté"}},{"nom":"Issans","code":"25316","codesPostaux":["25550"],"centre":{"type":"Point","coordinates":[6.7338,47.5255]},"surface":271.53,"population":239,"departement":{"code":"25","nom":"Doubs"},"region":{"code":"27","nom":"Bourgogne-Franche-Comté"}},{"nom":"Jallerange","code":"25317","codesPostaux":["25170"],"centre":{"type":"Point","coordinates":[5.719,47.2541]},"surface":553.04,"population":272,"departement":{"code":"25","nom":"Doubs"},"region":{"code":"27","nom":"Bourgogne-Franche-Comté"}},{"nom":"Jougne","code":"25318","codesPostaux":["25370"],"centre":{"type":"Point","coordinates":[6.4064,46.7598]},"surface":2906.23,"population":1859,"departement":{"code":"25","nom":"Doubs"},"region":{"code":"27","nom":"Bourgogne-Franche-Comté"}},{"nom":"Labergement-Sainte-Marie","code":"25320","codesPostaux":["25160"],"centre":{"type":"Point","coordinates":[6.282,46.7817]},"surface":2206.77,"population":1241,"departement":{"code":"25","nom":"Doubs"},"region":{"code":"27","nom":"Bourgogne-Franche-Comté"}},{"nom":"Villers-le-Lac","code":"25321","codesPostaux":["25130"],"centre":{"type":"Point","coordinates":[6.6946,47.073]},"surface":3030.28,"population":5228,"departement":{"code":"25","nom":"Doubs"},"region":{"code":"27","nom":"Bourgogne-Franche-Comté"}},{"nom":"Laire","code":"25322","codesPostaux":["25550"],"centre":{"type":"Point","coordinates":[6.7385,47.5509]},"surface":318.71,"population":411,"departement":{"code":"25","nom":"Doubs"},"region":{"code":"27","nom":"Bourgogne-Franche-Comté"}},{"nom":"Laissey","code":"25323","codesPostaux":["25820"],"centre":{"type":"Point","coordinates":[6.2336,47.3006]},"surface":283.24,"population":445,"departement":{"code":"25","nom":"Doubs"},"region":{"code":"27","nom":"Bourgogne-Franche-Comté"}},{"nom":"Lanans","code":"25324","codesPostaux":["25360"],"centre":{"type":"Point","coordinates":[6.4465,47.2932]},"surface":1021.29,"population":160,"departement":{"code":"25","nom":"Doubs"},"region":{"code":"27","nom":"Bourgogne-Franche-Comté"}},{"nom":"Landresse","code":"25325","codesPostaux":["25530"],"centre":{"type":"Point","coordinates":[6.4855,47.2597]},"surface":1443.33,"population":238,"departement":{"code":"25","nom":"Doubs"},"region":{"code":"27","nom":"Bourgogne-Franche-Comté"}},{"nom":"Lantenne-Vertière","code":"25326","codesPostaux":["25170"],"centre":{"type":"Point","coordinates":[5.7757,47.2308]},"surface":986.73,"population":528,"departement":{"code":"25","nom":"Doubs"},"region":{"code":"27","nom":"Bourgogne-Franche-Comté"}},{"nom":"Lanthenans","code":"25327","codesPostaux":["25250"],"centre":{"type":"Point","coordinates":[6.6257,47.3915]},"surface":332.28,"population":70,"departement":{"code":"25","nom":"Doubs"},"region":{"code":"27","nom":"Bourgogne-Franche-Comté"}},{"nom":"Larnod","code":"25328","codesPostaux":["25720"],"centre":{"type":"Point","coordinates":[5.9718,47.1762]},"surface":408.84,"population":795,"departement":{"code":"25","nom":"Doubs"},"region":{"code":"27","nom":"Bourgogne-Franche-Comté"}},{"nom":"Laval-le-Prieuré","code":"25329","codesPostaux":["25210"],"centre":{"type":"Point","coordinates":[6.6207,47.1794]},"surface":540.25,"population":35,"departement":{"code":"25","nom":"Doubs"},"region":{"code":"27","nom":"Bourgogne-Franche-Comté"}},{"nom":"Lavans-Quingey","code":"25330","codesPostaux":["25440"],"centre":{"type":"Point","coordinates":[5.896,47.0888]},"surface":590.75,"population":175,"departement":{"code":"25","nom":"Doubs"},"region":{"code":"27","nom":"Bourgogne-Franche-Comté"}},{"nom":"Lavans-Vuillafans","code":"25331","codesPostaux":["25580"],"centre":{"type":"Point","coordinates":[6.2536,47.0774]},"surface":1004.88,"population":245,"departement":{"code":"25","nom":"Doubs"},"region":{"code":"27","nom":"Bourgogne-Franche-Comté"}},{"nom":"Lavernay","code":"25332","codesPostaux":["25170"],"centre":{"type":"Point","coordinates":[5.8194,47.2447]},"surface":778.23,"population":566,"departement":{"code":"25","nom":"Doubs"},"region":{"code":"27","nom":"Bourgogne-Franche-Comté"}},{"nom":"Laviron","code":"25333","codesPostaux":["25510"],"centre":{"type":"Point","coordinates":[6.5614,47.2553]},"surface":2019.14,"population":350,"departement":{"code":"25","nom":"Doubs"},"region":{"code":"27","nom":"Bourgogne-Franche-Comté"}},{"nom":"Levier","code":"25334","codesPostaux":["25270"],"centre":{"type":"Point","coordinates":[6.1196,46.9655]},"surface":4437.08,"population":2287,"departement":{"code":"25","nom":"Doubs"},"region":{"code":"27","nom":"Bourgogne-Franche-Comté"}},{"nom":"Liebvillers","code":"25335","codesPostaux":["25190"],"centre":{"type":"Point","coordinates":[6.7845,47.3323]},"surface":311.42,"population":148,"departement":{"code":"25","nom":"Doubs"},"region":{"code":"27","nom":"Bourgogne-Franche-Comté"}},{"nom":"Liesle","code":"25336","codesPostaux":["25440"],"centre":{"type":"Point","coordinates":[5.8109,47.0683]},"surface":1661.32,"population":555,"departement":{"code":"25","nom":"Doubs"},"region":{"code":"27","nom":"Bourgogne-Franche-Comté"}},{"nom":"Lizine","code":"25338","codesPostaux":["25330"],"centre":{"type":"Point","coordinates":[5.9921,47.0534]},"surface":729.75,"population":95,"departement":{"code":"25","nom":"Doubs"},"region":{"code":"27","nom":"Bourgogne-Franche-Comté"}},{"nom":"Lods","code":"25339","codesPostaux":["25930"],"centre":{"type":"Point","coordinates":[6.2591,47.0499]},"surface":633.28,"population":234,"departement":{"code":"25","nom":"Doubs"},"region":{"code":"27","nom":"Bourgogne-Franche-Comté"}},{"nom":"Lombard","code":"25340","codesPostaux":["25440"],"centre":{"type":"Point","coordinates":[5.8507,47.0826]},"surface":590.8,"population":193,"departement":{"code":"25","nom":"Doubs"},"region":{"code":"27","nom":"Bourgogne-Franche-Comté"}},{"nom":"Lomont-sur-Crête","code":"25341","codesPostaux":["25110"],"centre":{"type":"Point","coordinates":[6.4338,47.3381]},"surface":986.32,"population":172,"departement":{"code":"25","nom":"Doubs"},"region":{"code":"27","nom":"Bourgogne-Franche-Comté"}},{"nom":"Longechaux","code":"25342","codesPostaux":["25690"],"centre":{"type":"Point","coordinates":[6.4368,47.1647]},"surface":510.49,"population":78,"departement":{"code":"25","nom":"Doubs"},"region":{"code":"27","nom":"Bourgogne-Franche-Comté"}},{"nom":"Longemaison","code":"25343","codesPostaux":["25690"],"centre":{"type":"Point","coordinates":[6.459,47.0847]},"surface":992.43,"population":164,"departement":{"code":"25","nom":"Doubs"},"region":{"code":"27","nom":"Bourgogne-Franche-Comté"}},{"nom":"Longevelle-lès-Russey","code":"25344","codesPostaux":["25380"],"centre":{"type":"Point","coordinates":[6.6557,47.222]},"surface":256.04,"population":42,"departement":{"code":"25","nom":"Doubs"},"region":{"code":"27","nom":"Bourgogne-Franche-Comté"}},{"nom":"Longevelle-sur-Doubs","code":"25345","codesPostaux":["25260"],"centre":{"type":"Point","coordinates":[6.6503,47.4627]},"surface":834.84,"population":661,"departement":{"code":"25","nom":"Doubs"},"region":{"code":"27","nom":"Bourgogne-Franche-Comté"}},{"nom":"Longeville","code":"25346","codesPostaux":["25330"],"centre":{"type":"Point","coordinates":[6.2309,47.033]},"surface":936.73,"population":187,"departement":{"code":"25","nom":"Doubs"},"region":{"code":"27","nom":"Bourgogne-Franche-Comté"}},{"nom":"La Longeville","code":"25347","codesPostaux":["25650"],"centre":{"type":"Point","coordinates":[6.4703,47.0185]},"surface":1560.7,"population":836,"departement":{"code":"25","nom":"Doubs"},"region":{"code":"27","nom":"Bourgogne-Franche-Comté"}},{"nom":"Longevilles-Mont-d'Or","code":"25348","codesPostaux":["25370"],"centre":{"type":"Point","coordinates":[6.3293,46.7451]},"surface":1319.32,"population":613,"departement":{"code":"25","nom":"Doubs"},"region":{"code":"27","nom":"Bourgogne-Franche-Comté"}},{"nom":"Loray","code":"25349","codesPostaux":["25390"],"centre":{"type":"Point","coordinates":[6.4933,47.1572]},"surface":1435.68,"population":615,"departement":{"code":"25","nom":"Doubs"},"region":{"code":"27","nom":"Bourgogne-Franche-Comté"}},{"nom":"Lougres","code":"25350","codesPostaux":["25260"],"centre":{"type":"Point","coordinates":[6.6801,47.4718]},"surface":595.8,"population":727,"departement":{"code":"25","nom":"Doubs"},"region":{"code":"27","nom":"Bourgogne-Franche-Comté"}},{"nom":"Le Luhier","code":"25351","codesPostaux":["25210"],"centre":{"type":"Point","coordinates":[6.6777,47.1689]},"surface":521.66,"population":242,"departement":{"code":"25","nom":"Doubs"},"region":{"code":"27","nom":"Bourgogne-Franche-Comté"}},{"nom":"Luxiol","code":"25354","codesPostaux":["25110"],"centre":{"type":"Point","coordinates":[6.3483,47.3794]},"surface":639.01,"population":157,"departement":{"code":"25","nom":"Doubs"},"region":{"code":"27","nom":"Bourgogne-Franche-Comté"}},{"nom":"Magny-Châtelard","code":"25355","codesPostaux":["25360"],"centre":{"type":"Point","coordinates":[6.3283,47.2345]},"surface":411.94,"population":63,"departement":{"code":"25","nom":"Doubs"},"region":{"code":"27","nom":"Bourgogne-Franche-Comté"}},{"nom":"Maîche","code":"25356","codesPostaux":["25120"],"centre":{"type":"Point","coordinates":[6.7915,47.2412]},"surface":1744.61,"population":4244,"departement":{"code":"25","nom":"Doubs"},"region":{"code":"27","nom":"Bourgogne-Franche-Comté"}},{"nom":"Maisons-du-Bois-Lièvremont","code":"25357","codesPostaux":["25650"],"centre":{"type":"Point","coordinates":[6.4131,46.9796]},"surface":1583.87,"population":854,"departement":{"code":"25","nom":"Doubs"},"region":{"code":"27","nom":"Bourgogne-Franche-Comté"}},{"nom":"Malans","code":"25359","codesPostaux":["25330"],"centre":{"type":"Point","coordinates":[6.0295,47.0452]},"surface":1054,"population":154,"departement":{"code":"25","nom":"Doubs"},"region":{"code":"27","nom":"Bourgogne-Franche-Comté"}},{"nom":"Malbrans","code":"25360","codesPostaux":["25620"],"centre":{"type":"Point","coordinates":[6.0897,47.1241]},"surface":870.92,"population":179,"departement":{"code":"25","nom":"Doubs"},"region":{"code":"27","nom":"Bourgogne-Franche-Comté"}},{"nom":"Malbuisson","code":"25361","codesPostaux":["25160"],"centre":{"type":"Point","coordinates":[6.31,46.8015]},"surface":671.08,"population":855,"departement":{"code":"25","nom":"Doubs"},"region":{"code":"27","nom":"Bourgogne-Franche-Comté"}},{"nom":"Malpas","code":"25362","codesPostaux":["25160"],"centre":{"type":"Point","coordinates":[6.2892,46.8283]},"surface":575.9,"population":286,"departement":{"code":"25","nom":"Doubs"},"region":{"code":"27","nom":"Bourgogne-Franche-Comté"}},{"nom":"Mamirolle","code":"25364","codesPostaux":["25620"],"centre":{"type":"Point","coordinates":[6.1607,47.2002]},"surface":1154.71,"population":1798,"departement":{"code":"25","nom":"Doubs"},"region":{"code":"27","nom":"Bourgogne-Franche-Comté"}},{"nom":"Mancenans","code":"25365","codesPostaux":["25250"],"centre":{"type":"Point","coordinates":[6.5433,47.4637]},"surface":1198.03,"population":314,"departement":{"code":"25","nom":"Doubs"},"region":{"code":"27","nom":"Bourgogne-Franche-Comté"}},{"nom":"Mancenans-Lizerne","code":"25366","codesPostaux":["25120"],"centre":{"type":"Point","coordinates":[6.7741,47.2555]},"surface":607.14,"population":187,"departement":{"code":"25","nom":"Doubs"},"region":{"code":"27","nom":"Bourgogne-Franche-Comté"}},{"nom":"Mandeure","code":"25367","codesPostaux":["25350"],"centre":{"type":"Point","coordinates":[6.8125,47.4315]},"surface":1520.34,"population":4731,"departement":{"code":"25","nom":"Doubs"},"region":{"code":"27","nom":"Bourgogne-Franche-Comté"}},{"nom":"Marchaux-Chaudefontaine","code":"25368","codesPostaux":["25640"],"centre":{"type":"Point","coordinates":[6.1376,47.3338]},"surface":1636.8,"population":1446,"departement":{"code":"25","nom":"Doubs"},"region":{"code":"27","nom":"Bourgogne-Franche-Comté"}},{"nom":"Marvelise","code":"25369","codesPostaux":["25250"],"centre":{"type":"Point","coordinates":[6.5947,47.5209]},"surface":418.85,"population":154,"departement":{"code":"25","nom":"Doubs"},"region":{"code":"27","nom":"Bourgogne-Franche-Comté"}},{"nom":"Mathay","code":"25370","codesPostaux":["25700"],"centre":{"type":"Point","coordinates":[6.7755,47.4394]},"surface":1488.67,"population":2148,"departement":{"code":"25","nom":"Doubs"},"region":{"code":"27","nom":"Bourgogne-Franche-Comté"}},{"nom":"Mazerolles-le-Salin","code":"25371","codesPostaux":["25170"],"centre":{"type":"Point","coordinates":[5.8689,47.2424]},"surface":420.4,"population":219,"departement":{"code":"25","nom":"Doubs"},"region":{"code":"27","nom":"Bourgogne-Franche-Comté"}},{"nom":"Médière","code":"25372","codesPostaux":["25250"],"centre":{"type":"Point","coordinates":[6.6022,47.4624]},"surface":574.03,"population":280,"departement":{"code":"25","nom":"Doubs"},"region":{"code":"27","nom":"Bourgogne-Franche-Comté"}},{"nom":"Le Mémont","code":"25373","codesPostaux":["25210"],"centre":{"type":"Point","coordinates":[6.6885,47.1598]},"surface":316.88,"population":45,"departement":{"code":"25","nom":"Doubs"},"region":{"code":"27","nom":"Bourgogne-Franche-Comté"}},{"nom":"Mercey-le-Grand","code":"25374","codesPostaux":["25410"],"centre":{"type":"Point","coordinates":[5.7547,47.2095]},"surface":660.23,"population":542,"departement":{"code":"25","nom":"Doubs"},"region":{"code":"27","nom":"Bourgogne-Franche-Comté"}},{"nom":"Les Monts-Ronds","code":"25375","codesPostaux":["25620","25660"],"centre":{"type":"Point","coordinates":[6.0733,47.1581]},"surface":1713.75,"population":668,"departement":{"code":"25","nom":"Doubs"},"region":{"code":"27","nom":"Bourgogne-Franche-Comté"}},{"nom":"Mérey-Vieilley","code":"25376","codesPostaux":["25870"],"centre":{"type":"Point","coordinates":[6.0629,47.331]},"surface":338.81,"population":159,"departement":{"code":"25","nom":"Doubs"},"region":{"code":"27","nom":"Bourgogne-Franche-Comté"}},{"nom":"Mésandans","code":"25377","codesPostaux":["25680"],"centre":{"type":"Point","coordinates":[6.378,47.43]},"surface":562.78,"population":233,"departement":{"code":"25","nom":"Doubs"},"region":{"code":"27","nom":"Bourgogne-Franche-Comté"}},{"nom":"Meslières","code":"25378","codesPostaux":["25310"],"centre":{"type":"Point","coordinates":[6.8942,47.4185]},"surface":296.09,"population":338,"departement":{"code":"25","nom":"Doubs"},"region":{"code":"27","nom":"Bourgogne-Franche-Comté"}},{"nom":"Mesmay","code":"25379","codesPostaux":["25440"],"centre":{"type":"Point","coordinates":[5.8509,47.0582]},"surface":307.61,"population":70,"departement":{"code":"25","nom":"Doubs"},"region":{"code":"27","nom":"Bourgogne-Franche-Comté"}},{"nom":"Métabief","code":"25380","codesPostaux":["25370"],"centre":{"type":"Point","coordinates":[6.3512,46.7619]},"surface":582.65,"population":1395,"departement":{"code":"25","nom":"Doubs"},"region":{"code":"27","nom":"Bourgogne-Franche-Comté"}},{"nom":"Miserey-Salines","code":"25381","codesPostaux":["25480"],"centre":{"type":"Point","coordinates":[5.9705,47.2897]},"surface":619.27,"population":2659,"departement":{"code":"25","nom":"Doubs"},"region":{"code":"27","nom":"Bourgogne-Franche-Comté"}},{"nom":"Moncey","code":"25382","codesPostaux":["25870"],"centre":{"type":"Point","coordinates":[6.1327,47.3612]},"surface":498.13,"population":617,"departement":{"code":"25","nom":"Doubs"},"region":{"code":"27","nom":"Bourgogne-Franche-Comté"}},{"nom":"Moncley","code":"25383","codesPostaux":["25170"],"centre":{"type":"Point","coordinates":[5.9026,47.3056]},"surface":793.86,"population":284,"departement":{"code":"25","nom":"Doubs"},"region":{"code":"27","nom":"Bourgogne-Franche-Comté"}},{"nom":"Mondon","code":"25384","codesPostaux":["25680"],"centre":{"type":"Point","coordinates":[6.3133,47.4478]},"surface":456.44,"population":85,"departement":{"code":"25","nom":"Doubs"},"region":{"code":"27","nom":"Bourgogne-Franche-Comté"}},{"nom":"Montagney-Servigney","code":"25385","codesPostaux":["25680"],"centre":{"type":"Point","coordinates":[6.3054,47.4685]},"surface":662.2,"population":126,"departement":{"code":"25","nom":"Doubs"},"region":{"code":"27","nom":"Bourgogne-Franche-Comté"}},{"nom":"Montancy","code":"25386","codesPostaux":["25190"],"centre":{"type":"Point","coordinates":[7.0259,47.354]},"surface":884.04,"population":120,"departement":{"code":"25","nom":"Doubs"},"region":{"code":"27","nom":"Bourgogne-Franche-Comté"}},{"nom":"Montandon","code":"25387","codesPostaux":["25190"],"centre":{"type":"Point","coordinates":[6.8365,47.2986]},"surface":1271.92,"population":372,"departement":{"code":"25","nom":"Doubs"},"region":{"code":"27","nom":"Bourgogne-Franche-Comté"}},{"nom":"Montbéliard","code":"25388","codesPostaux":["25200"],"centre":{"type":"Point","coordinates":[6.7834,47.5168]},"surface":1500.84,"population":25573,"departement":{"code":"25","nom":"Doubs"},"region":{"code":"27","nom":"Bourgogne-Franche-Comté"}},{"nom":"Montbéliardot","code":"25389","codesPostaux":["25210"],"centre":{"type":"Point","coordinates":[6.6694,47.1822]},"surface":388.4,"population":112,"departement":{"code":"25","nom":"Doubs"},"region":{"code":"27","nom":"Bourgogne-Franche-Comté"}},{"nom":"Montbenoît","code":"25390","codesPostaux":["25650"],"centre":{"type":"Point","coordinates":[6.4622,46.9847]},"surface":506.64,"population":401,"departement":{"code":"25","nom":"Doubs"},"region":{"code":"27","nom":"Bourgogne-Franche-Comté"}},{"nom":"Mont-de-Laval","code":"25391","codesPostaux":["25210"],"centre":{"type":"Point","coordinates":[6.6408,47.1633]},"surface":849.56,"population":187,"departement":{"code":"25","nom":"Doubs"},"region":{"code":"27","nom":"Bourgogne-Franche-Comté"}},{"nom":"Mont-de-Vougney","code":"25392","codesPostaux":["25120"],"centre":{"type":"Point","coordinates":[6.7371,47.2417]},"surface":710.53,"population":196,"departement":{"code":"25","nom":"Doubs"},"region":{"code":"27","nom":"Bourgogne-Franche-Comté"}},{"nom":"Montécheroux","code":"25393","codesPostaux":["25190"],"centre":{"type":"Point","coordinates":[6.7965,47.3469]},"surface":1324.21,"population":551,"departement":{"code":"25","nom":"Doubs"},"region":{"code":"27","nom":"Bourgogne-Franche-Comté"}},{"nom":"Montenois","code":"25394","codesPostaux":["25260"],"centre":{"type":"Point","coordinates":[6.6573,47.4921]},"surface":813.1,"population":1427,"departement":{"code":"25","nom":"Doubs"},"region":{"code":"27","nom":"Bourgogne-Franche-Comté"}},{"nom":"Montfaucon","code":"25395","codesPostaux":["25660"],"centre":{"type":"Point","coordinates":[6.0881,47.2408]},"surface":725.08,"population":1582,"departement":{"code":"25","nom":"Doubs"},"region":{"code":"27","nom":"Bourgogne-Franche-Comté"}},{"nom":"Montferrand-le-Château","code":"25397","codesPostaux":["25320"],"centre":{"type":"Point","coordinates":[5.9185,47.191]},"surface":750.02,"population":2185,"departement":{"code":"25","nom":"Doubs"},"region":{"code":"27","nom":"Bourgogne-Franche-Comté"}},{"nom":"Montflovin","code":"25398","codesPostaux":["25650"],"centre":{"type":"Point","coordinates":[6.4308,46.9944]},"surface":338.35,"population":118,"departement":{"code":"25","nom":"Doubs"},"region":{"code":"27","nom":"Bourgogne-Franche-Comté"}},{"nom":"Montgesoye","code":"25400","codesPostaux":["25111"],"centre":{"type":"Point","coordinates":[6.1963,47.0877]},"surface":1127.21,"population":487,"departement":{"code":"25","nom":"Doubs"},"region":{"code":"27","nom":"Bourgogne-Franche-Comté"}},{"nom":"Montivernage","code":"25401","codesPostaux":["25110"],"centre":{"type":"Point","coordinates":[6.4225,47.3099]},"surface":330.42,"population":27,"departement":{"code":"25","nom":"Doubs"},"region":{"code":"27","nom":"Bourgogne-Franche-Comté"}},{"nom":"Montjoie-le-Château","code":"25402","codesPostaux":["25190"],"centre":{"type":"Point","coordinates":[6.8965,47.3461]},"surface":545.62,"population":23,"departement":{"code":"25","nom":"Doubs"},"region":{"code":"27","nom":"Bourgogne-Franche-Comté"}},{"nom":"Montlebon","code":"25403","codesPostaux":["25500"],"centre":{"type":"Point","coordinates":[6.6316,47.0216]},"surface":2732.14,"population":2209,"departement":{"code":"25","nom":"Doubs"},"region":{"code":"27","nom":"Bourgogne-Franche-Comté"}},{"nom":"Montmahoux","code":"25404","codesPostaux":["25270"],"centre":{"type":"Point","coordinates":[6.0317,46.9817]},"surface":671.15,"population":91,"departement":{"code":"25","nom":"Doubs"},"region":{"code":"27","nom":"Bourgogne-Franche-Comté"}},{"nom":"Montperreux","code":"25405","codesPostaux":["25160"],"centre":{"type":"Point","coordinates":[6.3424,46.8205]},"surface":1161.89,"population":925,"departement":{"code":"25","nom":"Doubs"},"region":{"code":"27","nom":"Bourgogne-Franche-Comté"}},{"nom":"Montrond-le-Château","code":"25406","codesPostaux":["25660"],"centre":{"type":"Point","coordinates":[6.0433,47.146]},"surface":1105.95,"population":563,"departement":{"code":"25","nom":"Doubs"},"region":{"code":"27","nom":"Bourgogne-Franche-Comté"}},{"nom":"Montussaint","code":"25408","codesPostaux":["25680"],"centre":{"type":"Point","coordinates":[6.2927,47.4364]},"surface":304.49,"population":55,"departement":{"code":"25","nom":"Doubs"},"region":{"code":"27","nom":"Bourgogne-Franche-Comté"}},{"nom":"Morre","code":"25410","codesPostaux":["25660"],"centre":{"type":"Point","coordinates":[6.0688,47.2188]},"surface":530.06,"population":1321,"departement":{"code":"25","nom":"Doubs"},"region":{"code":"27","nom":"Bourgogne-Franche-Comté"}},{"nom":"Morteau","code":"25411","codesPostaux":["25500"],"centre":{"type":"Point","coordinates":[6.5891,47.0643]},"surface":1428.84,"population":6867,"departement":{"code":"25","nom":"Doubs"},"region":{"code":"27","nom":"Bourgogne-Franche-Comté"}},{"nom":"Mouthe","code":"25413","codesPostaux":["25240"],"centre":{"type":"Point","coordinates":[6.2089,46.6836]},"surface":3881.16,"population":1019,"departement":{"code":"25","nom":"Doubs"},"region":{"code":"27","nom":"Bourgogne-Franche-Comté"}},{"nom":"Le Moutherot","code":"25414","codesPostaux":["25170"],"centre":{"type":"Point","coordinates":[5.7317,47.2429]},"surface":124.85,"population":129,"departement":{"code":"25","nom":"Doubs"},"region":{"code":"27","nom":"Bourgogne-Franche-Comté"}},{"nom":"Mouthier-Haute-Pierre","code":"25415","codesPostaux":["25920"],"centre":{"type":"Point","coordinates":[6.2812,47.0378]},"surface":1222.73,"population":350,"departement":{"code":"25","nom":"Doubs"},"region":{"code":"27","nom":"Bourgogne-Franche-Comté"}},{"nom":"Myon","code":"25416","codesPostaux":["25440"],"centre":{"type":"Point","coordinates":[5.9404,47.0076]},"surface":1586.46,"population":179,"departement":{"code":"25","nom":"Doubs"},"region":{"code":"27","nom":"Bourgogne-Franche-Comté"}},{"nom":"Naisey-les-Granges","code":"25417","codesPostaux":["25360"],"centre":{"type":"Point","coordinates":[6.2385,47.2079]},"surface":2516.96,"population":808,"departement":{"code":"25","nom":"Doubs"},"region":{"code":"27","nom":"Bourgogne-Franche-Comté"}},{"nom":"Nancray","code":"25418","codesPostaux":["25360"],"centre":{"type":"Point","coordinates":[6.177,47.2488]},"surface":1663.34,"population":1286,"departement":{"code":"25","nom":"Doubs"},"region":{"code":"27","nom":"Bourgogne-Franche-Comté"}},{"nom":"Nans","code":"25419","codesPostaux":["25680"],"centre":{"type":"Point","coordinates":[6.4113,47.4765]},"surface":324.93,"population":93,"departement":{"code":"25","nom":"Doubs"},"region":{"code":"27","nom":"Bourgogne-Franche-Comté"}},{"nom":"Nans-sous-Sainte-Anne","code":"25420","codesPostaux":["25330"],"centre":{"type":"Point","coordinates":[5.9904,46.9772]},"surface":877.38,"population":171,"departement":{"code":"25","nom":"Doubs"},"region":{"code":"27","nom":"Bourgogne-Franche-Comté"}},{"nom":"Narbief","code":"25421","codesPostaux":["25210"],"centre":{"type":"Point","coordinates":[6.6937,47.1299]},"surface":349.1,"population":90,"departement":{"code":"25","nom":"Doubs"},"region":{"code":"27","nom":"Bourgogne-Franche-Comté"}},{"nom":"Neuchâtel-Urtière","code":"25422","codesPostaux":["25150"],"centre":{"type":"Point","coordinates":[6.7285,47.3799]},"surface":617,"population":168,"departement":{"code":"25","nom":"Doubs"},"region":{"code":"27","nom":"Bourgogne-Franche-Comté"}},{"nom":"Les Premiers Sapins","code":"25424","codesPostaux":["25580"],"centre":{"type":"Point","coordinates":[6.3426,47.0774]},"surface":5244.04,"population":1560,"departement":{"code":"25","nom":"Doubs"},"region":{"code":"27","nom":"Bourgogne-Franche-Comté"}},{"nom":"Noël-Cerneux","code":"25425","codesPostaux":["25500"],"centre":{"type":"Point","coordinates":[6.6556,47.1062]},"surface":636.77,"population":456,"departement":{"code":"25","nom":"Doubs"},"region":{"code":"27","nom":"Bourgogne-Franche-Comté"}},{"nom":"Noirefontaine","code":"25426","codesPostaux":["25190"],"centre":{"type":"Point","coordinates":[6.7669,47.3461]},"surface":338.96,"population":327,"departement":{"code":"25","nom":"Doubs"},"region":{"code":"27","nom":"Bourgogne-Franche-Comté"}},{"nom":"Noironte","code":"25427","codesPostaux":["25170"],"centre":{"type":"Point","coordinates":[5.8701,47.2743]},"surface":676.5,"population":397,"departement":{"code":"25","nom":"Doubs"},"region":{"code":"27","nom":"Bourgogne-Franche-Comté"}},{"nom":"Nommay","code":"25428","codesPostaux":["25600"],"centre":{"type":"Point","coordinates":[6.8454,47.537]},"surface":325.16,"population":1606,"departement":{"code":"25","nom":"Doubs"},"region":{"code":"27","nom":"Bourgogne-Franche-Comté"}},{"nom":"Novillars","code":"25429","codesPostaux":["25220"],"centre":{"type":"Point","coordinates":[6.1301,47.2876]},"surface":204.54,"population":1396,"departement":{"code":"25","nom":"Doubs"},"region":{"code":"27","nom":"Bourgogne-Franche-Comté"}},{"nom":"Ollans","code":"25430","codesPostaux":["25640"],"centre":{"type":"Point","coordinates":[6.2455,47.4208]},"surface":222.98,"population":38,"departement":{"code":"25","nom":"Doubs"},"region":{"code":"27","nom":"Bourgogne-Franche-Comté"}},{"nom":"Onans","code":"25431","codesPostaux":["25250"],"centre":{"type":"Point","coordinates":[6.6036,47.5011]},"surface":1417.93,"population":357,"departement":{"code":"25","nom":"Doubs"},"region":{"code":"27","nom":"Bourgogne-Franche-Comté"}},{"nom":"Orchamps-Vennes","code":"25432","codesPostaux":["25390"],"centre":{"type":"Point","coordinates":[6.5122,47.109]},"surface":2478.6,"population":2169,"departement":{"code":"25","nom":"Doubs"},"region":{"code":"27","nom":"Bourgogne-Franche-Comté"}},{"nom":"Orgeans-Blanchefontaine","code":"25433","codesPostaux":["25120"],"centre":{"type":"Point","coordinates":[6.7554,47.2675]},"surface":484.82,"population":40,"departement":{"code":"25","nom":"Doubs"},"region":{"code":"27","nom":"Bourgogne-Franche-Comté"}},{"nom":"Ornans","code":"25434","codesPostaux":["25290","25620"],"centre":{"type":"Point","coordinates":[6.1534,47.1]},"surface":3585.07,"population":4422,"departement":{"code":"25","nom":"Doubs"},"region":{"code":"27","nom":"Bourgogne-Franche-Comté"}},{"nom":"Orsans","code":"25435","codesPostaux":["25530"],"centre":{"type":"Point","coordinates":[6.3832,47.2468]},"surface":837.35,"population":174,"departement":{"code":"25","nom":"Doubs"},"region":{"code":"27","nom":"Bourgogne-Franche-Comté"}},{"nom":"Orve","code":"25436","codesPostaux":["25430"],"centre":{"type":"Point","coordinates":[6.5589,47.338]},"surface":559.94,"population":56,"departement":{"code":"25","nom":"Doubs"},"region":{"code":"27","nom":"Bourgogne-Franche-Comté"}},{"nom":"Osse","code":"25437","codesPostaux":["25360"],"centre":{"type":"Point","coordinates":[6.2115,47.2718]},"surface":831.02,"population":356,"departement":{"code":"25","nom":"Doubs"},"region":{"code":"27","nom":"Bourgogne-Franche-Comté"}},{"nom":"Osselle-Routelle","code":"25438","codesPostaux":["25320","25410"],"centre":{"type":"Point","coordinates":[5.8622,47.1565]},"surface":1077.88,"population":958,"departement":{"code":"25","nom":"Doubs"},"region":{"code":"27","nom":"Bourgogne-Franche-Comté"}},{"nom":"Ougney-Douvot","code":"25439","codesPostaux":["25640"],"centre":{"type":"Point","coordinates":[6.2707,47.3184]},"surface":661.68,"population":253,"departement":{"code":"25","nom":"Doubs"},"region":{"code":"27","nom":"Bourgogne-Franche-Comté"}},{"nom":"Ouhans","code":"25440","codesPostaux":["25520"],"centre":{"type":"Point","coordinates":[6.3134,47.0027]},"surface":1587.05,"population":388,"departement":{"code":"25","nom":"Doubs"},"region":{"code":"27","nom":"Bourgogne-Franche-Comté"}},{"nom":"Ouvans","code":"25441","codesPostaux":["25530"],"centre":{"type":"Point","coordinates":[6.488,47.2768]},"surface":514.37,"population":67,"departement":{"code":"25","nom":"Doubs"},"region":{"code":"27","nom":"Bourgogne-Franche-Comté"}},{"nom":"Oye-et-Pallet","code":"25442","codesPostaux":["25160"],"centre":{"type":"Point","coordinates":[6.3367,46.8533]},"surface":1051.94,"population":720,"departement":{"code":"25","nom":"Doubs"},"region":{"code":"27","nom":"Bourgogne-Franche-Comté"}},{"nom":"Palantine","code":"25443","codesPostaux":["25440"],"centre":{"type":"Point","coordinates":[5.9424,47.1004]},"surface":436.25,"population":65,"departement":{"code":"25","nom":"Doubs"},"region":{"code":"27","nom":"Bourgogne-Franche-Comté"}},{"nom":"Palise","code":"25444","codesPostaux":["25870"],"centre":{"type":"Point","coordinates":[6.0925,47.3658]},"surface":207.6,"population":142,"departement":{"code":"25","nom":"Doubs"},"region":{"code":"27","nom":"Bourgogne-Franche-Comté"}},{"nom":"Paroy","code":"25445","codesPostaux":["25440"],"centre":{"type":"Point","coordinates":[5.8854,47.0341]},"surface":440.3,"population":119,"departement":{"code":"25","nom":"Doubs"},"region":{"code":"27","nom":"Bourgogne-Franche-Comté"}},{"nom":"Passavant","code":"25446","codesPostaux":["25360"],"centre":{"type":"Point","coordinates":[6.3955,47.2793]},"surface":1495.73,"population":189,"departement":{"code":"25","nom":"Doubs"},"region":{"code":"27","nom":"Bourgogne-Franche-Comté"}},{"nom":"Passonfontaine","code":"25447","codesPostaux":["25690"],"centre":{"type":"Point","coordinates":[6.4253,47.0989]},"surface":1959.27,"population":337,"departement":{"code":"25","nom":"Doubs"},"region":{"code":"27","nom":"Bourgogne-Franche-Comté"}},{"nom":"Pelousey","code":"25448","codesPostaux":["25170"],"centre":{"type":"Point","coordinates":[5.9251,47.2798]},"surface":619.5,"population":1560,"departement":{"code":"25","nom":"Doubs"},"region":{"code":"27","nom":"Bourgogne-Franche-Comté"}},