[{"nom":"Acy-Romance","code":"08001","codesPostaux":["08300"],"centre":{"type":"Point","coordinates":[4.3269,49.4915]},"surface":1105.01,"population":492,"departement":{"code":"08","nom":"Ardennes"},"region":{"code":"44","nom":"Grand Est"}},{"nom":"Aiglemont","code":"08003","codesPostaux":["08090"],"centre":{"type":"Point","coordinates":[4.7679,49.7909]},"surface":884.14,"population":1659,"departement":{"code":"08","nom":"Ardennes"},"region":{"code":"44","nom":"Grand Est"}},{"nom":"Aire","code":"08004","codesPostaux":["08190"],"centre":{"type":"Point","coordinates":[4.1624,49.4695]},"surface":675.9,"population":246,"departement":{"code":"08","nom":"Ardennes"},"region":{"code":"44","nom":"Grand Est"}},{"nom":"Alincourt","code":"08005","codesPostaux":["08310"],"centre":{"type":"Point","coordinates":[4.345,49.4009]},"surface":890.56,"population":160,"departement":{"code":"08","nom":"Ardennes"},"region":{"code":"44","nom":"Grand Est"}},{"nom":"Alland'Huy-et-Sausseuil","code":"08006","codesPostaux":["08130"],"centre":{"type":"Point","coordinates":[4.5467,49.5117]},"surface":870.68,"population":262,"departement":{"code":"08","nom":"Ardennes"},"region":{"code":"44","nom":"Grand Est"}},{"nom":"Amagne","code":"08008","codesPostaux":["08300"],"centre":{"type":"Point","coordinates":[4.504,49.5133]},"surface":937.38,"population":760,"departement":{"code":"08","nom":"Ardennes"},"region":{"code":"44","nom":"Grand Est"}},{"nom":"Ambly-Fleury","code":"08010","codesPostaux":["08130"],"centre":{"type":"Point","coordinates":[4.4904,49.4901]},"surface":578.92,"population":135,"departement":{"code":"08","nom":"Ardennes"},"region":{"code":"44","nom":"Grand Est"}},{"nom":"Anchamps","code":"08011","codesPostaux":["08500"],"centre":{"type":"Point","coordinates":[4.6618,49.9255]},"surface":221.77,"population":213,"departement":{"code":"08","nom":"Ardennes"},"region":{"code":"44","nom":"Grand Est"}},{"nom":"Angecourt","code":"08013","codesPostaux":["08450"],"centre":{"type":"Point","coordinates":[4.9739,49.6332]},"surface":373.99,"population":387,"departement":{"code":"08","nom":"Ardennes"},"region":{"code":"44","nom":"Grand Est"}},{"nom":"Annelles","code":"08014","codesPostaux":["08310"],"centre":{"type":"Point","coordinates":[4.4141,49.4341]},"surface":1273.92,"population":134,"departement":{"code":"08","nom":"Ardennes"},"region":{"code":"44","nom":"Grand Est"}},{"nom":"Antheny","code":"08015","codesPostaux":["08260"],"centre":{"type":"Point","coordinates":[4.3084,49.8423]},"surface":1013.52,"population":100,"departement":{"code":"08","nom":"Ardennes"},"region":{"code":"44","nom":"Grand Est"}},{"nom":"Aouste","code":"08016","codesPostaux":["08290"],"centre":{"type":"Point","coordinates":[4.3101,49.7963]},"surface":1269.55,"population":209,"departement":{"code":"08","nom":"Ardennes"},"region":{"code":"44","nom":"Grand Est"}},{"nom":"Apremont","code":"08017","codesPostaux":["08250"],"centre":{"type":"Point","coordinates":[4.9674,49.259]},"surface":1276.42,"population":119,"departement":{"code":"08","nom":"Ardennes"},"region":{"code":"44","nom":"Grand Est"}},{"nom":"Ardeuil-et-Montfauxelles","code":"08018","codesPostaux":["08400"],"centre":{"type":"Point","coordinates":[4.7048,49.2672]},"surface":433.29,"population":77,"departement":{"code":"08","nom":"Ardennes"},"region":{"code":"44","nom":"Grand Est"}},{"nom":"Les Grandes-Armoises","code":"08019","codesPostaux":["08390"],"centre":{"type":"Point","coordinates":[4.8978,49.5292]},"surface":451.23,"population":56,"departement":{"code":"08","nom":"Ardennes"},"region":{"code":"44","nom":"Grand Est"}},{"nom":"Les Petites-Armoises","code":"08020","codesPostaux":["08390"],"centre":{"type":"Point","coordinates":[4.8292,49.5004]},"surface":442.11,"population":59,"departement":{"code":"08","nom":"Ardennes"},"region":{"code":"44","nom":"Grand Est"}},{"nom":"Arnicourt","code":"08021","codesPostaux":["08300"],"centre":{"type":"Point","coordinates":[4.34,49.5543]},"surface":836.45,"population":152,"departement":{"code":"08","nom":"Ardennes"},"region":{"code":"44","nom":"Grand Est"}},{"nom":"Arreux","code":"08022","codesPostaux":["08090"],"centre":{"type":"Point","coordinates":[4.6612,49.8266]},"surface":422.68,"population":331,"departement":{"code":"08","nom":"Ardennes"},"region":{"code":"44","nom":"Grand Est"}},{"nom":"Artaise-le-Vivier","code":"08023","codesPostaux":["08390"],"centre":{"type":"Point","coordinates":[4.8937,49.5711]},"surface":844.56,"population":64,"departement":{"code":"08","nom":"Ardennes"},"region":{"code":"44","nom":"Grand Est"}},{"nom":"Asfeld","code":"08024","codesPostaux":["08190"],"centre":{"type":"Point","coordinates":[4.1235,49.4767]},"surface":2210.27,"population":1078,"departement":{"code":"08","nom":"Ardennes"},"region":{"code":"44","nom":"Grand Est"}},{"nom":"Attigny","code":"08025","codesPostaux":["08130"],"centre":{"type":"Point","coordinates":[4.5915,49.4756]},"surface":1162.35,"population":1106,"departement":{"code":"08","nom":"Ardennes"},"region":{"code":"44","nom":"Grand Est"}},{"nom":"Aubigny-les-Pothées","code":"08026","codesPostaux":["08150"],"centre":{"type":"Point","coordinates":[4.4259,49.7646]},"surface":1481.19,"population":306,"departement":{"code":"08","nom":"Ardennes"},"region":{"code":"44","nom":"Grand Est"}},{"nom":"Auboncourt-Vauzelles","code":"08027","codesPostaux":["08270"],"centre":{"type":"Point","coordinates":[4.4803,49.5574]},"surface":528.72,"population":96,"departement":{"code":"08","nom":"Ardennes"},"region":{"code":"44","nom":"Grand Est"}},{"nom":"Aubrives","code":"08028","codesPostaux":["08320"],"centre":{"type":"Point","coordinates":[4.7668,50.0865]},"surface":1065.72,"population":982,"departement":{"code":"08","nom":"Ardennes"},"region":{"code":"44","nom":"Grand Est"}},{"nom":"Auflance","code":"08029","codesPostaux":["08370"],"centre":{"type":"Point","coordinates":[5.2922,49.6153]},"surface":607.99,"population":83,"departement":{"code":"08","nom":"Ardennes"},"region":{"code":"44","nom":"Grand Est"}},{"nom":"Auge","code":"08030","codesPostaux":["08380"],"centre":{"type":"Point","coordinates":[4.268,49.8566]},"surface":454.06,"population":58,"departement":{"code":"08","nom":"Ardennes"},"region":{"code":"44","nom":"Grand Est"}},{"nom":"Aure","code":"08031","codesPostaux":["08400"],"centre":{"type":"Point","coordinates":[4.6221,49.2761]},"surface":1270.03,"population":40,"departement":{"code":"08","nom":"Ardennes"},"region":{"code":"44","nom":"Grand Est"}},{"nom":"Aussonce","code":"08032","codesPostaux":["08310"],"centre":{"type":"Point","coordinates":[4.3252,49.3432]},"surface":1943,"population":225,"departement":{"code":"08","nom":"Ardennes"},"region":{"code":"44","nom":"Grand Est"}},{"nom":"Authe","code":"08033","codesPostaux":["08240"],"centre":{"type":"Point","coordinates":[4.8789,49.4615]},"surface":957.93,"population":92,"departement":{"code":"08","nom":"Ardennes"},"region":{"code":"44","nom":"Grand Est"}},{"nom":"Autrecourt-et-Pourron","code":"08034","codesPostaux":["08210"],"centre":{"type":"Point","coordinates":[5.0219,49.6049]},"surface":1189.77,"population":334,"departement":{"code":"08","nom":"Ardennes"},"region":{"code":"44","nom":"Grand Est"}},{"nom":"Autruche","code":"08035","codesPostaux":["08240"],"centre":{"type":"Point","coordinates":[4.9067,49.4525]},"surface":833.21,"population":53,"departement":{"code":"08","nom":"Ardennes"},"region":{"code":"44","nom":"Grand Est"}},{"nom":"Autry","code":"08036","codesPostaux":["08250"],"centre":{"type":"Point","coordinates":[4.8311,49.2647]},"surface":1645.11,"population":101,"departement":{"code":"08","nom":"Ardennes"},"region":{"code":"44","nom":"Grand Est"}},{"nom":"Auvillers-les-Forges","code":"08037","codesPostaux":["08260"],"centre":{"type":"Point","coordinates":[4.3607,49.8671]},"surface":813.45,"population":896,"departement":{"code":"08","nom":"Ardennes"},"region":{"code":"44","nom":"Grand Est"}},{"nom":"Avançon","code":"08038","codesPostaux":["08300"],"centre":{"type":"Point","coordinates":[4.2541,49.4782]},"surface":2128.51,"population":350,"departement":{"code":"08","nom":"Ardennes"},"region":{"code":"44","nom":"Grand Est"}},{"nom":"Avaux","code":"08039","codesPostaux":["08190"],"centre":{"type":"Point","coordinates":[4.0685,49.4654]},"surface":1326.7,"population":496,"departement":{"code":"08","nom":"Ardennes"},"region":{"code":"44","nom":"Grand Est"}},{"nom":"Les Ayvelles","code":"08040","codesPostaux":["08000"],"centre":{"type":"Point","coordinates":[4.755,49.7217]},"surface":542.29,"population":870,"departement":{"code":"08","nom":"Ardennes"},"region":{"code":"44","nom":"Grand Est"}},{"nom":"Baâlons","code":"08041","codesPostaux":["08430"],"centre":{"type":"Point","coordinates":[4.6636,49.6011]},"surface":1462.68,"population":206,"departement":{"code":"08","nom":"Ardennes"},"region":{"code":"44","nom":"Grand Est"}},{"nom":"Balan","code":"08043","codesPostaux":["08200"],"centre":{"type":"Point","coordinates":[4.9644,49.6887]},"surface":466.61,"population":1612,"departement":{"code":"08","nom":"Ardennes"},"region":{"code":"44","nom":"Grand Est"}},{"nom":"Balham","code":"08044","codesPostaux":["08190"],"centre":{"type":"Point","coordinates":[4.1523,49.4915]},"surface":177.61,"population":159,"departement":{"code":"08","nom":"Ardennes"},"region":{"code":"44","nom":"Grand Est"}},{"nom":"Ballay","code":"08045","codesPostaux":["08400"],"centre":{"type":"Point","coordinates":[4.756,49.4232]},"surface":1039.9,"population":250,"departement":{"code":"08","nom":"Ardennes"},"region":{"code":"44","nom":"Grand Est"}},{"nom":"Banogne-Recouvrance","code":"08046","codesPostaux":["08220"],"centre":{"type":"Point","coordinates":[4.1329,49.5711]},"surface":1908.77,"population":162,"departement":{"code":"08","nom":"Ardennes"},"region":{"code":"44","nom":"Grand Est"}},{"nom":"Barbaise","code":"08047","codesPostaux":["08430"],"centre":{"type":"Point","coordinates":[4.5792,49.6775]},"surface":685.4,"population":109,"departement":{"code":"08","nom":"Ardennes"},"region":{"code":"44","nom":"Grand Est"}},{"nom":"Barby","code":"08048","codesPostaux":["08300"],"centre":{"type":"Point","coordinates":[4.3144,49.5252]},"surface":1121.91,"population":397,"departement":{"code":"08","nom":"Ardennes"},"region":{"code":"44","nom":"Grand Est"}},{"nom":"Bar-lès-Buzancy","code":"08049","codesPostaux":["08240"],"centre":{"type":"Point","coordinates":[4.9562,49.4433]},"surface":925.88,"population":124,"departement":{"code":"08","nom":"Ardennes"},"region":{"code":"44","nom":"Grand Est"}},{"nom":"Bayonville","code":"08052","codesPostaux":["08240"],"centre":{"type":"Point","coordinates":[5.0136,49.3957]},"surface":1619.27,"population":70,"departement":{"code":"08","nom":"Ardennes"},"region":{"code":"44","nom":"Grand Est"}},{"nom":"Bazeilles","code":"08053","codesPostaux":["08140"],"centre":{"type":"Point","coordinates":[5.0269,49.7143]},"surface":3728.1,"population":2365,"departement":{"code":"08","nom":"Ardennes"},"region":{"code":"44","nom":"Grand Est"}},{"nom":"Beaumont-en-Argonne","code":"08055","codesPostaux":["08210"],"centre":{"type":"Point","coordinates":[5.0276,49.5308]},"surface":3123.58,"population":425,"departement":{"code":"08","nom":"Ardennes"},"region":{"code":"44","nom":"Grand Est"}},{"nom":"Beffu-et-le-Morthomme","code":"08056","codesPostaux":["08250"],"centre":{"type":"Point","coordinates":[4.8933,49.3731]},"surface":555.01,"population":41,"departement":{"code":"08","nom":"Ardennes"},"region":{"code":"44","nom":"Grand Est"}},{"nom":"Belleville-et-Châtillon-sur-Bar","code":"08057","codesPostaux":["08240"],"centre":{"type":"Point","coordinates":[4.8178,49.4624]},"surface":2142.22,"population":243,"departement":{"code":"08","nom":"Ardennes"},"region":{"code":"44","nom":"Grand Est"}},{"nom":"Belval","code":"08058","codesPostaux":["08090"],"centre":{"type":"Point","coordinates":[4.6398,49.7725]},"surface":495.23,"population":221,"departement":{"code":"08","nom":"Ardennes"},"region":{"code":"44","nom":"Grand Est"}},{"nom":"Belval-Bois-des-Dames","code":"08059","codesPostaux":["08240"],"centre":{"type":"Point","coordinates":[5.0462,49.4824]},"surface":1743.21,"population":27,"departement":{"code":"08","nom":"Ardennes"},"region":{"code":"44","nom":"Grand Est"}},{"nom":"Bergnicourt","code":"08060","codesPostaux":["08300"],"centre":{"type":"Point","coordinates":[4.2489,49.4119]},"surface":825.42,"population":300,"departement":{"code":"08","nom":"Ardennes"},"region":{"code":"44","nom":"Grand Est"}},{"nom":"La Berlière","code":"08061","codesPostaux":["08240"],"centre":{"type":"Point","coordinates":[4.943,49.5265]},"surface":1043.3,"population":37,"departement":{"code":"08","nom":"Ardennes"},"region":{"code":"44","nom":"Grand Est"}},{"nom":"Bertoncourt","code":"08062","codesPostaux":["08300"],"centre":{"type":"Point","coordinates":[4.3996,49.5377]},"surface":679.22,"population":126,"departement":{"code":"08","nom":"Ardennes"},"region":{"code":"44","nom":"Grand Est"}},{"nom":"La Besace","code":"08063","codesPostaux":["08450"],"centre":{"type":"Point","coordinates":[4.9661,49.5541]},"surface":1383.86,"population":134,"departement":{"code":"08","nom":"Ardennes"},"region":{"code":"44","nom":"Grand Est"}},{"nom":"Biermes","code":"08064","codesPostaux":["08300"],"centre":{"type":"Point","coordinates":[4.3815,49.4769]},"surface":796.09,"population":312,"departement":{"code":"08","nom":"Ardennes"},"region":{"code":"44","nom":"Grand Est"}},{"nom":"Bièvres","code":"08065","codesPostaux":["08370"],"centre":{"type":"Point","coordinates":[5.2823,49.5562]},"surface":725.62,"population":46,"departement":{"code":"08","nom":"Ardennes"},"region":{"code":"44","nom":"Grand Est"}},{"nom":"Bignicourt","code":"08066","codesPostaux":["08310"],"centre":{"type":"Point","coordinates":[4.4212,49.3902]},"surface":870.95,"population":67,"departement":{"code":"08","nom":"Ardennes"},"region":{"code":"44","nom":"Grand Est"}},{"nom":"Blagny","code":"08067","codesPostaux":["08110"],"centre":{"type":"Point","coordinates":[5.1989,49.6232]},"surface":739.45,"population":1097,"departement":{"code":"08","nom":"Ardennes"},"region":{"code":"44","nom":"Grand Est"}},{"nom":"Blanchefosse-et-Bay","code":"08069","codesPostaux":["08290"],"centre":{"type":"Point","coordinates":[4.2479,49.7627]},"surface":2040.63,"population":140,"departement":{"code":"08","nom":"Ardennes"},"region":{"code":"44","nom":"Grand Est"}},{"nom":"Blanzy-la-Salonnaise","code":"08070","codesPostaux":["08190"],"centre":{"type":"Point","coordinates":[4.1861,49.4851]},"surface":1221.65,"population":383,"departement":{"code":"08","nom":"Ardennes"},"region":{"code":"44","nom":"Grand Est"}},{"nom":"Blombay","code":"08071","codesPostaux":["08260"],"centre":{"type":"Point","coordinates":[4.4565,49.8166]},"surface":944.14,"population":133,"departement":{"code":"08","nom":"Ardennes"},"region":{"code":"44","nom":"Grand Est"}},{"nom":"Bossus-lès-Rumigny","code":"08073","codesPostaux":["08290"],"centre":{"type":"Point","coordinates":[4.2556,49.841]},"surface":815.19,"population":94,"departement":{"code":"08","nom":"Ardennes"},"region":{"code":"44","nom":"Grand Est"}},{"nom":"Bouconville","code":"08074","codesPostaux":["08250"],"centre":{"type":"Point","coordinates":[4.7707,49.2617]},"surface":1540.23,"population":57,"departement":{"code":"08","nom":"Ardennes"},"region":{"code":"44","nom":"Grand Est"}},{"nom":"Boult-aux-Bois","code":"08075","codesPostaux":["08240"],"centre":{"type":"Point","coordinates":[4.8365,49.4171]},"surface":1516.49,"population":144,"departement":{"code":"08","nom":"Ardennes"},"region":{"code":"44","nom":"Grand Est"}},{"nom":"Boulzicourt","code":"08076","codesPostaux":["08410"],"centre":{"type":"Point","coordinates":[4.6988,49.6905]},"surface":663.79,"population":976,"departement":{"code":"08","nom":"Ardennes"},"region":{"code":"44","nom":"Grand Est"}},{"nom":"Bourcq","code":"08077","codesPostaux":["08400"],"centre":{"type":"Point","coordinates":[4.617,49.3852]},"surface":990.73,"population":53,"departement":{"code":"08","nom":"Ardennes"},"region":{"code":"44","nom":"Grand Est"}},{"nom":"Bourg-Fidèle","code":"08078","codesPostaux":["08230"],"centre":{"type":"Point","coordinates":[4.553,49.892]},"surface":1476.79,"population":837,"departement":{"code":"08","nom":"Ardennes"},"region":{"code":"44","nom":"Grand Est"}},{"nom":"Bouvellemont","code":"08080","codesPostaux":["08430"],"centre":{"type":"Point","coordinates":[4.664,49.5844]},"surface":433.98,"population":122,"departement":{"code":"08","nom":"Ardennes"},"region":{"code":"44","nom":"Grand Est"}},{"nom":"Bogny-sur-Meuse","code":"08081","codesPostaux":["08120"],"centre":{"type":"Point","coordinates":[4.7561,49.8472]},"surface":2321.31,"population":5006,"departement":{"code":"08","nom":"Ardennes"},"region":{"code":"44","nom":"Grand Est"}},{"nom":"Brécy-Brières","code":"08082","codesPostaux":["08400"],"centre":{"type":"Point","coordinates":[4.7585,49.3358]},"surface":874.62,"population":78,"departement":{"code":"08","nom":"Ardennes"},"region":{"code":"44","nom":"Grand Est"}},{"nom":"Brévilly","code":"08083","codesPostaux":["08140"],"centre":{"type":"Point","coordinates":[5.0812,49.6597]},"surface":721.2,"population":363,"departement":{"code":"08","nom":"Ardennes"},"region":{"code":"44","nom":"Grand Est"}},{"nom":"Brienne-sur-Aisne","code":"08084","codesPostaux":["08190"],"centre":{"type":"Point","coordinates":[4.062,49.4246]},"surface":1216.57,"population":275,"departement":{"code":"08","nom":"Ardennes"},"region":{"code":"44","nom":"Grand Est"}},{"nom":"Brieulles-sur-Bar","code":"08085","codesPostaux":["08240"],"centre":{"type":"Point","coordinates":[4.865,49.4802]},"surface":1314.26,"population":225,"departement":{"code":"08","nom":"Ardennes"},"region":{"code":"44","nom":"Grand Est"}},{"nom":"Briquenay","code":"08086","codesPostaux":["08240"],"centre":{"type":"Point","coordinates":[4.8699,49.4029]},"surface":1451.16,"population":88,"departement":{"code":"08","nom":"Ardennes"},"region":{"code":"44","nom":"Grand Est"}},{"nom":"Brognon","code":"08087","codesPostaux":["08380"],"centre":{"type":"Point","coordinates":[4.2805,49.9336]},"surface":744.49,"population":135,"departement":{"code":"08","nom":"Ardennes"},"region":{"code":"44","nom":"Grand Est"}},{"nom":"Bulson","code":"08088","codesPostaux":["08450"],"centre":{"type":"Point","coordinates":[4.9133,49.6276]},"surface":644.67,"population":135,"departement":{"code":"08","nom":"Ardennes"},"region":{"code":"44","nom":"Grand Est"}},{"nom":"Buzancy","code":"08089","codesPostaux":["08240"],"centre":{"type":"Point","coordinates":[4.9689,49.4174]},"surface":2276.24,"population":380,"departement":{"code":"08","nom":"Ardennes"},"region":{"code":"44","nom":"Grand Est"}},{"nom":"Carignan","code":"08090","codesPostaux":["08110"],"centre":{"type":"Point","coordinates":[5.1739,49.6389]},"surface":1410.03,"population":2810,"departement":{"code":"08","nom":"Ardennes"},"region":{"code":"44","nom":"Grand Est"}},{"nom":"Cauroy","code":"08092","codesPostaux":["08310"],"centre":{"type":"Point","coordinates":[4.4566,49.3486]},"surface":1749.16,"population":188,"departement":{"code":"08","nom":"Ardennes"},"region":{"code":"44","nom":"Grand Est"}},{"nom":"Cernion","code":"08094","codesPostaux":["08260"],"centre":{"type":"Point","coordinates":[4.4265,49.8002]},"surface":665.82,"population":55,"departement":{"code":"08","nom":"Ardennes"},"region":{"code":"44","nom":"Grand Est"}},{"nom":"Chagny","code":"08095","codesPostaux":["08430"],"centre":{"type":"Point","coordinates":[4.6999,49.5707]},"surface":1341.49,"population":175,"departement":{"code":"08","nom":"Ardennes"},"region":{"code":"44","nom":"Grand Est"}},{"nom":"Chalandry-Elaire","code":"08096","codesPostaux":["08160"],"centre":{"type":"Point","coordinates":[4.7571,49.7092]},"surface":516.72,"population":718,"departement":{"code":"08","nom":"Ardennes"},"region":{"code":"44","nom":"Grand Est"}},{"nom":"Challerange","code":"08097","codesPostaux":["08400"],"centre":{"type":"Point","coordinates":[4.7441,49.3085]},"surface":1104.48,"population":430,"departement":{"code":"08","nom":"Ardennes"},"region":{"code":"44","nom":"Grand Est"}},{"nom":"Champigneulle","code":"08098","codesPostaux":["08250"],"centre":{"type":"Point","coordinates":[4.9319,49.3504]},"surface":770.44,"population":54,"departement":{"code":"08","nom":"Ardennes"},"region":{"code":"44","nom":"Grand Est"}},{"nom":"Champigneul-sur-Vence","code":"08099","codesPostaux":["08430"],"centre":{"type":"Point","coordinates":[4.6683,49.7027]},"surface":450.95,"population":122,"departement":{"code":"08","nom":"Ardennes"},"region":{"code":"44","nom":"Grand Est"}},{"nom":"Champlin","code":"08100","codesPostaux":["08260"],"centre":{"type":"Point","coordinates":[4.3262,49.834]},"surface":596.47,"population":72,"departement":{"code":"08","nom":"Ardennes"},"region":{"code":"44","nom":"Grand Est"}},{"nom":"La Chapelle","code":"08101","codesPostaux":["08200"],"centre":{"type":"Point","coordinates":[5.025,49.7547]},"surface":755.09,"population":165,"departement":{"code":"08","nom":"Ardennes"},"region":{"code":"44","nom":"Grand Est"}},{"nom":"Chappes","code":"08102","codesPostaux":["08220"],"centre":{"type":"Point","coordinates":[4.283,49.6113]},"surface":967.13,"population":85,"departement":{"code":"08","nom":"Ardennes"},"region":{"code":"44","nom":"Grand Est"}},{"nom":"Charbogne","code":"08103","codesPostaux":["08130"],"centre":{"type":"Point","coordinates":[4.5903,49.5078]},"surface":904.81,"population":220,"departement":{"code":"08","nom":"Ardennes"},"region":{"code":"44","nom":"Grand Est"}},{"nom":"Chardeny","code":"08104","codesPostaux":["08400"],"centre":{"type":"Point","coordinates":[4.5913,49.4204]},"surface":498.87,"population":59,"departement":{"code":"08","nom":"Ardennes"},"region":{"code":"44","nom":"Grand Est"}},{"nom":"Charleville-Mézières","code":"08105","codesPostaux":["08000"],"centre":{"type":"Point","coordinates":[4.7304,49.7802]},"surface":3165.66,"population":46398,"departement":{"code":"08","nom":"Ardennes"},"region":{"code":"44","nom":"Grand Est"}},{"nom":"Charnois","code":"08106","codesPostaux":["08600"],"centre":{"type":"Point","coordinates":[4.8291,50.0986]},"surface":561.21,"population":71,"departement":{"code":"08","nom":"Ardennes"},"region":{"code":"44","nom":"Grand Est"}},{"nom":"Château-Porcien","code":"08107","codesPostaux":["08360"],"centre":{"type":"Point","coordinates":[4.2482,49.5324]},"surface":1732.74,"population":1308,"departement":{"code":"08","nom":"Ardennes"},"region":{"code":"44","nom":"Grand Est"}},{"nom":"Chatel-Chéhéry","code":"08109","codesPostaux":["08250"],"centre":{"type":"Point","coordinates":[4.9542,49.2807]},"surface":1608.83,"population":137,"departement":{"code":"08","nom":"Ardennes"},"region":{"code":"44","nom":"Grand Est"}},{"nom":"Le Châtelet-sur-Sormonne","code":"08110","codesPostaux":["08150"],"centre":{"type":"Point","coordinates":[4.5175,49.84]},"surface":984.39,"population":170,"departement":{"code":"08","nom":"Ardennes"},"region":{"code":"44","nom":"Grand Est"}},{"nom":"Le Châtelet-sur-Retourne","code":"08111","codesPostaux":["08300"],"centre":{"type":"Point","coordinates":[4.2774,49.4113]},"surface":982.84,"population":774,"departement":{"code":"08","nom":"Ardennes"},"region":{"code":"44","nom":"Grand Est"}},{"nom":"Chaumont-Porcien","code":"08113","codesPostaux":["08220"],"centre":{"type":"Point","coordinates":[4.2355,49.6458]},"surface":3601.86,"population":509,"departement":{"code":"08","nom":"Ardennes"},"region":{"code":"44","nom":"Grand Est"}},{"nom":"Chémery-Chéhéry","code":"08115","codesPostaux":["08350","08450"],"centre":{"type":"Point","coordinates":[4.8699,49.6145]},"surface":2786.71,"population":523,"departement":{"code":"08","nom":"Ardennes"},"region":{"code":"44","nom":"Grand Est"}},{"nom":"Bairon et ses environs","code":"08116","codesPostaux":["08390","08400"],"centre":{"type":"Point","coordinates":[4.7594,49.5146]},"surface":4507.79,"population":1022,"departement":{"code":"08","nom":"Ardennes"},"region":{"code":"44","nom":"Grand Est"}},{"nom":"Chesnois-Auboncourt","code":"08117","codesPostaux":["08270"],"centre":{"type":"Point","coordinates":[4.5633,49.5621]},"surface":479.17,"population":161,"departement":{"code":"08","nom":"Ardennes"},"region":{"code":"44","nom":"Grand Est"}},{"nom":"Cheveuges","code":"08119","codesPostaux":["08350"],"centre":{"type":"Point","coordinates":[4.8869,49.6581]},"surface":892.21,"population":466,"departement":{"code":"08","nom":"Ardennes"},"region":{"code":"44","nom":"Grand Est"}},{"nom":"Chevières","code":"08120","codesPostaux":["08250"],"centre":{"type":"Point","coordinates":[4.8926,49.3206]},"surface":616.15,"population":45,"departement":{"code":"08","nom":"Ardennes"},"region":{"code":"44","nom":"Grand Est"}},{"nom":"Chilly","code":"08121","codesPostaux":["08260"],"centre":{"type":"Point","coordinates":[4.4713,49.8417]},"surface":588.36,"population":133,"departement":{"code":"08","nom":"Ardennes"},"region":{"code":"44","nom":"Grand Est"}},{"nom":"Chooz","code":"08122","codesPostaux":["08600"],"centre":{"type":"Point","coordinates":[4.7996,50.0924]},"surface":1324.26,"population":758,"departement":{"code":"08","nom":"Ardennes"},"region":{"code":"44","nom":"Grand Est"}},{"nom":"Chuffilly-Roche","code":"08123","codesPostaux":["08130"],"centre":{"type":"Point","coordinates":[4.6171,49.4524]},"surface":770.36,"population":67,"departement":{"code":"08","nom":"Ardennes"},"region":{"code":"44","nom":"Grand Est"}},{"nom":"Clavy-Warby","code":"08124","codesPostaux":["08460"],"centre":{"type":"Point","coordinates":[4.5503,49.7431]},"surface":1181.78,"population":343,"departement":{"code":"08","nom":"Ardennes"},"region":{"code":"44","nom":"Grand Est"}},{"nom":"Cliron","code":"08125","codesPostaux":["08090"],"centre":{"type":"Point","coordinates":[4.6195,49.8079]},"surface":620.31,"population":414,"departement":{"code":"08","nom":"Ardennes"},"region":{"code":"44","nom":"Grand Est"}},{"nom":"Condé-lès-Herpy","code":"08126","codesPostaux":["08360"],"centre":{"type":"Point","coordinates":[4.1929,49.5387]},"surface":1160.27,"population":221,"departement":{"code":"08","nom":"Ardennes"},"region":{"code":"44","nom":"Grand Est"}},{"nom":"Condé-lès-Autry","code":"08128","codesPostaux":["08250"],"centre":{"type":"Point","coordinates":[4.8546,49.2454]},"surface":796.58,"population":64,"departement":{"code":"08","nom":"Ardennes"},"region":{"code":"44","nom":"Grand Est"}},{"nom":"Contreuve","code":"08130","codesPostaux":["08400"],"centre":{"type":"Point","coordinates":[4.6165,49.3591]},"surface":1105.09,"population":84,"departement":{"code":"08","nom":"Ardennes"},"region":{"code":"44","nom":"Grand Est"}},{"nom":"Cornay","code":"08131","codesPostaux":["08250"],"centre":{"type":"Point","coordinates":[4.9339,49.3012]},"surface":1100.8,"population":67,"departement":{"code":"08","nom":"Ardennes"},"region":{"code":"44","nom":"Grand Est"}},{"nom":"Corny-Machéroménil","code":"08132","codesPostaux":["08270"],"centre":{"type":"Point","coordinates":[4.4482,49.5828]},"surface":1050.24,"population":192,"departement":{"code":"08","nom":"Ardennes"},"region":{"code":"44","nom":"Grand Est"}},{"nom":"Coucy","code":"08133","codesPostaux":["08300"],"centre":{"type":"Point","coordinates":[4.4604,49.5095]},"surface":642.63,"population":521,"departement":{"code":"08","nom":"Ardennes"},"region":{"code":"44","nom":"Grand Est"}},{"nom":"Coulommes-et-Marqueny","code":"08134","codesPostaux":["08130"],"centre":{"type":"Point","coordinates":[4.5752,49.4286]},"surface":1202.82,"population":74,"departement":{"code":"08","nom":"Ardennes"},"region":{"code":"44","nom":"Grand Est"}},{"nom":"La Croix-aux-Bois","code":"08135","codesPostaux":["08400"],"centre":{"type":"Point","coordinates":[4.7899,49.4061]},"surface":587.05,"population":154,"departement":{"code":"08","nom":"Ardennes"},"region":{"code":"44","nom":"Grand Est"}},{"nom":"Daigny","code":"08136","codesPostaux":["08140"],"centre":{"type":"Point","coordinates":[5.002,49.7045]},"surface":279.81,"population":357,"departement":{"code":"08","nom":"Ardennes"},"region":{"code":"44","nom":"Grand Est"}},{"nom":"Damouzy","code":"08137","codesPostaux":["08090"],"centre":{"type":"Point","coordinates":[4.6819,49.8132]},"surface":884.38,"population":438,"departement":{"code":"08","nom":"Ardennes"},"region":{"code":"44","nom":"Grand Est"}},{"nom":"Les Deux-Villes","code":"08138","codesPostaux":["08110"],"centre":{"type":"Point","coordinates":[5.2306,49.6568]},"surface":818.17,"population":251,"departement":{"code":"08","nom":"Ardennes"},"region":{"code":"44","nom":"Grand Est"}},{"nom":"Deville","code":"08139","codesPostaux":["08800"],"centre":{"type":"Point","coordinates":[4.6943,49.8754]},"surface":783.19,"population":1044,"departement":{"code":"08","nom":"Ardennes"},"region":{"code":"44","nom":"Grand Est"}},{"nom":"Dom-le-Mesnil","code":"08140","codesPostaux":["08160"],"centre":{"type":"Point","coordinates":[4.8125,49.684]},"surface":790.18,"population":1057,"departement":{"code":"08","nom":"Ardennes"},"region":{"code":"44","nom":"Grand Est"}},{"nom":"Dommery","code":"08141","codesPostaux":["08460"],"centre":{"type":"Point","coordinates":[4.4818,49.681]},"surface":1064.56,"population":185,"departement":{"code":"08","nom":"Ardennes"},"region":{"code":"44","nom":"Grand Est"}},{"nom":"Donchery","code":"08142","codesPostaux":["08350"],"centre":{"type":"Point","coordinates":[4.8886,49.732]},"surface":2734.04,"population":1989,"departement":{"code":"08","nom":"Ardennes"},"region":{"code":"44","nom":"Grand Est"}},{"nom":"Doumely-Bégny","code":"08143","codesPostaux":["08220"],"centre":{"type":"Point","coordinates":[4.3072,49.6337]},"surface":779.57,"population":73,"departement":{"code":"08","nom":"Ardennes"},"region":{"code":"44","nom":"Grand Est"}},{"nom":"Doux","code":"08144","codesPostaux":["08300"],"centre":{"type":"Point","coordinates":[4.4294,49.5189]},"surface":652,"population":103,"departement":{"code":"08","nom":"Ardennes"},"region":{"code":"44","nom":"Grand Est"}},{"nom":"Douzy","code":"08145","codesPostaux":["08140"],"centre":{"type":"Point","coordinates":[5.0457,49.6661]},"surface":2017.24,"population":2166,"departement":{"code":"08","nom":"Ardennes"},"region":{"code":"44","nom":"Grand Est"}},{"nom":"Draize","code":"08146","codesPostaux":["08220"],"centre":{"type":"Point","coordinates":[4.333,49.6509]},"surface":674.45,"population":90,"departement":{"code":"08","nom":"Ardennes"},"region":{"code":"44","nom":"Grand Est"}},{"nom":"Dricourt","code":"08147","codesPostaux":["08310"],"centre":{"type":"Point","coordinates":[4.5216,49.3941]},"surface":727.35,"population":76,"departement":{"code":"08","nom":"Ardennes"},"region":{"code":"44","nom":"Grand Est"}},{"nom":"L'Écaille","code":"08148","codesPostaux":["08300"],"centre":{"type":"Point","coordinates":[4.2098,49.4098]},"surface":911.34,"population":266,"departement":{"code":"08","nom":"Ardennes"},"region":{"code":"44","nom":"Grand Est"}},{"nom":"L'Échelle","code":"08149","codesPostaux":["08150"],"centre":{"type":"Point","coordinates":[4.4884,49.8038]},"surface":990.64,"population":138,"departement":{"code":"08","nom":"Ardennes"},"region":{"code":"44","nom":"Grand Est"}},{"nom":"Écly","code":"08150","codesPostaux":["08300"],"centre":{"type":"Point","coordinates":[4.2841,49.5529]},"surface":934.03,"population":167,"departement":{"code":"08","nom":"Ardennes"},"region":{"code":"44","nom":"Grand Est"}},{"nom":"Écordal","code":"08151","codesPostaux":["08130"],"centre":{"type":"Point","coordinates":[4.5883,49.5341]},"surface":1296.39,"population":294,"departement":{"code":"08","nom":"Ardennes"},"region":{"code":"44","nom":"Grand Est"}},{"nom":"Escombres-et-le-Chesnois","code":"08153","codesPostaux":["08110"],"centre":{"type":"Point","coordinates":[5.1268,49.6989]},"surface":831.05,"population":344,"departement":{"code":"08","nom":"Ardennes"},"region":{"code":"44","nom":"Grand Est"}},{"nom":"Estrebay","code":"08154","codesPostaux":["08260"],"centre":{"type":"Point","coordinates":[4.3459,49.8264]},"surface":935.73,"population":83,"departement":{"code":"08","nom":"Ardennes"},"region":{"code":"44","nom":"Grand Est"}},{"nom":"Étalle","code":"08155","codesPostaux":["08260"],"centre":{"type":"Point","coordinates":[4.4449,49.8526]},"surface":439.45,"population":98,"departement":{"code":"08","nom":"Ardennes"},"region":{"code":"44","nom":"Grand Est"}},{"nom":"Éteignières","code":"08156","codesPostaux":["08260"],"centre":{"type":"Point","coordinates":[4.4127,49.8954]},"surface":1179.31,"population":482,"departement":{"code":"08","nom":"Ardennes"},"region":{"code":"44","nom":"Grand Est"}},{"nom":"Étrépigny","code":"08158","codesPostaux":["08160"],"centre":{"type":"Point","coordinates":[4.748,49.6872]},"surface":419.99,"population":281,"departement":{"code":"08","nom":"Ardennes"},"region":{"code":"44","nom":"Grand Est"}},{"nom":"Euilly-et-Lombut","code":"08159","codesPostaux":["08210"],"centre":{"type":"Point","coordinates":[5.1151,49.6286]},"surface":1012.85,"population":110,"departement":{"code":"08","nom":"Ardennes"},"region":{"code":"44","nom":"Grand Est"}},{"nom":"Évigny","code":"08160","codesPostaux":["08090"],"centre":{"type":"Point","coordinates":[4.6736,49.7268]},"surface":437.66,"population":190,"departement":{"code":"08","nom":"Ardennes"},"region":{"code":"44","nom":"Grand Est"}},{"nom":"Exermont","code":"08161","codesPostaux":["08250"],"centre":{"type":"Point","coordinates":[5.0214,49.2978]},"surface":1822.09,"population":35,"departement":{"code":"08","nom":"Ardennes"},"region":{"code":"44","nom":"Grand Est"}},{"nom":"Fagnon","code":"08162","codesPostaux":["08090"],"centre":{"type":"Point","coordinates":[4.612,49.7305]},"surface":1013.48,"population":344,"departement":{"code":"08","nom":"Ardennes"},"region":{"code":"44","nom":"Grand Est"}},{"nom":"Faissault","code":"08163","codesPostaux":["08270"],"centre":{"type":"Point","coordinates":[4.5054,49.6107]},"surface":601.72,"population":259,"departement":{"code":"08","nom":"Ardennes"},"region":{"code":"44","nom":"Grand Est"}},{"nom":"Falaise","code":"08164","codesPostaux":["08400"],"centre":{"type":"Point","coordinates":[4.7441,49.3815]},"surface":949.24,"population":341,"departement":{"code":"08","nom":"Ardennes"},"region":{"code":"44","nom":"Grand Est"}},{"nom":"Faux","code":"08165","codesPostaux":["08270"],"centre":{"type":"Point","coordinates":[4.5063,49.5378]},"surface":327.01,"population":61,"departement":{"code":"08","nom":"Ardennes"},"region":{"code":"44","nom":"Grand Est"}},{"nom":"Fépin","code":"08166","codesPostaux":["08170"],"centre":{"type":"Point","coordinates":[4.7087,50.0228]},"surface":586.88,"population":247,"departement":{"code":"08","nom":"Ardennes"},"region":{"code":"44","nom":"Grand Est"}},{"nom":"La Férée","code":"08167","codesPostaux":["08290"],"centre":{"type":"Point","coordinates":[4.3037,49.7586]},"surface":1103.64,"population":72,"departement":{"code":"08","nom":"Ardennes"},"region":{"code":"44","nom":"Grand Est"}},{"nom":"La Ferté-sur-Chiers","code":"08168","codesPostaux":["08370"],"centre":{"type":"Point","coordinates":[5.233,49.5733]},"surface":657.52,"population":176,"departement":{"code":"08","nom":"Ardennes"},"region":{"code":"44","nom":"Grand Est"}},{"nom":"Flaignes-Havys","code":"08169","codesPostaux":["08260"],"centre":{"type":"Point","coordinates":[4.3993,49.825]},"surface":1376.66,"population":93,"departement":{"code":"08","nom":"Ardennes"},"region":{"code":"44","nom":"Grand Est"}},{"nom":"Fleigneux","code":"08170","codesPostaux":["08200"],"centre":{"type":"Point","coordinates":[4.9688,49.7685]},"surface":1375.17,"population":222,"departement":{"code":"08","nom":"Ardennes"},"region":{"code":"44","nom":"Grand Est"}},{"nom":"Fléville","code":"08171","codesPostaux":["08250"],"centre":{"type":"Point","coordinates":[4.9827,49.3081]},"surface":783.43,"population":93,"departement":{"code":"08","nom":"Ardennes"},"region":{"code":"44","nom":"Grand Est"}},{"nom":"Fligny","code":"08172","codesPostaux":["08380"],"centre":{"type":"Point","coordinates":[4.2699,49.884]},"surface":681.29,"population":166,"departement":{"code":"08","nom":"Ardennes"},"region":{"code":"44","nom":"Grand Est"}},{"nom":"Flize","code":"08173","codesPostaux":["08160"],"centre":{"type":"Point","coordinates":[4.7398,49.6718]},"surface":2592.18,"population":1695,"departement":{"code":"08","nom":"Ardennes"},"region":{"code":"44","nom":"Grand Est"}},{"nom":"Floing","code":"08174","codesPostaux":["08200"],"centre":{"type":"Point","coordinates":[4.937,49.7227]},"surface":740.32,"population":2285,"departement":{"code":"08","nom":"Ardennes"},"region":{"code":"44","nom":"Grand Est"}},{"nom":"Foisches","code":"08175","codesPostaux":["08600"],"centre":{"type":"Point","coordinates":[4.7756,50.1291]},"surface":462.69,"population":252,"departement":{"code":"08","nom":"Ardennes"},"region":{"code":"44","nom":"Grand Est"}},{"nom":"Fossé","code":"08176","codesPostaux":["08240"],"centre":{"type":"Point","coordinates":[5.0048,49.4481]},"surface":892.88,"population":58,"departement":{"code":"08","nom":"Ardennes"},"region":{"code":"44","nom":"Grand Est"}},{"nom":"Fraillicourt","code":"08178","codesPostaux":["08220"],"centre":{"type":"Point","coordinates":[4.1725,49.6661]},"surface":1439.64,"population":178,"departement":{"code":"08","nom":"Ardennes"},"region":{"code":"44","nom":"Grand Est"}},{"nom":"Francheval","code":"08179","codesPostaux":["08140"],"centre":{"type":"Point","coordinates":[5.0778,49.7231]},"surface":1974,"population":589,"departement":{"code":"08","nom":"Ardennes"},"region":{"code":"44","nom":"Grand Est"}},{"nom":"La Francheville","code":"08180","codesPostaux":["08000"],"centre":{"type":"Point","coordinates":[4.7035,49.7263]},"surface":663.74,"population":1657,"departement":{"code":"08","nom":"Ardennes"},"region":{"code":"44","nom":"Grand Est"}},{"nom":"Le Fréty","code":"08182","codesPostaux":["08290"],"centre":{"type":"Point","coordinates":[4.259,49.734]},"surface":719.22,"population":59,"departement":{"code":"08","nom":"Ardennes"},"region":{"code":"44","nom":"Grand Est"}},{"nom":"Fromelennes","code":"08183","codesPostaux":["08600"],"centre":{"type":"Point","coordinates":[4.8701,50.1138]},"surface":720.44,"population":1037,"departement":{"code":"08","nom":"Ardennes"},"region":{"code":"44","nom":"Grand Est"}},{"nom":"Fromy","code":"08184","codesPostaux":["08370"],"centre":{"type":"Point","coordinates":[5.2549,49.6027]},"surface":369.67,"population":85,"departement":{"code":"08","nom":"Ardennes"},"region":{"code":"44","nom":"Grand Est"}},{"nom":"Fumay","code":"08185","codesPostaux":["08170"],"centre":{"type":"Point","coordinates":[4.6612,49.9705]},"surface":3750.91,"population":3151,"departement":{"code":"08","nom":"Ardennes"},"region":{"code":"44","nom":"Grand Est"}},{"nom":"Germont","code":"08186","codesPostaux":["08240"],"centre":{"type":"Point","coordinates":[4.8778,49.4338]},"surface":488.97,"population":51,"departement":{"code":"08","nom":"Ardennes"},"region":{"code":"44","nom":"Grand Est"}},{"nom":"Gernelle","code":"08187","codesPostaux":["08440"],"centre":{"type":"Point","coordinates":[4.8215,49.7747]},"surface":481.76,"population":316,"departement":{"code":"08","nom":"Ardennes"},"region":{"code":"44","nom":"Grand Est"}},{"nom":"Gespunsart","code":"08188","codesPostaux":["08700"],"centre":{"type":"Point","coordinates":[4.8442,49.8158]},"surface":2105.91,"population":980,"departement":{"code":"08","nom":"Ardennes"},"region":{"code":"44","nom":"Grand Est"}},{"nom":"Girondelle","code":"08189","codesPostaux":["08260"],"centre":{"type":"Point","coordinates":[4.3842,49.8531]},"surface":1150.82,"population":161,"departement":{"code":"08","nom":"Ardennes"},"region":{"code":"44","nom":"Grand Est"}},{"nom":"Givet","code":"08190","codesPostaux":["08600"],"centre":{"type":"Point","coordinates":[4.8374,50.1473]},"surface":1837.88,"population":6347,"departement":{"code":"08","nom":"Ardennes"},"region":{"code":"44","nom":"Grand Est"}},{"nom":"Givonne","code":"08191","codesPostaux":["08200"],"centre":{"type":"Point","coordinates":[5.0021,49.7315]},"surface":1400.6,"population":1056,"departement":{"code":"08","nom":"Ardennes"},"region":{"code":"44","nom":"Grand Est"}},{"nom":"Givron","code":"08192","codesPostaux":["08220"],"centre":{"type":"Point","coordinates":[4.2961,49.6546]},"surface":719.18,"population":91,"departement":{"code":"08","nom":"Ardennes"},"region":{"code":"44","nom":"Grand Est"}},{"nom":"Givry","code":"08193","codesPostaux":["08130"],"centre":{"type":"Point","coordinates":[4.5344,49.4883]},"surface":1188.62,"population":266,"departement":{"code":"08","nom":"Ardennes"},"region":{"code":"44","nom":"Grand Est"}},{"nom":"Glaire","code":"08194","codesPostaux":["08200"],"centre":{"type":"Point","coordinates":[4.9091,49.717]},"surface":652.79,"population":826,"departement":{"code":"08","nom":"Ardennes"},"region":{"code":"44","nom":"Grand Est"}},{"nom":"Gomont","code":"08195","codesPostaux":["08190"],"centre":{"type":"Point","coordinates":[4.1703,49.5127]},"surface":718.03,"population":322,"departement":{"code":"08","nom":"Ardennes"},"region":{"code":"44","nom":"Grand Est"}},{"nom":"Grandchamp","code":"08196","codesPostaux":["08270"],"centre":{"type":"Point","coordinates":[4.4061,49.6518]},"surface":732.92,"population":94,"departement":{"code":"08","nom":"Ardennes"},"region":{"code":"44","nom":"Grand Est"}},{"nom":"Grandham","code":"08197","codesPostaux":["08250"],"centre":{"type":"Point","coordinates":[4.8539,49.2912]},"surface":607.94,"population":37,"departement":{"code":"08","nom":"Ardennes"},"region":{"code":"44","nom":"Grand Est"}},{"nom":"Grandpré","code":"08198","codesPostaux":["08250"],"centre":{"type":"Point","coordinates":[4.8568,49.3532]},"surface":4232.05,"population":508,"departement":{"code":"08","nom":"Ardennes"},"region":{"code":"44","nom":"Grand Est"}},{"nom":"La Grandville","code":"08199","codesPostaux":["08700"],"centre":{"type":"Point","coordinates":[4.8056,49.7851]},"surface":997.74,"population":778,"departement":{"code":"08","nom":"Ardennes"},"region":{"code":"44","nom":"Grand Est"}},{"nom":"Grivy-Loisy","code":"08200","codesPostaux":["08400"],"centre":{"type":"Point","coordinates":[4.6412,49.4292]},"surface":1158,"population":181,"departement":{"code":"08","nom":"Ardennes"},"region":{"code":"44","nom":"Grand Est"}},{"nom":"Gruyères","code":"08201","codesPostaux":["08430"],"centre":{"type":"Point","coordinates":[4.6006,49.7099]},"surface":542.15,"population":103,"departement":{"code":"08","nom":"Ardennes"},"region":{"code":"44","nom":"Grand Est"}},{"nom":"Gué-d'Hossus","code":"08202","codesPostaux":["08230"],"centre":{"type":"Point","coordinates":[4.5416,49.9559]},"surface":522.52,"population":509,"departement":{"code":"08","nom":"Ardennes"},"region":{"code":"44","nom":"Grand Est"}},{"nom":"Guignicourt-sur-Vence","code":"08203","codesPostaux":["08430"],"centre":{"type":"Point","coordinates":[4.6319,49.6879]},"surface":951.28,"population":271,"departement":{"code":"08","nom":"Ardennes"},"region":{"code":"44","nom":"Grand Est"}},{"nom":"Guincourt","code":"08204","codesPostaux":["08130"],"centre":{"type":"Point","coordinates":[4.6302,49.5576]},"surface":533.46,"population":76,"departement":{"code":"08","nom":"Ardennes"},"region":{"code":"44","nom":"Grand Est"}},{"nom":"Hagnicourt","code":"08205","codesPostaux":["08430"],"centre":{"type":"Point","coordinates":[4.5808,49.6124]},"surface":568.77,"population":69,"departement":{"code":"08","nom":"Ardennes"},"region":{"code":"44","nom":"Grand Est"}},{"nom":"Ham-les-Moines","code":"08206","codesPostaux":["08090"],"centre":{"type":"Point","coordinates":[4.5882,49.7943]},"surface":310.98,"population":364,"departement":{"code":"08","nom":"Ardennes"},"region":{"code":"44","nom":"Grand Est"}},{"nom":"Ham-sur-Meuse","code":"08207","codesPostaux":["08600"],"centre":{"type":"Point","coordinates":[4.7836,50.0867]},"surface":612.64,"population":227,"departement":{"code":"08","nom":"Ardennes"},"region":{"code":"44","nom":"Grand Est"}},{"nom":"Hannappes","code":"08208","codesPostaux":["08290"],"centre":{"type":"Point","coordinates":[4.237,49.8149]},"surface":843.39,"population":132,"departement":{"code":"08","nom":"Ardennes"},"region":{"code":"44","nom":"Grand Est"}},{"nom":"Hannogne-Saint-Martin","code":"08209","codesPostaux":["08160"],"centre":{"type":"Point","coordinates":[4.8258,49.6716]},"surface":471.11,"population":451,"departement":{"code":"08","nom":"Ardennes"},"region":{"code":"44","nom":"Grand Est"}},{"nom":"Hannogne-Saint-Rémy","code":"08210","codesPostaux":["08220"],"centre":{"type":"Point","coordinates":[4.1421,49.6053]},"surface":1809.08,"population":112,"departement":{"code":"08","nom":"Ardennes"},"region":{"code":"44","nom":"Grand Est"}},{"nom":"Haraucourt","code":"08211","codesPostaux":["08450"],"centre":{"type":"Point","coordinates":[4.9546,49.6254]},"surface":1163.72,"population":713,"departement":{"code":"08","nom":"Ardennes"},"region":{"code":"44","nom":"Grand Est"}},{"nom":"Harcy","code":"08212","codesPostaux":["08150"],"centre":{"type":"Point","coordinates":[4.5569,49.8475]},"surface":1914.73,"population":503,"departement":{"code":"08","nom":"Ardennes"},"region":{"code":"44","nom":"Grand Est"}},{"nom":"Hargnies","code":"08214","codesPostaux":["08170"],"centre":{"type":"Point","coordinates":[4.7957,50.0017]},"surface":4271.36,"population":471,"departement":{"code":"08","nom":"Ardennes"},"region":{"code":"44","nom":"Grand Est"}},{"nom":"Harricourt","code":"08215","codesPostaux":["08240"],"centre":{"type":"Point","coordinates":[4.9248,49.4389]},"surface":796.31,"population":45,"departement":{"code":"08","nom":"Ardennes"},"region":{"code":"44","nom":"Grand Est"}},{"nom":"Haudrecy","code":"08216","codesPostaux":["08090"],"centre":{"type":"Point","coordinates":[4.6124,49.7835]},"surface":331.67,"population":322,"departement":{"code":"08","nom":"Ardennes"},"region":{"code":"44","nom":"Grand Est"}},{"nom":"Haulmé","code":"08217","codesPostaux":["08800"],"centre":{"type":"Point","coordinates":[4.7928,49.8583]},"surface":364.01,"population":87,"departement":{"code":"08","nom":"Ardennes"},"region":{"code":"44","nom":"Grand Est"}},{"nom":"Les Hautes-Rivières","code":"08218","codesPostaux":["08800"],"centre":{"type":"Point","coordinates":[4.8481,49.9011]},"surface":3117.08,"population":1318,"departement":{"code":"08","nom":"Ardennes"},"region":{"code":"44","nom":"Grand Est"}},{"nom":"Hauteville","code":"08219","codesPostaux":["08300"],"centre":{"type":"Point","coordinates":[4.2959,49.5836]},"surface":556.73,"population":122,"departement":{"code":"08","nom":"Ardennes"},"region":{"code":"44","nom":"Grand Est"}},{"nom":"Hauviné","code":"08220","codesPostaux":["08310"],"centre":{"type":"Point","coordinates":[4.4164,49.3126]},"surface":1460,"population":329,"departement":{"code":"08","nom":"Ardennes"},"region":{"code":"44","nom":"Grand Est"}},{"nom":"Haybes","code":"08222","codesPostaux":["08170"],"centre":{"type":"Point","coordinates":[4.7279,49.994]},"surface":2820.25,"population":1819,"departement":{"code":"08","nom":"Ardennes"},"region":{"code":"44","nom":"Grand Est"}},{"nom":"Herbeuval","code":"08223","codesPostaux":["08370"],"centre":{"type":"Point","coordinates":[5.3544,49.6015]},"surface":733.03,"population":123,"departement":{"code":"08","nom":"Ardennes"},"region":{"code":"44","nom":"Grand Est"}},{"nom":"Herpy-l'Arlésienne","code":"08225","codesPostaux":["08360"],"centre":{"type":"Point","coordinates":[4.1855,49.5243]},"surface":1062.27,"population":209,"departement":{"code":"08","nom":"Ardennes"},"region":{"code":"44","nom":"Grand Est"}},{"nom":"Hierges","code":"08226","codesPostaux":["08320"],"centre":{"type":"Point","coordinates":[4.735,50.0998]},"surface":409.39,"population":165,"departement":{"code":"08","nom":"Ardennes"},"region":{"code":"44","nom":"Grand Est"}},{"nom":"La Horgne","code":"08228","codesPostaux":["08430"],"centre":{"type":"Point","coordinates":[4.6747,49.6248]},"surface":532.49,"population":156,"departement":{"code":"08","nom":"Ardennes"},"region":{"code":"44","nom":"Grand Est"}},{"nom":"Houdilcourt","code":"08229","codesPostaux":["08190"],"centre":{"type":"Point","coordinates":[4.1255,49.4239]},"surface":1126.63,"population":137,"departement":{"code":"08","nom":"Ardennes"},"region":{"code":"44","nom":"Grand Est"}},{"nom":"Houldizy","code":"08230","codesPostaux":["08090"],"centre":{"type":"Point","coordinates":[4.6721,49.8123]},"surface":460.62,"population":395,"departement":{"code":"08","nom":"Ardennes"},"region":{"code":"44","nom":"Grand Est"}},{"nom":"Illy","code":"08232","codesPostaux":["08200"],"centre":{"type":"Point","coordinates":[4.9788,49.7581]},"surface":1556.69,"population":415,"departement":{"code":"08","nom":"Ardennes"},"region":{"code":"44","nom":"Grand Est"}},{"nom":"Imécourt","code":"08233","codesPostaux":["08240"],"centre":{"type":"Point","coordinates":[4.9752,49.3724]},"surface":852.94,"population":44,"departement":{"code":"08","nom":"Ardennes"},"region":{"code":"44","nom":"Grand Est"}},{"nom":"Inaumont","code":"08234","codesPostaux":["08300"],"centre":{"type":"Point","coordinates":[4.3219,49.5617]},"surface":472.17,"population":125,"departement":{"code":"08","nom":"Ardennes"},"region":{"code":"44","nom":"Grand Est"}},{"nom":"Issancourt-et-Rumel","code":"08235","codesPostaux":["08440"],"centre":{"type":"Point","coordinates":[4.8281,49.758]},"surface":546.58,"population":391,"departement":{"code":"08","nom":"Ardennes"},"region":{"code":"44","nom":"Grand Est"}},{"nom":"Jandun","code":"08236","codesPostaux":["08430"],"centre":{"type":"Point","coordinates":[4.5626,49.6736]},"surface":1262.38,"population":302,"departement":{"code":"08","nom":"Ardennes"},"region":{"code":"44","nom":"Grand Est"}},{"nom":"Joigny-sur-Meuse","code":"08237","codesPostaux":["08700"],"centre":{"type":"Point","coordinates":[4.765,49.8325]},"surface":388.93,"population":637,"departement":{"code":"08","nom":"Ardennes"},"region":{"code":"44","nom":"Grand Est"}},{"nom":"Jonval","code":"08238","codesPostaux":["08130"],"centre":{"type":"Point","coordinates":[4.6629,49.5685]},"surface":251.61,"population":93,"departement":{"code":"08","nom":"Ardennes"},"region":{"code":"44","nom":"Grand Est"}},{"nom":"Juniville","code":"08239","codesPostaux":["08310"],"centre":{"type":"Point","coordinates":[4.378,49.4007]},"surface":2608.69,"population":1239,"departement":{"code":"08","nom":"Ardennes"},"region":{"code":"44","nom":"Grand Est"}},{"nom":"Justine-Herbigny","code":"08240","codesPostaux":["08270"],"centre":{"type":"Point","coordinates":[4.3272,49.6034]},"surface":1185.73,"population":165,"departement":{"code":"08","nom":"Ardennes"},"region":{"code":"44","nom":"Grand Est"}},{"nom":"Laifour","code":"08242","codesPostaux":["08800"],"centre":{"type":"Point","coordinates":[4.6917,49.903]},"surface":317.23,"population":416,"departement":{"code":"08","nom":"Ardennes"},"region":{"code":"44","nom":"Grand Est"}},{"nom":"Lalobbe","code":"08243","codesPostaux":["08460"],"centre":{"type":"Point","coordinates":[4.3678,49.6704]},"surface":983.71,"population":163,"departement":{"code":"08","nom":"Ardennes"},"region":{"code":"44","nom":"Grand Est"}},{"nom":"Lametz","code":"08244","codesPostaux":["08130"],"centre":{"type":"Point","coordinates":[4.6927,49.5243]},"surface":926.2,"population":75,"departement":{"code":"08","nom":"Ardennes"},"region":{"code":"44","nom":"Grand Est"}},{"nom":"Lançon","code":"08245","codesPostaux":["08250"],"centre":{"type":"Point","coordinates":[4.8881,49.2765]},"surface":822.29,"population":31,"departement":{"code":"08","nom":"Ardennes"},"region":{"code":"44","nom":"Grand Est"}},{"nom":"Landres-et-Saint-Georges","code":"08246","codesPostaux":["08240"],"centre":{"type":"Point","coordinates":[5.01,49.3504]},"surface":2046.69,"population":70,"departement":{"code":"08","nom":"Ardennes"},"region":{"code":"44","nom":"Grand Est"}},{"nom":"Landrichamps","code":"08247","codesPostaux":["08600"],"centre":{"type":"Point","coordinates":[4.8283,50.08]},"surface":475.25,"population":132,"departement":{"code":"08","nom":"Ardennes"},"region":{"code":"44","nom":"Grand Est"}},{"nom":"Launois-sur-Vence","code":"08248","codesPostaux":["08430"],"centre":{"type":"Point","coordinates":[4.526,49.6664]},"surface":1370.16,"population":683,"departement":{"code":"08","nom":"Ardennes"},"region":{"code":"44","nom":"Grand Est"}},{"nom":"Laval-Morency","code":"08249","codesPostaux":["08150"],"centre":{"type":"Point","coordinates":[4.4938,49.8332]},"surface":435.48,"population":235,"departement":{"code":"08","nom":"Ardennes"},"region":{"code":"44","nom":"Grand Est"}},{"nom":"Leffincourt","code":"08250","codesPostaux":["08310"],"centre":{"type":"Point","coordinates":[4.5495,49.385]},"surface":1783.33,"population":189,"departement":{"code":"08","nom":"Ardennes"},"region":{"code":"44","nom":"Grand Est"}},{"nom":"Lépron-les-Vallées","code":"08251","codesPostaux":["08150"],"centre":{"type":"Point","coordinates":[4.4573,49.7483]},"surface":656.15,"population":69,"departement":{"code":"08","nom":"Ardennes"},"region":{"code":"44","nom":"Grand Est"}},{"nom":"Létanne","code":"08252","codesPostaux":["08210"],"centre":{"type":"Point","coordinates":[5.0777,49.5418]},"surface":753.48,"population":111,"departement":{"code":"08","nom":"Ardennes"},"region":{"code":"44","nom":"Grand Est"}},{"nom":"Liart","code":"08254","codesPostaux":["08290"],"centre":{"type":"Point","coordinates":[4.3426,49.7608]},"surface":1348.58,"population":607,"departement":{"code":"08","nom":"Ardennes"},"region":{"code":"44","nom":"Grand Est"}},{"nom":"Linay","code":"08255","codesPostaux":["08110"],"centre":{"type":"Point","coordinates":[5.2305,49.6172]},"surface":734.85,"population":221,"departement":{"code":"08","nom":"Ardennes"},"region":{"code":"44","nom":"Grand Est"}},{"nom":"Liry","code":"08256","codesPostaux":["08400"],"centre":{"type":"Point","coordinates":[4.642,49.3071]},"surface":1275.2,"population":87,"departement":{"code":"08","nom":"Ardennes"},"region":{"code":"44","nom":"Grand Est"}},{"nom":"Logny-Bogny","code":"08257","codesPostaux":["08150"],"centre":{"type":"Point","coordinates":[4.3865,49.7739]},"surface":1070.33,"population":153,"departement":{"code":"08","nom":"Ardennes"},"region":{"code":"44","nom":"Grand Est"}},{"nom":"Longwé","code":"08259","codesPostaux":["08400"],"centre":{"type":"Point","coordinates":[4.797,49.3862]},"surface":1080.12,"population":69,"departement":{"code":"08","nom":"Ardennes"},"region":{"code":"44","nom":"Grand Est"}},{"nom":"Lonny","code":"08260","codesPostaux":["08150"],"centre":{"type":"Point","coordinates":[4.5838,49.815]},"surface":467.74,"population":618,"departement":{"code":"08","nom":"Ardennes"},"region":{"code":"44","nom":"Grand Est"}},{"nom":"Lucquy","code":"08262","codesPostaux":["08300"],"centre":{"type":"Point","coordinates":[4.4759,49.5382]},"surface":507.65,"population":574,"departement":{"code":"08","nom":"Ardennes"},"region":{"code":"44","nom":"Grand Est"}},{"nom":"Lumes","code":"08263","codesPostaux":["08440"],"centre":{"type":"Point","coordinates":[4.7823,49.7338]},"surface":611.43,"population":1106,"departement":{"code":"08","nom":"Ardennes"},"region":{"code":"44","nom":"Grand Est"}},{"nom":"Machault","code":"08264","codesPostaux":["08310"],"centre":{"type":"Point","coordinates":[4.5053,49.3535]},"surface":1668.3,"population":503,"departement":{"code":"08","nom":"Ardennes"},"region":{"code":"44","nom":"Grand Est"}},{"nom":"Maisoncelle-et-Villers","code":"08268","codesPostaux":["08450"],"centre":{"type":"Point","coordinates":[4.9159,49.5874]},"surface":1118.81,"population":70,"departement":{"code":"08","nom":"Ardennes"},"region":{"code":"44","nom":"Grand Est"}},{"nom":"Malandry","code":"08269","codesPostaux":["08370"],"centre":{"type":"Point","coordinates":[5.1841,49.5747]},"surface":672.46,"population":78,"departement":{"code":"08","nom":"Ardennes"},"region":{"code":"44","nom":"Grand Est"}},{"nom":"Manre","code":"08271","codesPostaux":["08400"],"centre":{"type":"Point","coordinates":[4.6535,49.2568]},"surface":1848.99,"population":103,"departement":{"code":"08","nom":"Ardennes"},"region":{"code":"44","nom":"Grand Est"}},{"nom":"Maranwez","code":"08272","codesPostaux":["08460"],"centre":{"type":"Point","coordinates":[4.3447,49.7272]},"surface":307.92,"population":55,"departement":{"code":"08","nom":"Ardennes"},"region":{"code":"44","nom":"Grand Est"}},{"nom":"Marby","code":"08273","codesPostaux":["08260"],"centre":{"type":"Point","coordinates":[4.4276,49.8355]},"surface":739.72,"population":76,"departement":{"code":"08","nom":"Ardennes"},"region":{"code":"44","nom":"Grand Est"}},{"nom":"Marcq","code":"08274","codesPostaux":["08250"],"centre":{"type":"Point","coordinates":[4.9199,49.3141]},"surface":1057.86,"population":92,"departement":{"code":"08","nom":"Ardennes"},"region":{"code":"44","nom":"Grand Est"}},{"nom":"Margny","code":"08275","codesPostaux":["08370"],"centre":{"type":"Point","coordinates":[5.3583,49.6187]},"surface":670.48,"population":211,"departement":{"code":"08","nom":"Ardennes"},"region":{"code":"44","nom":"Grand Est"}},{"nom":"Margut","code":"08276","codesPostaux":["08370"],"centre":{"type":"Point","coordinates":[5.2691,49.58]},"surface":749.44,"population":718,"departement":{"code":"08","nom":"Ardennes"},"region":{"code":"44","nom":"Grand Est"}},{"nom":"Marlemont","code":"08277","codesPostaux":["08290"],"centre":{"type":"Point","coordinates":[4.3786,49.7463]},"surface":1003.7,"population":127,"departement":{"code":"08","nom":"Ardennes"},"region":{"code":"44","nom":"Grand Est"}},{"nom":"Marquigny","code":"08278","codesPostaux":["08390"],"centre":{"type":"Point","coordinates":[4.7033,49.5493]},"surface":668.89,"population":77,"departement":{"code":"08","nom":"Ardennes"},"region":{"code":"44","nom":"Grand Est"}},{"nom":"Mars-sous-Bourcq","code":"08279","codesPostaux":["08400"],"centre":{"type":"Point","coordinates":[4.6418,49.3992]},"surface":475.21,"population":62,"departement":{"code":"08","nom":"Ardennes"},"region":{"code":"44","nom":"Grand Est"}},{"nom":"Marvaux-Vieux","code":"08280","codesPostaux":["08400"],"centre":{"type":"Point","coordinates":[4.691,49.2874]},"surface":1155.26,"population":72,"departement":{"code":"08","nom":"Ardennes"},"region":{"code":"44","nom":"Grand Est"}},{"nom":"Matton-et-Clémency","code":"08281","codesPostaux":["08110"],"centre":{"type":"Point","coordinates":[5.2309,49.6743]},"surface":1827.03,"population":454,"departement":{"code":"08","nom":"Ardennes"},"region":{"code":"44","nom":"Grand Est"}},{"nom":"Maubert-Fontaine","code":"08282","codesPostaux":["08260"],"centre":{"type":"Point","coordinates":[4.4347,49.8833]},"surface":1020.36,"population":1026,"departement":{"code":"08","nom":"Ardennes"},"region":{"code":"44","nom":"Grand Est"}},{"nom":"Mazerny","code":"08283","codesPostaux":["08430"],"centre":{"type":"Point","coordinates":[4.6195,49.6089]},"surface":1256.93,"population":127,"departement":{"code":"08","nom":"Ardennes"},"region":{"code":"44","nom":"Grand Est"}},{"nom":"Les Mazures","code":"08284","codesPostaux":["08500"],"centre":{"type":"Point","coordinates":[4.6372,49.8959]},"surface":3627.66,"population":867,"departement":{"code":"08","nom":"Ardennes"},"region":{"code":"44","nom":"Grand Est"}},{"nom":"Ménil-Annelles","code":"08286","codesPostaux":["08310"],"centre":{"type":"Point","coordinates":[4.4472,49.4346]},"surface":920.91,"population":109,"departement":{"code":"08","nom":"Ardennes"},"region":{"code":"44","nom":"Grand Est"}},{"nom":"Ménil-Lépinois","code":"08287","codesPostaux":["08310"],"centre":{"type":"Point","coordinates":[4.29,49.3718]},"surface":1789.92,"population":140,"departement":{"code":"08","nom":"Ardennes"},"region":{"code":"44","nom":"Grand Est"}},{"nom":"Mesmont","code":"08288","codesPostaux":["08270"],"centre":{"type":"Point","coordinates":[4.4002,49.6153]},"surface":1139.81,"population":91,"departement":{"code":"08","nom":"Ardennes"},"region":{"code":"44","nom":"Grand Est"}},{"nom":"Messincourt","code":"08289","codesPostaux":["08110"],"centre":{"type":"Point","coordinates":[5.1488,49.6913]},"surface":815.47,"population":596,"departement":{"code":"08","nom":"Ardennes"},"region":{"code":"44","nom":"Grand Est"}},{"nom":"Mogues","code":"08291","codesPostaux":["08110"],"centre":{"type":"Point","coordinates":[5.2862,49.6629]},"surface":818.98,"population":236,"departement":{"code":"08","nom":"Ardennes"},"region":{"code":"44","nom":"Grand Est"}},{"nom":"Moiry","code":"08293","codesPostaux":["08370"],"centre":{"type":"Point","coordinates":[5.2794,49.6001]},"surface":390.81,"population":137,"departement":{"code":"08","nom":"Ardennes"},"region":{"code":"44","nom":"Grand Est"}},{"nom":"Mondigny","code":"08295","codesPostaux":["08430"],"centre":{"type":"Point","coordinates":[4.6387,49.7143]},"surface":584.19,"population":189,"departement":{"code":"08","nom":"Ardennes"},"region":{"code":"44","nom":"Grand Est"}},{"nom":"Montcheutin","code":"08296","codesPostaux":["08250"],"centre":{"type":"Point","coordinates":[4.8037,49.2893]},"surface":962.98,"population":111,"departement":{"code":"08","nom":"Ardennes"},"region":{"code":"44","nom":"Grand Est"}},{"nom":"Montcornet","code":"08297","codesPostaux":["08090"],"centre":{"type":"Point","coordinates":[4.655,49.836]},"surface":1146.78,"population":300,"departement":{"code":"08","nom":"Ardennes"},"region":{"code":"44","nom":"Grand Est"}},{"nom":"Montcy-Notre-Dame","code":"08298","codesPostaux":["08090"],"centre":{"type":"Point","coordinates":[4.7439,49.791]},"surface":608.91,"population":1585,"departement":{"code":"08","nom":"Ardennes"},"region":{"code":"44","nom":"Grand Est"}},{"nom":"Le Mont-Dieu","code":"08300","codesPostaux":["08390"],"centre":{"type":"Point","coordinates":[4.861,49.5496]},"surface":1871.11,"population":12,"departement":{"code":"08","nom":"Ardennes"},"region":{"code":"44","nom":"Grand Est"}},{"nom":"Montgon","code":"08301","codesPostaux":["08390"],"centre":{"type":"Point","coordinates":[4.717,49.5157]},"surface":819.25,"population":69,"departement":{"code":"08","nom":"Ardennes"},"region":{"code":"44","nom":"Grand Est"}},{"nom":"Monthermé","code":"08302","codesPostaux":["08800"],"centre":{"type":"Point","coordinates":[4.7453,49.8996]},"surface":3250.06,"population":2170,"departement":{"code":"08","nom":"Ardennes"},"region":{"code":"44","nom":"Grand Est"}},{"nom":"Monthois","code":"08303","codesPostaux":["08400"],"centre":{"type":"Point","coordinates":[4.7094,49.3112]},"surface":1207.76,"population":395,"departement":{"code":"08","nom":"Ardennes"},"region":{"code":"44","nom":"Grand Est"}},{"nom":"Montigny-sur-Meuse","code":"08304","codesPostaux":["08170"],"centre":{"type":"Point","coordinates":[4.7098,50.0491]},"surface":803.38,"population":78,"departement":{"code":"08","nom":"Ardennes"},"region":{"code":"44","nom":"Grand Est"}},{"nom":"Montigny-sur-Vence","code":"08305","codesPostaux":["08430"],"centre":{"type":"Point","coordinates":[4.6104,49.6473]},"surface":826.06,"population":232,"departement":{"code":"08","nom":"Ardennes"},"region":{"code":"44","nom":"Grand Est"}},{"nom":"Mont-Laurent","code":"08306","codesPostaux":["08130"],"centre":{"type":"Point","coordinates":[4.4828,49.463]},"surface":685.67,"population":52,"departement":{"code":"08","nom":"Ardennes"},"region":{"code":"44","nom":"Grand Est"}},{"nom":"Montmeillant","code":"08307","codesPostaux":["08220"],"centre":{"type":"Point","coordinates":[4.3278,49.7001]},"surface":700,"population":83,"departement":{"code":"08","nom":"Ardennes"},"region":{"code":"44","nom":"Grand Est"}},{"nom":"Mont-Saint-Martin","code":"08308","codesPostaux":["08400"],"centre":{"type":"Point","coordinates":[4.6421,49.3317]},"surface":1405.4,"population":89,"departement":{"code":"08","nom":"Ardennes"},"region":{"code":"44","nom":"Grand Est"}},{"nom":"Mont-Saint-Remy","code":"08309","codesPostaux":["08310"],"centre":{"type":"Point","coordinates":[4.4753,49.3881]},"surface":759.36,"population":56,"departement":{"code":"08","nom":"Ardennes"},"region":{"code":"44","nom":"Grand Est"}},{"nom":"Mouron","code":"08310","codesPostaux":["08250"],"centre":{"type":"Point","coordinates":[4.7817,49.3161]},"surface":639.36,"population":70,"departement":{"code":"08","nom":"Ardennes"},"region":{"code":"44","nom":"Grand Est"}},{"nom":"Mouzon","code":"08311","codesPostaux":["08210"],"centre":{"type":"Point","coordinates":[5.0752,49.5978]},"surface":4203.23,"population":2234,"departement":{"code":"08","nom":"Ardennes"},"region":{"code":"44","nom":"Grand Est"}},{"nom":"Murtin-et-Bogny","code":"08312","codesPostaux":["08150"],"centre":{"type":"Point","coordinates":[4.5419,49.8108]},"surface":701.86,"population":183,"departement":{"code":"08","nom":"Ardennes"},"region":{"code":"44","nom":"Grand Est"}},{"nom":"Nanteuil-sur-Aisne","code":"08313","codesPostaux":["08300"],"centre":{"type":"Point","coordinates":[4.2976,49.5014]},"surface":798.25,"population":148,"departement":{"code":"08","nom":"Ardennes"},"region":{"code":"44","nom":"Grand Est"}},{"nom":"Neuflize","code":"08314","codesPostaux":["08300"],"centre":{"type":"Point","coordinates":[4.311,49.405]},"surface":1368.97,"population":845,"departement":{"code":"08","nom":"Ardennes"},"region":{"code":"44","nom":"Grand Est"}},{"nom":"Neufmaison","code":"08315","codesPostaux":["08460"],"centre":{"type":"Point","coordinates":[4.5116,49.758]},"surface":703.95,"population":72,"departement":{"code":"08","nom":"Ardennes"},"region":{"code":"44","nom":"Grand Est"}},{"nom":"Neufmanil","code":"08316","codesPostaux":["08700"],"centre":{"type":"Point","coordinates":[4.8048,49.8255]},"surface":1016,"population":990,"departement":{"code":"08","nom":"Ardennes"},"region":{"code":"44","nom":"Grand Est"}},{"nom":"La Neuville-à-Maire","code":"08317","codesPostaux":["08450"],"centre":{"type":"Point","coordinates":[4.8528,49.5768]},"surface":729.69,"population":107,"departement":{"code":"08","nom":"Ardennes"},"region":{"code":"44","nom":"Grand Est"}},{"nom":"La Neuville-aux-Joûtes","code":"08318","codesPostaux":["08380"],"centre":{"type":"Point","coordinates":[4.2428,49.9325]},"surface":1315.7,"population":353,"departement":{"code":"08","nom":"Ardennes"},"region":{"code":"44","nom":"Grand Est"}},{"nom":"Neuville-lez-Beaulieu","code":"08319","codesPostaux":["08380"],"centre":{"type":"Point","coordinates":[4.3565,49.9048]},"surface":3601.13,"population":335,"departement":{"code":"08","nom":"Ardennes"},"region":{"code":"44","nom":"Grand Est"}},{"nom":"La Neuville-en-Tourne-à-Fuy","code":"08320","codesPostaux":["08310"],"centre":{"type":"Point","coordinates":[4.3965,49.3461]},"surface":2736.65,"population":538,"departement":{"code":"08","nom":"Ardennes"},"region":{"code":"44","nom":"Grand Est"}},{"nom":"Neuville-Day","code":"08321","codesPostaux":["08130"],"centre":{"type":"Point","coordinates":[4.6952,49.503]},"surface":767.88,"population":171,"departement":{"code":"08","nom":"Ardennes"},"region":{"code":"44","nom":"Grand Est"}},{"nom":"Neuville-lès-This","code":"08322","codesPostaux":["08090"],"centre":{"type":"Point","coordinates":[4.5914,49.7307]},"surface":774.28,"population":344,"departement":{"code":"08","nom":"Ardennes"},"region":{"code":"44","nom":"Grand Est"}},{"nom":"La Neuville-lès-Wasigny","code":"08323","codesPostaux":["08270"],"centre":{"type":"Point","coordinates":[4.3618,49.6497]},"surface":526.06,"population":161,"departement":{"code":"08","nom":"Ardennes"},"region":{"code":"44","nom":"Grand Est"}},{"nom":"Neuvizy","code":"08324","codesPostaux":["08430"],"centre":{"type":"Point","coordinates":[4.5382,49.6258]},"surface":854.93,"population":113,"departement":{"code":"08","nom":"Ardennes"},"region":{"code":"44","nom":"Grand Est"}},{"nom":"Noirval","code":"08325","codesPostaux":["08400"],"centre":{"type":"Point","coordinates":[4.7948,49.4573]},"surface":492.14,"population":25,"departement":{"code":"08","nom":"Ardennes"},"region":{"code":"44","nom":"Grand Est"}},{"nom":"Nouart","code":"08326","codesPostaux":["08240"],"centre":{"type":"Point","coordinates":[5.0596,49.4479]},"surface":1778.51,"population":113,"departement":{"code":"08","nom":"Ardennes"},"region":{"code":"44","nom":"Grand Est"}},{"nom":"Nouvion-sur-Meuse","code":"08327","codesPostaux":["08160"],"centre":{"type":"Point","coordinates":[4.7963,49.7122]},"surface":905.05,"population":2226,"departement":{"code":"08","nom":"Ardennes"},"region":{"code":"44","nom":"Grand Est"}},{"nom":"Nouzonville","code":"08328","codesPostaux":["08700"],"centre":{"type":"Point","coordinates":[4.7538,49.8174]},"surface":1098.29,"population":5592,"departement":{"code":"08","nom":"Ardennes"},"region":{"code":"44","nom":"Grand Est"}},{"nom":"Novion-Porcien","code":"08329","codesPostaux":["08270"],"centre":{"type":"Point","coordinates":[4.4342,49.5946]},"surface":1724.45,"population":509,"departement":{"code":"08","nom":"Ardennes"},"region":{"code":"44","nom":"Grand Est"}},{"nom":"Novy-Chevrières","code":"08330","codesPostaux":["08300"],"centre":{"type":"Point","coordinates":[4.4406,49.5443]},"surface":1727.23,"population":772,"departement":{"code":"08","nom":"Ardennes"},"region":{"code":"44","nom":"Grand Est"}},{"nom":"Noyers-Pont-Maugis","code":"08331","codesPostaux":["08350"],"centre":{"type":"Point","coordinates":[4.9318,49.6571]},"surface":921.7,"population":667,"departement":{"code":"08","nom":"Ardennes"},"region":{"code":"44","nom":"Grand Est"}},{"nom":"Oches","code":"08332","codesPostaux":["08240"],"centre":{"type":"Point","coordinates":[4.9265,49.509]},"surface":677.3,"population":37,"departement":{"code":"08","nom":"Ardennes"},"region":{"code":"44","nom":"Grand Est"}},{"nom":"Olizy-Primat","code":"08333","codesPostaux":["08250"],"centre":{"type":"Point","coordinates":[4.7845,49.3568]},"surface":2141.18,"population":229,"departement":{"code":"08","nom":"Ardennes"},"region":{"code":"44","nom":"Grand Est"}},{"nom":"Omicourt","code":"08334","codesPostaux":["08450"],"centre":{"type":"Point","coordinates":[4.8271,49.6279]},"surface":739.23,"population":41,"departement":{"code":"08","nom":"Ardennes"},"region":{"code":"44","nom":"Grand Est"}},{"nom":"Omont","code":"08335","codesPostaux":["08430"],"centre":{"type":"Point","coordinates":[4.7365,49.5921]},"surface":1776.84,"population":75,"departement":{"code":"08","nom":"Ardennes"},"region":{"code":"44","nom":"Grand Est"}},{"nom":"Osnes","code":"08336","codesPostaux":["08110"],"centre":{"type":"Point","coordinates":[5.1561,49.6597]},"surface":584.18,"population":230,"departement":{"code":"08","nom":"Ardennes"},"region":{"code":"44","nom":"Grand Est"}},{"nom":"Pauvres","code":"08338","codesPostaux":["08310"],"centre":{"type":"Point","coordinates":[4.4996,49.4131]},"surface":1259.34,"population":198,"departement":{"code":"08","nom":"Ardennes"},"region":{"code":"44","nom":"Grand Est"}},{"nom":"Perthes","code":"08339","codesPostaux":["08300"],"centre":{"type":"Point","coordinates":[4.3605,49.4487]},"surface":2362.06,"population":304,"departement":{"code":"08","nom":"Ardennes"},"region":{"code":"44","nom":"Grand Est"}},{"nom":"Poilcourt-Sydney","code":"08340","codesPostaux":["08190"],"centre":{"type":"Point","coordinates":[4.095,49.4206]},"surface":789.31,"population":173,"departement":{"code":"08","nom":"Ardennes"},"region":{"code":"44","nom":"Grand Est"}},{"nom":"Poix-Terron","code":"08341","codesPostaux":["08430"],"centre":{"type":"Point","coordinates":[4.656,49.6433]},"surface":1428.3,"population":882,"departement":{"code":"08","nom":"Ardennes"},"region":{"code":"44","nom":"Grand Est"}},{"nom":"Pouru-aux-Bois","code":"08342","codesPostaux":["08140"],"centre":{"type":"Point","coordinates":[5.0982,49.7137]},"surface":896.32,"population":233,"departement":{"code":"08","nom":"Ardennes"},"region":{"code":"44","nom":"Grand Est"}},{"nom":"Pouru-Saint-Remy","code":"08343","codesPostaux":["08140"],"centre":{"type":"Point","coordinates":[5.0894,49.6793]},"surface":1033.66,"population":1142,"departement":{"code":"08","nom":"Ardennes"},"region":{"code":"44","nom":"Grand Est"}},{"nom":"Prez","code":"08344","codesPostaux":["08290"],"centre":{"type":"Point","coordinates":[4.3612,49.8016]},"surface":1227.53,"population":131,"departement":{"code":"08","nom":"Ardennes"},"region":{"code":"44","nom":"Grand Est"}},{"nom":"Prix-lès-Mézières","code":"08346","codesPostaux":["08000"],"centre":{"type":"Point","coordinates":[4.6817,49.7474]},"surface":505.04,"population":1351,"departement":{"code":"08","nom":"Ardennes"},"region":{"code":"44","nom":"Grand Est"}},{"nom":"Puilly-et-Charbeaux","code":"08347","codesPostaux":["08370"],"centre":{"type":"Point","coordinates":[5.2742,49.6377]},"surface":1832.51,"population":217,"departement":{"code":"08","nom":"Ardennes"},"region":{"code":"44","nom":"Grand Est"}},{"nom":"Puiseux","code":"08348","codesPostaux":["08270"],"centre":{"type":"Point","coordinates":[4.5367,49.5947]},"surface":345.92,"population":112,"departement":{"code":"08","nom":"Ardennes"},"region":{"code":"44","nom":"Grand Est"}},{"nom":"Pure","code":"08349","codesPostaux":["08110"],"centre":{"type":"Point","coordinates":[5.1805,49.6807]},"surface":650.22,"population":551,"departement":{"code":"08","nom":"Ardennes"},"region":{"code":"44","nom":"Grand Est"}},{"nom":"Quatre-Champs","code":"08350","codesPostaux":["08400"],"centre":{"type":"Point","coordinates":[4.7794,49.4488]},"surface":1154.45,"population":241,"departement":{"code":"08","nom":"Ardennes"},"region":{"code":"44","nom":"Grand Est"}},{"nom":"Quilly","code":"08351","codesPostaux":["08400"],"centre":{"type":"Point","coordinates":[4.5858,49.405]},"surface":558.39,"population":72,"departement":{"code":"08","nom":"Ardennes"},"region":{"code":"44","nom":"Grand Est"}},{"nom":"Raillicourt","code":"08352","codesPostaux":["08430"],"centre":{"type":"Point","coordinates":[4.5909,49.6511]},"surface":686.7,"population":217,"departement":{"code":"08","nom":"Ardennes"},"region":{"code":"44","nom":"Grand Est"}},{"nom":"Rancennes","code":"08353","codesPostaux":["08600"],"centre":{"type":"Point","coordinates":[4.8253,50.1221]},"surface":660.2,"population":714,"departement":{"code":"08","nom":"Ardennes"},"region":{"code":"44","nom":"Grand Est"}},{"nom":"Raucourt-et-Flaba","code":"08354","codesPostaux":["08450"],"centre":{"type":"Point","coordinates":[4.966,49.5877]},"surface":2179.55,"population":817,"departement":{"code":"08","nom":"Ardennes"},"region":{"code":"44","nom":"Grand Est"}},{"nom":"Regniowez","code":"08355","codesPostaux":["08230"],"centre":{"type":"Point","coordinates":[4.4168,49.9252]},"surface":1832.67,"population":386,"departement":{"code":"08","nom":"Ardennes"},"region":{"code":"44","nom":"Grand Est"}},{"nom":"Remaucourt","code":"08356","codesPostaux":["08220"],"centre":{"type":"Point","coordinates":[4.2283,49.6022]},"surface":1081.38,"population":174,"departement":{"code":"08","nom":"Ardennes"},"region":{"code":"44","nom":"Grand Est"}},{"nom":"Remilly-Aillicourt","code":"08357","codesPostaux":["08450"],"centre":{"type":"Point","coordinates":[4.9926,49.6469]},"surface":1332.64,"population":770,"departement":{"code":"08","nom":"Ardennes"},"region":{"code":"44","nom":"Grand Est"}},{"nom":"Remilly-les-Pothées","code":"08358","codesPostaux":["08150"],"centre":{"type":"Point","coordinates":[4.5516,49.7832]},"surface":992.52,"population":259,"departement":{"code":"08","nom":"Ardennes"},"region":{"code":"44","nom":"Grand Est"}},{"nom":"Renneville","code":"08360","codesPostaux":["08220"],"centre":{"type":"Point","coordinates":[4.14,49.6529]},"surface":991.19,"population":198,"departement":{"code":"08","nom":"Ardennes"},"region":{"code":"44","nom":"Grand Est"}},{"nom":"Renwez","code":"08361","codesPostaux":["08150"],"centre":{"type":"Point","coordinates":[4.606,49.8469]},"surface":1623.61,"population":1637,"departement":{"code":"08","nom":"Ardennes"},"region":{"code":"44","nom":"Grand Est"}},{"nom":"Rethel","code":"08362","codesPostaux":["08300"],"centre":{"type":"Point","coordinates":[4.3814,49.5147]},"surface":1862.8,"population":7425,"departement":{"code":"08","nom":"Ardennes"},"region":{"code":"44","nom":"Grand Est"}},{"nom":"Revin","code":"08363","codesPostaux":["08500"],"centre":{"type":"Point","coordinates":[4.6931,49.9339]},"surface":3863.14,"population":5815,"departement":{"code":"08","nom":"Ardennes"},"region":{"code":"44","nom":"Grand Est"}},{"nom":"Rilly-sur-Aisne","code":"08364","codesPostaux":["08130"],"centre":{"type":"Point","coordinates":[4.6344,49.484]},"surface":343.1,"population":126,"departement":{"code":"08","nom":"Ardennes"},"region":{"code":"44","nom":"Grand Est"}},{"nom":"Rimogne","code":"08365","codesPostaux":["08150"],"centre":{"type":"Point","coordinates":[4.5357,49.8405]},"surface":378.8,"population":1330,"departement":{"code":"08","nom":"Ardennes"},"region":{"code":"44","nom":"Grand Est"}},{"nom":"Rocquigny","code":"08366","codesPostaux":["08220"],"centre":{"type":"Point","coordinates":[4.2437,49.6982]},"surface":3674.08,"population":662,"departement":{"code":"08","nom":"Ardennes"},"region":{"code":"44","nom":"Grand Est"}},{"nom":"Rocroi","code":"08367","codesPostaux":["08230"],"centre":{"type":"Point","coordinates":[4.5548,49.9277]},"surface":5036.45,"population":2259,"departement":{"code":"08","nom":"Ardennes"},"region":{"code":"44","nom":"Grand Est"}},{"nom":"Roizy","code":"08368","codesPostaux":["08190"],"centre":{"type":"Point","coordinates":[4.1909,49.4268]},"surface":1103.75,"population":221,"departement":{"code":"08","nom":"Ardennes"},"region":{"code":"44","nom":"Grand Est"}},{"nom":"La Romagne","code":"08369","codesPostaux":["08220"],"centre":{"type":"Point","coordinates":[4.3015,49.6869]},"surface":1003.21,"population":131,"departement":{"code":"08","nom":"Ardennes"},"region":{"code":"44","nom":"Grand Est"}},{"nom":"Rouvroy-sur-Audry","code":"08370","codesPostaux":["08150"],"centre":{"type":"Point","coordinates":[4.4996,49.7855]},"surface":916.46,"population":566,"departement":{"code":"08","nom":"Ardennes"},"region":{"code":"44","nom":"Grand Est"}},{"nom":"Rubigny","code":"08372","codesPostaux":["08220"],"centre":{"type":"Point","coordinates":[4.2058,49.6891]},"surface":506.73,"population":66,"departement":{"code":"08","nom":"Ardennes"},"region":{"code":"44","nom":"Grand Est"}},{"nom":"Rumigny","code":"08373","codesPostaux":["08290"],"centre":{"type":"Point","coordinates":[4.266,49.8044]},"surface":1741.85,"population":276,"departement":{"code":"08","nom":"Ardennes"},"region":{"code":"44","nom":"Grand Est"}},{"nom":"La Sabotterie","code":"08374","codesPostaux":["08130"],"centre":{"type":"Point","coordinates":[4.6718,49.5451]},"surface":363.27,"population":127,"departement":{"code":"08","nom":"Ardennes"},"region":{"code":"44","nom":"Grand Est"}},{"nom":"Sachy","code":"08375","codesPostaux":["08110"],"centre":{"type":"Point","coordinates":[5.1273,49.6695]},"surface":579.47,"population":178,"departement":{"code":"08","nom":"Ardennes"},"region":{"code":"44","nom":"Grand Est"}},{"nom":"Sailly","code":"08376","codesPostaux":["08110"],"centre":{"type":"Point","coordinates":[5.1758,49.5984]},"surface":1297.91,"population":248,"departement":{"code":"08","nom":"Ardennes"},"region":{"code":"44","nom":"Grand Est"}},{"nom":"Saint-Aignan","code":"08377","codesPostaux":["08350"],"centre":{"type":"Point","coordinates":[4.8527,49.6568]},"surface":771.58,"population":153,"departement":{"code":"08","nom":"Ardennes"},"region":{"code":"44","nom":"Grand Est"}},{"nom":"Saint-Clément-à-Arnes","code":"08378","codesPostaux":["08310"],"centre":{"type":"Point","coordinates":[4.433,49.2964]},"surface":1018.51,"population":107,"departement":{"code":"08","nom":"Ardennes"},"region":{"code":"44","nom":"Grand Est"}},{"nom":"Saint-Étienne-à-Arnes","code":"08379","codesPostaux":["08310"],"centre":{"type":"Point","coordinates":[4.5111,49.3072]},"surface":2977.25,"population":243,"departement":{"code":"08","nom":"Ardennes"},"region":{"code":"44","nom":"Grand Est"}},{"nom":"Saint-Fergeux","code":"08380","codesPostaux":["08360"],"centre":{"type":"Point","coordinates":[4.2027,49.5764]},"surface":2550.54,"population":215,"departement":{"code":"08","nom":"Ardennes"},"region":{"code":"44","nom":"Grand Est"}},{"nom":"Saint-Germainmont","code":"08381","codesPostaux":["08190"],"centre":{"type":"Point","coordinates":[4.1313,49.5176]},"surface":1572.87,"population":816,"departement":{"code":"08","nom":"Ardennes"},"region":{"code":"44","nom":"Grand Est"}},{"nom":"Saint-Jean-aux-Bois","code":"08382","codesPostaux":["08220"],"centre":{"type":"Point","coordinates":[4.3068,49.7229]},"surface":879.55,"population":94,"departement":{"code":"08","nom":"Ardennes"},"region":{"code":"44","nom":"Grand Est"}},{"nom":"Saint-Juvin","code":"08383","codesPostaux":["08250"],"centre":{"type":"Point","coordinates":[4.9457,49.3392]},"surface":932.11,"population":101,"departement":{"code":"08","nom":"Ardennes"},"region":{"code":"44","nom":"Grand Est"}},{"nom":"Saint-Lambert-et-Mont-de-Jeux","code":"08384","codesPostaux":["08130"],"centre":{"type":"Point","coordinates":[4.6233,49.498]},"surface":1077.88,"population":137,"departement":{"code":"08","nom":"Ardennes"},"region":{"code":"44","nom":"Grand Est"}},{"nom":"Saint-Laurent","code":"08385","codesPostaux":["08090"],"centre":{"type":"Point","coordinates":[4.7789,49.7573]},"surface":429.96,"population":1070,"departement":{"code":"08","nom":"Ardennes"},"region":{"code":"44","nom":"Grand Est"}},{"nom":"Saint-Loup-en-Champagne","code":"08386","codesPostaux":["08300"],"centre":{"type":"Point","coordinates":[4.2165,49.4526]},"surface":1576.36,"population":341,"departement":{"code":"08","nom":"Ardennes"},"region":{"code":"44","nom":"Grand Est"}},{"nom":"Saint-Loup-Terrier","code":"08387","codesPostaux":["08130"],"centre":{"type":"Point","coordinates":[4.6183,49.5706]},"surface":1526.26,"population":182,"departement":{"code":"08","nom":"Ardennes"},"region":{"code":"44","nom":"Grand Est"}},{"nom":"Saint-Marceau","code":"08388","codesPostaux":["08160"],"centre":{"type":"Point","coordinates":[4.72,49.7063]},"surface":481.39,"population":346,"departement":{"code":"08","nom":"Ardennes"},"region":{"code":"44","nom":"Grand Est"}},{"nom":"Saint-Marcel","code":"08389","codesPostaux":["08460"],"centre":{"type":"Point","coordinates":[4.5696,49.7678]},"surface":1092.62,"population":318,"departement":{"code":"08","nom":"Ardennes"},"region":{"code":"44","nom":"Grand Est"}},{"nom":"Sainte-Marie","code":"08390","codesPostaux":["08400"],"centre":{"type":"Point","coordinates":[4.6737,49.3726]},"surface":553.68,"population":78,"departement":{"code":"08","nom":"Ardennes"},"region":{"code":"44","nom":"Grand Est"}},{"nom":"Saint-Menges","code":"08391","codesPostaux":["08200"],"centre":{"type":"Point","coordinates":[4.9264,49.763]},"surface":1178.7,"population":938,"departement":{"code":"08","nom":"Ardennes"},"region":{"code":"44","nom":"Grand Est"}},{"nom":"Saint-Morel","code":"08392","codesPostaux":["08400"],"centre":{"type":"Point","coordinates":[4.7026,49.3401]},"surface":1198.17,"population":185,"departement":{"code":"08","nom":"Ardennes"},"region":{"code":"44","nom":"Grand Est"}},{"nom":"Saint-Pierre-à-Arnes","code":"08393","codesPostaux":["08310"],"centre":{"type":"Point","coordinates":[4.4657,49.2983]},"surface":843.45,"population":66,"departement":{"code":"08","nom":"Ardennes"},"region":{"code":"44","nom":"Grand Est"}},{"nom":"Saint-Pierremont","code":"08394","codesPostaux":["08240"],"centre":{"type":"Point","coordinates":[4.949,49.4938]},"surface":1991.37,"population":72,"departement":{"code":"08","nom":"Ardennes"},"region":{"code":"44","nom":"Grand Est"}},{"nom":"Saint-Pierre-sur-Vence","code":"08395","codesPostaux":["08430"],"centre":{"type":"Point","coordinates":[4.6833,49.702]},"surface":465.81,"population":146,"departement":{"code":"08","nom":"Ardennes"},"region":{"code":"44","nom":"Grand Est"}},{"nom":"Saint-Quentin-le-Petit","code":"08396","codesPostaux":["08220"],"centre":{"type":"Point","coordinates":[4.0817,49.5868]},"surface":895.18,"population":121,"departement":{"code":"08","nom":"Ardennes"},"region":{"code":"44","nom":"Grand Est"}},{"nom":"Saint-Remy-le-Petit","code":"08397","codesPostaux":["08300"],"centre":{"type":"Point","coordinates":[4.2316,49.3995]},"surface":745.53,"population":55,"departement":{"code":"08","nom":"Ardennes"},"region":{"code":"44","nom":"Grand Est"}},{"nom":"Sainte-Vaubourg","code":"08398","codesPostaux":["08130"],"centre":{"type":"Point","coordinates":[4.5909,49.4594]},"surface":689.47,"population":87,"departement":{"code":"08","nom":"Ardennes"},"region":{"code":"44","nom":"Grand Est"}},{"nom":"Sapogne-sur-Marche","code":"08399","codesPostaux":["08370"],"centre":{"type":"Point","coordinates":[5.3133,49.6007]},"surface":547.98,"population":144,"departement":{"code":"08","nom":"Ardennes"},"region":{"code":"44","nom":"Grand Est"}},{"nom":"Sapogne-et-Feuchères","code":"08400","codesPostaux":["08160"],"centre":{"type":"Point","coordinates":[4.8045,49.6619]},"surface":1069.56,"population":516,"departement":{"code":"08","nom":"Ardennes"},"region":{"code":"44","nom":"Grand Est"}},{"nom":"Saulces-Champenoises","code":"08401","codesPostaux":["08130"],"centre":{"type":"Point","coordinates":[4.5056,49.447]},"surface":2268.79,"population":223,"departement":{"code":"08","nom":"Ardennes"},"region":{"code":"44","nom":"Grand Est"}},{"nom":"Saulces-Monclin","code":"08402","codesPostaux":["08270"],"centre":{"type":"Point","coordinates":[4.5094,49.5732]},"surface":2021.04,"population":838,"departement":{"code":"08","nom":"Ardennes"},"region":{"code":"44","nom":"Grand Est"}},{"nom":"Sault-lès-Rethel","code":"08403","codesPostaux":["08300"],"centre":{"type":"Point","coordinates":[4.3552,49.4905]},"surface":653.34,"population":1928,"departement":{"code":"08","nom":"Ardennes"},"region":{"code":"44","nom":"Grand Est"}},{"nom":"Sault-Saint-Remy","code":"08404","codesPostaux":["08190"],"centre":{"type":"Point","coordinates":[4.1568,49.4236]},"surface":969.45,"population":211,"departement":{"code":"08","nom":"Ardennes"},"region":{"code":"44","nom":"Grand Est"}},{"nom":"Sauville","code":"08405","codesPostaux":["08390"],"centre":{"type":"Point","coordinates":[4.7889,49.5514]},"surface":1508.84,"population":238,"departement":{"code":"08","nom":"Ardennes"},"region":{"code":"44","nom":"Grand Est"}},{"nom":"Savigny-sur-Aisne","code":"08406","codesPostaux":["08400"],"centre":{"type":"Point","coordinates":[4.7211,49.36]},"surface":1032.32,"population":366,"departement":{"code":"08","nom":"Ardennes"},"region":{"code":"44","nom":"Grand Est"}},{"nom":"Séchault","code":"08407","codesPostaux":["08250"],"centre":{"type":"Point","coordinates":[4.736,49.2716]},"surface":1094.82,"population":59,"departement":{"code":"08","nom":"Ardennes"},"region":{"code":"44","nom":"Grand Est"}},{"nom":"Sécheval","code":"08408","codesPostaux":["08150"],"centre":{"type":"Point","coordinates":[4.6707,49.8613]},"surface":1381.88,"population":562,"departement":{"code":"08","nom":"Ardennes"},"region":{"code":"44","nom":"Grand Est"}},{"nom":"Sedan","code":"08409","codesPostaux":["08200"],"centre":{"type":"Point","coordinates":[4.9269,49.6993]},"surface":1627.55,"population":16608,"departement":{"code":"08","nom":"Ardennes"},"region":{"code":"44","nom":"Grand Est"}},{"nom":"Semide","code":"08410","codesPostaux":["08400"],"centre":{"type":"Point","coordinates":[4.5771,49.3266]},"surface":3691.65,"population":175,"departement":{"code":"08","nom":"Ardennes"},"region":{"code":"44","nom":"Grand Est"}},{"nom":"Semuy","code":"08411","codesPostaux":["08130"],"centre":{"type":"Point","coordinates":[4.661,49.4971]},"surface":395.06,"population":88,"departement":{"code":"08","nom":"Ardennes"},"region":{"code":"44","nom":"Grand Est"}},{"nom":"Senuc","code":"08412","codesPostaux":["08250"],"centre":{"type":"Point","coordinates":[4.8438,49.3082]},"surface":1353.91,"population":154,"departement":{"code":"08","nom":"Ardennes"},"region":{"code":"44","nom":"Grand Est"}},{"nom":"Seraincourt","code":"08413","codesPostaux":["08220"],"centre":{"type":"Point","coordinates":[4.1849,49.6184]},"surface":1628.6,"population":257,"departement":{"code":"08","nom":"Ardennes"},"region":{"code":"44","nom":"Grand Est"}},{"nom":"Sery","code":"08415","codesPostaux":["08270"],"centre":{"type":"Point","coordinates":[4.3568,49.5905]},"surface":1832.6,"population":324,"departement":{"code":"08","nom":"Ardennes"},"region":{"code":"44","nom":"Grand Est"}},{"nom":"Seuil","code":"08416","codesPostaux":["08300"],"centre":{"type":"Point","coordinates":[4.4495,49.4764]},"surface":1175.86,"population":178,"departement":{"code":"08","nom":"Ardennes"},"region":{"code":"44","nom":"Grand Est"}},{"nom":"Sévigny-la-Forêt","code":"08417","codesPostaux":["08230"],"centre":{"type":"Point","coordinates":[4.4724,49.8792]},"surface":2620.91,"population":277,"departement":{"code":"08","nom":"Ardennes"},"region":{"code":"44","nom":"Grand Est"}},{"nom":"Sévigny-Waleppe","code":"08418","codesPostaux":["08220"],"centre":{"type":"Point","coordinates":[4.086,49.6162]},"surface":2422.29,"population":220,"departement":{"code":"08","nom":"Ardennes"},"region":{"code":"44","nom":"Grand Est"}},{"nom":"Signy-l'Abbaye","code":"08419","codesPostaux":["08460"],"centre":{"type":"Point","coordinates":[4.4004,49.7015]},"surface":6202.3,"population":1349,"departement":{"code":"08","nom":"Ardennes"},"region":{"code":"44","nom":"Grand Est"}},{"nom":"Signy-le-Petit","code":"08420","codesPostaux":["08380"],"centre":{"type":"Point","coordinates":[4.2939,49.9249]},"surface":3870.97,"population":1183,"departement":{"code":"08","nom":"Ardennes"},"region":{"code":"44","nom":"Grand Est"}},{"nom":"Signy-Montlibert","code":"08421","codesPostaux":["08370"],"centre":{"type":"Point","coordinates":[5.3158,49.5788]},"surface":620.32,"population":93,"departement":{"code":"08","nom":"Ardennes"},"region":{"code":"44","nom":"Grand Est"}},{"nom":"Singly","code":"08422","codesPostaux":["08430"],"centre":{"type":"Point","coordinates":[4.7097,49.6445]},"surface":993.16,"population":135,"departement":{"code":"08","nom":"Ardennes"},"region":{"code":"44","nom":"Grand Est"}},{"nom":"Sommauthe","code":"08424","codesPostaux":["08240"],"centre":{"type":"Point","coordinates":[4.9872,49.5028]},"surface":985.59,"population":129,"departement":{"code":"08","nom":"Ardennes"},"region":{"code":"44","nom":"Grand Est"}},{"nom":"Sommerance","code":"08425","codesPostaux":["08250"],"centre":{"type":"Point","coordinates":[4.9945,49.3271]},"surface":513.68,"population":47,"departement":{"code":"08","nom":"Ardennes"},"region":{"code":"44","nom":"Grand Est"}},{"nom":"Son","code":"08426","codesPostaux":["08300"],"centre":{"type":"Point","coordinates":[4.2705,49.5792]},"surface":908.2,"population":92,"departement":{"code":"08","nom":"Ardennes"},"region":{"code":"44","nom":"Grand Est"}},{"nom":"Sorbon","code":"08427","codesPostaux":["08300"],"centre":{"type":"Point","coordinates":[4.3639,49.5527]},"surface":1450.08,"population":213,"departement":{"code":"08","nom":"Ardennes"},"region":{"code":"44","nom":"Grand Est"}},{"nom":"Sorcy-Bauthémont","code":"08428","codesPostaux":["08270"],"centre":{"type":"Point","coordinates":[4.5353,49.5411]},"surface":1113.11,"population":145,"departement":{"code":"08","nom":"Ardennes"},"region":{"code":"44","nom":"Grand Est"}},{"nom":"Sormonne","code":"08429","codesPostaux":["08150"],"centre":{"type":"Point","coordinates":[4.5648,49.8086]},"surface":475.92,"population":525,"departement":{"code":"08","nom":"Ardennes"},"region":{"code":"44","nom":"Grand Est"}},{"nom":"Stonne","code":"08430","codesPostaux":["08390"],"centre":{"type":"Point","coordinates":[4.927,49.5508]},"surface":732.13,"population":38,"departement":{"code":"08","nom":"Ardennes"},"region":{"code":"44","nom":"Grand Est"}},{"nom":"Sugny","code":"08431","codesPostaux":["08400"],"centre":{"type":"Point","coordinates":[4.6585,49.3539]},"surface":607.12,"population":97,"departement":{"code":"08","nom":"Ardennes"},"region":{"code":"44","nom":"Grand Est"}},{"nom":"Sury","code":"08432","codesPostaux":["08090"],"centre":{"type":"Point","coordinates":[4.6115,49.7665]},"surface":335.06,"population":100,"departement":{"code":"08","nom":"Ardennes"},"region":{"code":"44","nom":"Grand Est"}},{"nom":"Suzanne","code":"08433","codesPostaux":["08130"],"centre":{"type":"Point","coordinates":[4.6409,49.5193]},"surface":640.2,"population":58,"departement":{"code":"08","nom":"Ardennes"},"region":{"code":"44","nom":"Grand Est"}},{"nom":"Sy","code":"08434","codesPostaux":["08390"],"centre":{"type":"Point","coordinates":[4.8742,49.515]},"surface":795.11,"population":54,"departement":{"code":"08","nom":"Ardennes"},"region":{"code":"44","nom":"Grand Est"}},{"nom":"Tagnon","code":"08435","codesPostaux":["08300"],"centre":{"type":"Point","coordinates":[4.2902,49.4511]},"surface":2396.47,"population":882,"departement":{"code":"08","nom":"Ardennes"},"region":{"code":"44","nom":"Grand Est"}},{"nom":"Taillette","code":"08436","codesPostaux":["08230"],"centre":{"type":"Point","coordinates":[4.4765,49.9259]},"surface":1518.49,"population":404,"departement":{"code":"08","nom":"Ardennes"},"region":{"code":"44","nom":"Grand Est"}},{"nom":"Tailly","code":"08437","codesPostaux":["08240"],"centre":{"type":"Point","coordinates":[5.0666,49.4156]},"surface":3925.99,"population":177,"departement":{"code":"08","nom":"Ardennes"},"region":{"code":"44","nom":"Grand Est"}},{"nom":"Taizy","code":"08438","codesPostaux":["08360"],"centre":{"type":"Point","coordinates":[4.2555,49.512]},"surface":911.19,"population":103,"departement":{"code":"08","nom":"Ardennes"},"region":{"code":"44","nom":"Grand Est"}},{"nom":"Tannay","code":"08439","codesPostaux":["08390"],"centre":{"type":"Point","coordinates":[4.8262,49.5255]},"surface":1394.9,"population":148,"departement":{"code":"08","nom":"Ardennes"},"region":{"code":"44","nom":"Grand Est"}},{"nom":"Tarzy","code":"08440","codesPostaux":["08380"],"centre":{"type":"Point","coordinates":[4.2978,49.8745]},"surface":1025.27,"population":126,"departement":{"code":"08","nom":"Ardennes"},"region":{"code":"44","nom":"Grand Est"}},{"nom":"Tétaigne","code":"08444","codesPostaux":["08110"],"centre":{"type":"Point","coordinates":[5.115,49.6506]},"surface":580.53,"population":128,"departement":{"code":"08","nom":"Ardennes"},"region":{"code":"44","nom":"Grand Est"}},{"nom":"Thelonne","code":"08445","codesPostaux":["08350"],"centre":{"type":"Point","coordinates":[4.9454,49.6484]},"surface":382.9,"population":409,"departement":{"code":"08","nom":"Ardennes"},"region":{"code":"44","nom":"Grand Est"}},{"nom":"Thénorgues","code":"08446","codesPostaux":["08240"],"centre":{"type":"Point","coordinates":[4.9251,49.4059]},"surface":928.49,"population":83,"departement":{"code":"08","nom":"Ardennes"},"region":{"code":"44","nom":"Grand Est"}},{"nom":"Thilay","code":"08448","codesPostaux":["08800"],"centre":{"type":"Point","coordinates":[4.8096,49.903]},"surface":3607.6,"population":1007,"departement":{"code":"08","nom":"Ardennes"},"region":{"code":"44","nom":"Grand Est"}},{"nom":"Thin-le-Moutier","code":"08449","codesPostaux":["08460"],"centre":{"type":"Point","coordinates":[4.5134,49.7162]},"surface":3960.39,"population":656,"departement":{"code":"08","nom":"Ardennes"},"region":{"code":"44","nom":"Grand Est"}},{"nom":"This","code":"08450","codesPostaux":["08090"],"centre":{"type":"Point","coordinates":[4.6096,49.7512]},"surface":444.54,"population":223,"departement":{"code":"08","nom":"Ardennes"},"region":{"code":"44","nom":"Grand Est"}},{"nom":"Le Thour","code":"08451","codesPostaux":["08190"],"centre":{"type":"Point","coordinates":[4.0905,49.5458]},"surface":1663.03,"population":368,"departement":{"code":"08","nom":"Ardennes"},"region":{"code":"44","nom":"Grand Est"}},{"nom":"Thugny-Trugny","code":"08452","codesPostaux":["08300"],"centre":{"type":"Point","coordinates":[4.425,49.4756]},"surface":1339.22,"population":256,"departement":{"code":"08","nom":"Ardennes"},"region":{"code":"44","nom":"Grand Est"}},{"nom":"Toges","code":"08453","codesPostaux":["08400"],"centre":{"type":"Point","coordinates":[4.785,49.4256]},"surface":349.25,"population":99,"departement":{"code":"08","nom":"Ardennes"},"region":{"code":"44","nom":"Grand Est"}},{"nom":"Touligny","code":"08454","codesPostaux":["08430"],"centre":{"type":"Point","coordinates":[4.6168,49.6785]},"surface":726.39,"population":83,"departement":{"code":"08","nom":"Ardennes"},"region":{"code":"44","nom":"Grand Est"}},{"nom":"Tourcelles-Chaumont","code":"08455","codesPostaux":["08400"],"centre":{"type":"Point","coordinates":[4.5995,49.3986]},"surface":486.3,"population":91,"departement":{"code":"08","nom":"Ardennes"},"region":{"code":"44","nom":"Grand Est"}},{"nom":"Tournavaux","code":"08456","codesPostaux":["08800"],"centre":{"type":"Point","coordinates":[4.7827,49.8743]},"surface":164.58,"population":230,"departement":{"code":"08","nom":"Ardennes"},"region":{"code":"44","nom":"Grand Est"}},{"nom":"Tournes","code":"08457","codesPostaux":["08090"],"centre":{"type":"Point","coordinates":[4.6366,49.7991]},"surface":820.77,"population":1056,"departement":{"code":"08","nom":"Ardennes"},"region":{"code":"44","nom":"Grand Est"}},{"nom":"Tourteron","code":"08458","codesPostaux":["08130"],"centre":{"type":"Point","coordinates":[4.6399,49.5428]},"surface":889.57,"population":179,"departement":{"code":"08","nom":"Ardennes"},"region":{"code":"44","nom":"Grand Est"}},{"nom":"Tremblois-lès-Carignan","code":"08459","codesPostaux":["08110"],"centre":{"type":"Point","coordinates":[5.264,49.6666]},"surface":435.89,"population":139,"departement":{"code":"08","nom":"Ardennes"},"region":{"code":"44","nom":"Grand Est"}},{"nom":"Tremblois-lès-Rocroi","code":"08460","codesPostaux":["08150"],"centre":{"type":"Point","coordinates":[4.4994,49.8438]},"surface":168.68,"population":154,"departement":{"code":"08","nom":"Ardennes"},"region":{"code":"44","nom":"Grand Est"}},{"nom":"Vandy","code":"08461","codesPostaux":["08400"],"centre":{"type":"Point","coordinates":[4.7195,49.4428]},"surface":1118.3,"population":202,"departement":{"code":"08","nom":"Ardennes"},"region":{"code":"44","nom":"Grand Est"}},{"nom":"Vaux-Champagne","code":"08462","codesPostaux":["08130"],"centre":{"type":"Point","coordinates":[4.5517,49.449]},"surface":1081.98,"population":135,"departement":{"code":"08","nom":"Ardennes"},"region":{"code":"44","nom":"Grand Est"}},{"nom":"Vaux-en-Dieulet","code":"08463","codesPostaux":["08240"],"centre":{"type":"Point","coordinates":[4.9936,49.4803]},"surface":1094.42,"population":54,"departement":{"code":"08","nom":"Ardennes"},"region":{"code":"44","nom":"Grand Est"}},{"nom":"Vaux-lès-Mouron","code":"08464","codesPostaux":["08250"],"centre":{"type":"Point","coordinates":[4.787,49.2976]},"surface":223.01,"population":79,"departement":{"code":"08","nom":"Ardennes"},"region":{"code":"44","nom":"Grand Est"}},{"nom":"Vaux-lès-Rubigny","code":"08465","codesPostaux":["08220"],"centre":{"type":"Point","coordinates":[4.1835,49.6881]},"surface":394.29,"population":43,"departement":{"code":"08","nom":"Ardennes"},"region":{"code":"44","nom":"Grand Est"}},{"nom":"Vaux-lès-Mouzon","code":"08466","codesPostaux":["08210"],"centre":{"type":"Point","coordinates":[5.14,49.6009]},"surface":757.62,"population":71,"departement":{"code":"08","nom":"Ardennes"},"region":{"code":"44","nom":"Grand Est"}},{"nom":"Vaux-Montreuil","code":"08467","codesPostaux":["08270"],"centre":{"type":"Point","coordinates":[4.5546,49.5858]},"surface":835.53,"population":107,"departement":{"code":"08","nom":"Ardennes"},"region":{"code":"44","nom":"Grand Est"}},{"nom":"Vaux-Villaine","code":"08468","codesPostaux":["08150"],"centre":{"type":"Point","coordinates":[4.4738,49.7673]},"surface":999.28,"population":192,"departement":{"code":"08","nom":"Ardennes"},"region":{"code":"44","nom":"Grand Est"}},{"nom":"Vendresse","code":"08469","codesPostaux":["08160"],"centre":{"type":"Point","coordinates":[4.7889,49.6077]},"surface":4332.6,"population":471,"departement":{"code":"08","nom":"Ardennes"},"region":{"code":"44","nom":"Grand Est"}},{"nom":"Verpel","code":"08470","codesPostaux":["08240"],"centre":{"type":"Point","coordinates":[4.9266,49.3811]},