[{"nom":"Argol","code":"29001","codesPostaux":["29560"],"centre":{"type":"Point","coordinates":[-4.3047,48.2443]},"surface":3154.74,"population":1043,"departement":{"code":"29","nom":"Finistère"},"region":{"code":"53","nom":"Bretagne"}},{"nom":"Arzano","code":"29002","codesPostaux":["29300"],"centre":{"type":"Point","coordinates":[-3.4508,47.8944]},"surface":3394.62,"population":1440,"departement":{"code":"29","nom":"Finistère"},"region":{"code":"53","nom":"Bretagne"}},{"nom":"Audierne","code":"29003","codesPostaux":["29770"],"centre":{"type":"Point","coordinates":[-4.5651,48.028]},"surface":1862.73,"population":3708,"departement":{"code":"29","nom":"Finistère"},"region":{"code":"53","nom":"Bretagne"}},{"nom":"Bannalec","code":"29004","codesPostaux":["29380"],"centre":{"type":"Point","coordinates":[-3.6883,47.9362]},"surface":7797.73,"population":5707,"departement":{"code":"29","nom":"Finistère"},"region":{"code":"53","nom":"Bretagne"}},{"nom":"Baye","code":"29005","codesPostaux":["29300"],"centre":{"type":"Point","coordinates":[-3.6111,47.8555]},"surface":733.12,"population":1363,"departement":{"code":"29","nom":"Finistère"},"region":{"code":"53","nom":"Bretagne"}},{"nom":"Bénodet","code":"29006","codesPostaux":["29950"],"centre":{"type":"Point","coordinates":[-4.0743,47.8762]},"surface":1041.59,"population":3878,"departement":{"code":"29","nom":"Finistère"},"region":{"code":"53","nom":"Bretagne"}},{"nom":"Berrien","code":"29007","codesPostaux":["29690"],"centre":{"type":"Point","coordinates":[-3.7649,48.4011]},"surface":5608.64,"population":920,"departement":{"code":"29","nom":"Finistère"},"region":{"code":"53","nom":"Bretagne"}},{"nom":"Beuzec-Cap-Sizun","code":"29008","codesPostaux":["29790"],"centre":{"type":"Point","coordinates":[-4.5116,48.0729]},"surface":3491.5,"population":1018,"departement":{"code":"29","nom":"Finistère"},"region":{"code":"53","nom":"Bretagne"}},{"nom":"Bodilis","code":"29010","codesPostaux":["29400"],"centre":{"type":"Point","coordinates":[-4.1167,48.513]},"surface":2011.59,"population":1700,"departement":{"code":"29","nom":"Finistère"},"region":{"code":"53","nom":"Bretagne"}},{"nom":"Bohars","code":"29011","codesPostaux":["29820"],"centre":{"type":"Point","coordinates":[-4.5214,48.4293]},"surface":735.07,"population":3671,"departement":{"code":"29","nom":"Finistère"},"region":{"code":"53","nom":"Bretagne"}},{"nom":"Bolazec","code":"29012","codesPostaux":["29640"],"centre":{"type":"Point","coordinates":[-3.588,48.4357]},"surface":1754.07,"population":172,"departement":{"code":"29","nom":"Finistère"},"region":{"code":"53","nom":"Bretagne"}},{"nom":"Botmeur","code":"29013","codesPostaux":["29690"],"centre":{"type":"Point","coordinates":[-3.9245,48.3796]},"surface":1431.83,"population":227,"departement":{"code":"29","nom":"Finistère"},"region":{"code":"53","nom":"Bretagne"}},{"nom":"Botsorhel","code":"29014","codesPostaux":["29650"],"centre":{"type":"Point","coordinates":[-3.6282,48.508]},"surface":2553.63,"population":428,"departement":{"code":"29","nom":"Finistère"},"region":{"code":"53","nom":"Bretagne"}},{"nom":"Bourg-Blanc","code":"29015","codesPostaux":["29860"],"centre":{"type":"Point","coordinates":[-4.4968,48.4933]},"surface":2857.95,"population":3544,"departement":{"code":"29","nom":"Finistère"},"region":{"code":"53","nom":"Bretagne"}},{"nom":"Brasparts","code":"29016","codesPostaux":["29190"],"centre":{"type":"Point","coordinates":[-3.9528,48.3185]},"surface":4717.22,"population":1055,"departement":{"code":"29","nom":"Finistère"},"region":{"code":"53","nom":"Bretagne"}},{"nom":"Brélès","code":"29017","codesPostaux":["29810"],"centre":{"type":"Point","coordinates":[-4.6877,48.473]},"surface":1399.29,"population":867,"departement":{"code":"29","nom":"Finistère"},"region":{"code":"53","nom":"Bretagne"}},{"nom":"Brennilis","code":"29018","codesPostaux":["29690"],"centre":{"type":"Point","coordinates":[-3.8438,48.3635]},"surface":2032.93,"population":447,"departement":{"code":"29","nom":"Finistère"},"region":{"code":"53","nom":"Bretagne"}},{"nom":"Brest","code":"29019","codesPostaux":["29200"],"centre":{"type":"Point","coordinates":[-4.4996,48.4084]},"surface":4918.32,"population":140993,"departement":{"code":"29","nom":"Finistère"},"region":{"code":"53","nom":"Bretagne"}},{"nom":"Briec","code":"29020","codesPostaux":["29510"],"centre":{"type":"Point","coordinates":[-4.0011,48.0964]},"surface":6756.7,"population":5815,"departement":{"code":"29","nom":"Finistère"},"region":{"code":"53","nom":"Bretagne"}},{"nom":"Plounéour-Brignogan-plages","code":"29021","codesPostaux":["29890"],"centre":{"type":"Point","coordinates":[-4.3245,48.6519]},"surface":1495.09,"population":1955,"departement":{"code":"29","nom":"Finistère"},"region":{"code":"53","nom":"Bretagne"}},{"nom":"Camaret-sur-Mer","code":"29022","codesPostaux":["29570"],"centre":{"type":"Point","coordinates":[-4.5958,48.2672]},"surface":1314.07,"population":2448,"departement":{"code":"29","nom":"Finistère"},"region":{"code":"53","nom":"Bretagne"}},{"nom":"Carantec","code":"29023","codesPostaux":["29660"],"centre":{"type":"Point","coordinates":[-3.9118,48.6693]},"surface":916.82,"population":3261,"departement":{"code":"29","nom":"Finistère"},"region":{"code":"53","nom":"Bretagne"}},{"nom":"Carhaix-Plouguer","code":"29024","codesPostaux":["29270"],"centre":{"type":"Point","coordinates":[-3.5654,48.2708]},"surface":2590.65,"population":7326,"departement":{"code":"29","nom":"Finistère"},"region":{"code":"53","nom":"Bretagne"}},{"nom":"Cast","code":"29025","codesPostaux":["29150"],"centre":{"type":"Point","coordinates":[-4.1288,48.1501]},"surface":3739.89,"population":1557,"departement":{"code":"29","nom":"Finistère"},"region":{"code":"53","nom":"Bretagne"}},{"nom":"Châteaulin","code":"29026","codesPostaux":["29150"],"centre":{"type":"Point","coordinates":[-4.0765,48.2023]},"surface":2013.04,"population":5106,"departement":{"code":"29","nom":"Finistère"},"region":{"code":"53","nom":"Bretagne"}},{"nom":"Châteauneuf-du-Faou","code":"29027","codesPostaux":["29520"],"centre":{"type":"Point","coordinates":[-3.8244,48.1868]},"surface":4181.62,"population":3646,"departement":{"code":"29","nom":"Finistère"},"region":{"code":"53","nom":"Bretagne"}},{"nom":"Cléden-Cap-Sizun","code":"29028","codesPostaux":["29770"],"centre":{"type":"Point","coordinates":[-4.6624,48.0556]},"surface":1937.88,"population":912,"departement":{"code":"29","nom":"Finistère"},"region":{"code":"53","nom":"Bretagne"}},{"nom":"Cléden-Poher","code":"29029","codesPostaux":["29270"],"centre":{"type":"Point","coordinates":[-3.6639,48.2431]},"surface":3014.98,"population":1135,"departement":{"code":"29","nom":"Finistère"},"region":{"code":"53","nom":"Bretagne"}},{"nom":"Cléder","code":"29030","codesPostaux":["29233"],"centre":{"type":"Point","coordinates":[-4.1239,48.6578]},"surface":3746.03,"population":3582,"departement":{"code":"29","nom":"Finistère"},"region":{"code":"53","nom":"Bretagne"}},{"nom":"Clohars-Carnoët","code":"29031","codesPostaux":["29360"],"centre":{"type":"Point","coordinates":[-3.5682,47.7981]},"surface":3538.93,"population":4701,"departement":{"code":"29","nom":"Finistère"},"region":{"code":"53","nom":"Bretagne"}},{"nom":"Clohars-Fouesnant","code":"29032","codesPostaux":["29950"],"centre":{"type":"Point","coordinates":[-4.0827,47.8999]},"surface":1289.8,"population":2152,"departement":{"code":"29","nom":"Finistère"},"region":{"code":"53","nom":"Bretagne"}},{"nom":"Le Cloître-Pleyben","code":"29033","codesPostaux":["29190"],"centre":{"type":"Point","coordinates":[-3.9006,48.2581]},"surface":2044.95,"population":508,"departement":{"code":"29","nom":"Finistère"},"region":{"code":"53","nom":"Bretagne"}},{"nom":"Le Cloître-Saint-Thégonnec","code":"29034","codesPostaux":["29410"],"centre":{"type":"Point","coordinates":[-3.792,48.4571]},"surface":2861.85,"population":644,"departement":{"code":"29","nom":"Finistère"},"region":{"code":"53","nom":"Bretagne"}},{"nom":"Coat-Méal","code":"29035","codesPostaux":["29870"],"centre":{"type":"Point","coordinates":[-4.5431,48.5077]},"surface":1074.35,"population":1135,"departement":{"code":"29","nom":"Finistère"},"region":{"code":"53","nom":"Bretagne"}},{"nom":"Collorec","code":"29036","codesPostaux":["29530"],"centre":{"type":"Point","coordinates":[-3.7642,48.2892]},"surface":2823.74,"population":592,"departement":{"code":"29","nom":"Finistère"},"region":{"code":"53","nom":"Bretagne"}},{"nom":"Combrit","code":"29037","codesPostaux":["29120"],"centre":{"type":"Point","coordinates":[-4.1607,47.8922]},"surface":2413.64,"population":4271,"departement":{"code":"29","nom":"Finistère"},"region":{"code":"53","nom":"Bretagne"}},{"nom":"Commana","code":"29038","codesPostaux":["29450"],"centre":{"type":"Point","coordinates":[-3.9724,48.4126]},"surface":4033.31,"population":994,"departement":{"code":"29","nom":"Finistère"},"region":{"code":"53","nom":"Bretagne"}},{"nom":"Concarneau","code":"29039","codesPostaux":["29900"],"centre":{"type":"Point","coordinates":[-3.8993,47.8977]},"surface":4081.67,"population":20632,"departement":{"code":"29","nom":"Finistère"},"region":{"code":"53","nom":"Bretagne"}},{"nom":"Le Conquet","code":"29040","codesPostaux":["29217"],"centre":{"type":"Point","coordinates":[-4.8819,48.3714]},"surface":933.16,"population":2814,"departement":{"code":"29","nom":"Finistère"},"region":{"code":"53","nom":"Bretagne"}},{"nom":"Coray","code":"29041","codesPostaux":["29370"],"centre":{"type":"Point","coordinates":[-3.8618,48.07]},"surface":3141.57,"population":1869,"departement":{"code":"29","nom":"Finistère"},"region":{"code":"53","nom":"Bretagne"}},{"nom":"Crozon","code":"29042","codesPostaux":["29160"],"centre":{"type":"Point","coordinates":[-4.4687,48.2395]},"surface":8050.76,"population":7410,"departement":{"code":"29","nom":"Finistère"},"region":{"code":"53","nom":"Bretagne"}},{"nom":"Daoulas","code":"29043","codesPostaux":["29460"],"centre":{"type":"Point","coordinates":[-4.269,48.358]},"surface":569.73,"population":1835,"departement":{"code":"29","nom":"Finistère"},"region":{"code":"53","nom":"Bretagne"}},{"nom":"Dinéault","code":"29044","codesPostaux":["29150"],"centre":{"type":"Point","coordinates":[-4.1755,48.2164]},"surface":4726.67,"population":1858,"departement":{"code":"29","nom":"Finistère"},"region":{"code":"53","nom":"Bretagne"}},{"nom":"Dirinon","code":"29045","codesPostaux":["29460"],"centre":{"type":"Point","coordinates":[-4.2633,48.3977]},"surface":3293.73,"population":2195,"departement":{"code":"29","nom":"Finistère"},"region":{"code":"53","nom":"Bretagne"}},{"nom":"Douarnenez","code":"29046","codesPostaux":["29100"],"centre":{"type":"Point","coordinates":[-4.3243,48.0793]},"surface":2565.72,"population":14188,"departement":{"code":"29","nom":"Finistère"},"region":{"code":"53","nom":"Bretagne"}},{"nom":"Le Drennec","code":"29047","codesPostaux":["29860"],"centre":{"type":"Point","coordinates":[-4.3825,48.534]},"surface":958.39,"population":1911,"departement":{"code":"29","nom":"Finistère"},"region":{"code":"53","nom":"Bretagne"}},{"nom":"Edern","code":"29048","codesPostaux":["29510"],"centre":{"type":"Point","coordinates":[-3.9583,48.1133]},"surface":4033.62,"population":2199,"departement":{"code":"29","nom":"Finistère"},"region":{"code":"53","nom":"Bretagne"}},{"nom":"Elliant","code":"29049","codesPostaux":["29370"],"centre":{"type":"Point","coordinates":[-3.9053,48.0073]},"surface":7055.61,"population":3379,"departement":{"code":"29","nom":"Finistère"},"region":{"code":"53","nom":"Bretagne"}},{"nom":"Ergué-Gabéric","code":"29051","codesPostaux":["29500"],"centre":{"type":"Point","coordinates":[-4.0111,48.0115]},"surface":3968.89,"population":8576,"departement":{"code":"29","nom":"Finistère"},"region":{"code":"53","nom":"Bretagne"}},{"nom":"Le Faou","code":"29053","codesPostaux":["29590"],"centre":{"type":"Point","coordinates":[-4.1422,48.3028]},"surface":1199.7,"population":1882,"departement":{"code":"29","nom":"Finistère"},"region":{"code":"53","nom":"Bretagne"}},{"nom":"La Feuillée","code":"29054","codesPostaux":["29690"],"centre":{"type":"Point","coordinates":[-3.8585,48.3912]},"surface":3153.91,"population":684,"departement":{"code":"29","nom":"Finistère"},"region":{"code":"53","nom":"Bretagne"}},{"nom":"Le Folgoët","code":"29055","codesPostaux":["29260"],"centre":{"type":"Point","coordinates":[-4.3513,48.5678]},"surface":984.2,"population":3290,"departement":{"code":"29","nom":"Finistère"},"region":{"code":"53","nom":"Bretagne"}},{"nom":"La Forest-Landerneau","code":"29056","codesPostaux":["29800"],"centre":{"type":"Point","coordinates":[-4.3099,48.4323]},"surface":932.31,"population":1999,"departement":{"code":"29","nom":"Finistère"},"region":{"code":"53","nom":"Bretagne"}},{"nom":"La Forêt-Fouesnant","code":"29057","codesPostaux":["29940"],"centre":{"type":"Point","coordinates":[-3.9645,47.9203]},"surface":1909.82,"population":3485,"departement":{"code":"29","nom":"Finistère"},"region":{"code":"53","nom":"Bretagne"}},{"nom":"Fouesnant","code":"29058","codesPostaux":["29170"],"centre":{"type":"Point","coordinates":[-4.0404,47.8444]},"surface":3249.96,"population":10204,"departement":{"code":"29","nom":"Finistère"},"region":{"code":"53","nom":"Bretagne"}},{"nom":"Garlan","code":"29059","codesPostaux":["29610"],"centre":{"type":"Point","coordinates":[-3.7683,48.6055]},"surface":1339.32,"population":1063,"departement":{"code":"29","nom":"Finistère"},"region":{"code":"53","nom":"Bretagne"}},{"nom":"Gouesnach","code":"29060","codesPostaux":["29950"],"centre":{"type":"Point","coordinates":[-4.1097,47.9179]},"surface":1698.22,"population":2765,"departement":{"code":"29","nom":"Finistère"},"region":{"code":"53","nom":"Bretagne"}},{"nom":"Gouesnou","code":"29061","codesPostaux":["29850"],"centre":{"type":"Point","coordinates":[-4.4614,48.4471]},"surface":1218.91,"population":6412,"departement":{"code":"29","nom":"Finistère"},"region":{"code":"53","nom":"Bretagne"}},{"nom":"Gouézec","code":"29062","codesPostaux":["29190"],"centre":{"type":"Point","coordinates":[-3.9696,48.1717]},"surface":3113.93,"population":1115,"departement":{"code":"29","nom":"Finistère"},"region":{"code":"53","nom":"Bretagne"}},{"nom":"Goulien","code":"29063","codesPostaux":["29770"],"centre":{"type":"Point","coordinates":[-4.5903,48.0598]},"surface":1286,"population":440,"departement":{"code":"29","nom":"Finistère"},"region":{"code":"53","nom":"Bretagne"}},{"nom":"Goulven","code":"29064","codesPostaux":["29890"],"centre":{"type":"Point","coordinates":[-4.2949,48.6234]},"surface":655.12,"population":439,"departement":{"code":"29","nom":"Finistère"},"region":{"code":"53","nom":"Bretagne"}},{"nom":"Gourlizon","code":"29065","codesPostaux":["29710"],"centre":{"type":"Point","coordinates":[-4.267,48.0272]},"surface":989.31,"population":950,"departement":{"code":"29","nom":"Finistère"},"region":{"code":"53","nom":"Bretagne"}},{"nom":"Guengat","code":"29066","codesPostaux":["29180"],"centre":{"type":"Point","coordinates":[-4.1882,48.0414]},"surface":2286.95,"population":1836,"departement":{"code":"29","nom":"Finistère"},"region":{"code":"53","nom":"Bretagne"}},{"nom":"Guerlesquin","code":"29067","codesPostaux":["29650"],"centre":{"type":"Point","coordinates":[-3.5832,48.5289]},"surface":2200.54,"population":1259,"departement":{"code":"29","nom":"Finistère"},"region":{"code":"53","nom":"Bretagne"}},{"nom":"Guiclan","code":"29068","codesPostaux":["29410"],"centre":{"type":"Point","coordinates":[-3.9759,48.5485]},"surface":4299.23,"population":2564,"departement":{"code":"29","nom":"Finistère"},"region":{"code":"53","nom":"Bretagne"}},{"nom":"Guilers","code":"29069","codesPostaux":["29820"],"centre":{"type":"Point","coordinates":[-4.5625,48.4188]},"surface":1902.33,"population":8221,"departement":{"code":"29","nom":"Finistère"},"region":{"code":"53","nom":"Bretagne"}},{"nom":"Guiler-sur-Goyen","code":"29070","codesPostaux":["29710"],"centre":{"type":"Point","coordinates":[-4.3592,48.02]},"surface":1135.76,"population":521,"departement":{"code":"29","nom":"Finistère"},"region":{"code":"53","nom":"Bretagne"}},{"nom":"Guilligomarc'h","code":"29071","codesPostaux":["29300"],"centre":{"type":"Point","coordinates":[-3.4284,47.9462]},"surface":2300.51,"population":804,"departement":{"code":"29","nom":"Finistère"},"region":{"code":"53","nom":"Bretagne"}},{"nom":"Guilvinec","code":"29072","codesPostaux":["29730"],"centre":{"type":"Point","coordinates":[-4.2871,47.7997]},"surface":237.49,"population":2677,"departement":{"code":"29","nom":"Finistère"},"region":{"code":"53","nom":"Bretagne"}},{"nom":"Guimaëc","code":"29073","codesPostaux":["29620"],"centre":{"type":"Point","coordinates":[-3.7008,48.6815]},"surface":1904.54,"population":966,"departement":{"code":"29","nom":"Finistère"},"region":{"code":"53","nom":"Bretagne"}},{"nom":"Guimiliau","code":"29074","codesPostaux":["29400"],"centre":{"type":"Point","coordinates":[-3.9979,48.4826]},"surface":1130.26,"population":1000,"departement":{"code":"29","nom":"Finistère"},"region":{"code":"53","nom":"Bretagne"}},{"nom":"Guipavas","code":"29075","codesPostaux":["29490"],"centre":{"type":"Point","coordinates":[-4.3943,48.4305]},"surface":4384.34,"population":15401,"departement":{"code":"29","nom":"Finistère"},"region":{"code":"53","nom":"Bretagne"}},{"nom":"Milizac-Guipronvel","code":"29076","codesPostaux":["29290"],"centre":{"type":"Point","coordinates":[-4.5639,48.4707]},"surface":4187.55,"population":4733,"departement":{"code":"29","nom":"Finistère"},"region":{"code":"53","nom":"Bretagne"}},{"nom":"Guissény","code":"29077","codesPostaux":["29880"],"centre":{"type":"Point","coordinates":[-4.4066,48.615]},"surface":2537.57,"population":1974,"departement":{"code":"29","nom":"Finistère"},"region":{"code":"53","nom":"Bretagne"}},{"nom":"Hanvec","code":"29078","codesPostaux":["29460"],"centre":{"type":"Point","coordinates":[-4.1436,48.3269]},"surface":5951.56,"population":2035,"departement":{"code":"29","nom":"Finistère"},"region":{"code":"53","nom":"Bretagne"}},{"nom":"Henvic","code":"29079","codesPostaux":["29670"],"centre":{"type":"Point","coordinates":[-3.9247,48.6333]},"surface":1036.91,"population":1195,"departement":{"code":"29","nom":"Finistère"},"region":{"code":"53","nom":"Bretagne"}},{"nom":"Hôpital-Camfrout","code":"29080","codesPostaux":["29460"],"centre":{"type":"Point","coordinates":[-4.2434,48.3212]},"surface":1320.03,"population":2220,"departement":{"code":"29","nom":"Finistère"},"region":{"code":"53","nom":"Bretagne"}},{"nom":"Huelgoat","code":"29081","codesPostaux":["29690"],"centre":{"type":"Point","coordinates":[-3.762,48.3621]},"surface":1482.57,"population":1420,"departement":{"code":"29","nom":"Finistère"},"region":{"code":"53","nom":"Bretagne"}},{"nom":"Île-de-Batz","code":"29082","codesPostaux":["29253"],"centre":{"type":"Point","coordinates":[-4.0052,48.7443]},"surface":318.96,"population":457,"departement":{"code":"29","nom":"Finistère"},"region":{"code":"53","nom":"Bretagne"}},{"nom":"Île-de-Sein","code":"29083","codesPostaux":["29990"],"centre":{"type":"Point","coordinates":[-4.8536,48.0373]},"surface":54.47,"population":280,"departement":{"code":"29","nom":"Finistère"},"region":{"code":"53","nom":"Bretagne"}},{"nom":"Île-Molène","code":"29084","codesPostaux":["29259"],"centre":{"type":"Point","coordinates":[-4.9616,48.3983]},"surface":89.24,"population":166,"departement":{"code":"29","nom":"Finistère"},"region":{"code":"53","nom":"Bretagne"}},{"nom":"Île-Tudy","code":"29085","codesPostaux":["29980"],"centre":{"type":"Point","coordinates":[-4.1606,47.8506]},"surface":131.09,"population":745,"departement":{"code":"29","nom":"Finistère"},"region":{"code":"53","nom":"Bretagne"}},{"nom":"Irvillac","code":"29086","codesPostaux":["29460"],"centre":{"type":"Point","coordinates":[-4.1975,48.3677]},"surface":2968.08,"population":1427,"departement":{"code":"29","nom":"Finistère"},"region":{"code":"53","nom":"Bretagne"}},{"nom":"Le Juch","code":"29087","codesPostaux":["29100"],"centre":{"type":"Point","coordinates":[-4.2646,48.0562]},"surface":1426.03,"population":753,"departement":{"code":"29","nom":"Finistère"},"region":{"code":"53","nom":"Bretagne"}},{"nom":"Kergloff","code":"29089","codesPostaux":["29270"],"centre":{"type":"Point","coordinates":[-3.648,48.2818]},"surface":2498.04,"population":878,"departement":{"code":"29","nom":"Finistère"},"region":{"code":"53","nom":"Bretagne"}},{"nom":"Kerlaz","code":"29090","codesPostaux":["29100"],"centre":{"type":"Point","coordinates":[-4.2649,48.0907]},"surface":1174.47,"population":798,"departement":{"code":"29","nom":"Finistère"},"region":{"code":"53","nom":"Bretagne"}},{"nom":"Kerlouan","code":"29091","codesPostaux":["29890"],"centre":{"type":"Point","coordinates":[-4.3926,48.6498]},"surface":1805.01,"population":2028,"departement":{"code":"29","nom":"Finistère"},"region":{"code":"53","nom":"Bretagne"}},{"nom":"Kernilis","code":"29093","codesPostaux":["29260"],"centre":{"type":"Point","coordinates":[-4.4119,48.5759]},"surface":1015.53,"population":1418,"departement":{"code":"29","nom":"Finistère"},"region":{"code":"53","nom":"Bretagne"}},{"nom":"Kernouës","code":"29094","codesPostaux":["29260"],"centre":{"type":"Point","coordinates":[-4.3465,48.5959]},"surface":775.06,"population":660,"departement":{"code":"29","nom":"Finistère"},"region":{"code":"53","nom":"Bretagne"}},{"nom":"Kersaint-Plabennec","code":"29095","codesPostaux":["29860"],"centre":{"type":"Point","coordinates":[-4.3639,48.4844]},"surface":1193.97,"population":1537,"departement":{"code":"29","nom":"Finistère"},"region":{"code":"53","nom":"Bretagne"}},{"nom":"Lampaul-Guimiliau","code":"29097","codesPostaux":["29400"],"centre":{"type":"Point","coordinates":[-4.0431,48.4801]},"surface":1758.17,"population":2004,"departement":{"code":"29","nom":"Finistère"},"region":{"code":"53","nom":"Bretagne"}},{"nom":"Lampaul-Plouarzel","code":"29098","codesPostaux":["29810"],"centre":{"type":"Point","coordinates":[-4.7644,48.4529]},"surface":404.76,"population":2176,"departement":{"code":"29","nom":"Finistère"},"region":{"code":"53","nom":"Bretagne"}},{"nom":"Lampaul-Ploudalmézeau","code":"29099","codesPostaux":["29830"],"centre":{"type":"Point","coordinates":[-4.6492,48.5589]},"surface":625.78,"population":815,"departement":{"code":"29","nom":"Finistère"},"region":{"code":"53","nom":"Bretagne"}},{"nom":"Lanarvily","code":"29100","codesPostaux":["29260"],"centre":{"type":"Point","coordinates":[-4.3869,48.5612]},"surface":586.4,"population":406,"departement":{"code":"29","nom":"Finistère"},"region":{"code":"53","nom":"Bretagne"}},{"nom":"Landéda","code":"29101","codesPostaux":["29870"],"centre":{"type":"Point","coordinates":[-4.5826,48.5944]},"surface":1113.99,"population":3695,"departement":{"code":"29","nom":"Finistère"},"region":{"code":"53","nom":"Bretagne"}},{"nom":"Landeleau","code":"29102","codesPostaux":["29530"],"centre":{"type":"Point","coordinates":[-3.7332,48.2497]},"surface":3030.65,"population":982,"departement":{"code":"29","nom":"Finistère"},"region":{"code":"53","nom":"Bretagne"}},{"nom":"Landerneau","code":"29103","codesPostaux":["29800"],"centre":{"type":"Point","coordinates":[-4.2661,48.4494]},"surface":1365.53,"population":16327,"departement":{"code":"29","nom":"Finistère"},"region":{"code":"53","nom":"Bretagne"}},{"nom":"Landévennec","code":"29104","codesPostaux":["29560"],"centre":{"type":"Point","coordinates":[-4.3104,48.2802]},"surface":1380.51,"population":335,"departement":{"code":"29","nom":"Finistère"},"region":{"code":"53","nom":"Bretagne"}},{"nom":"Landivisiau","code":"29105","codesPostaux":["29400"],"centre":{"type":"Point","coordinates":[-4.0615,48.5163]},"surface":1915.54,"population":9197,"departement":{"code":"29","nom":"Finistère"},"region":{"code":"53","nom":"Bretagne"}},{"nom":"Landrévarzec","code":"29106","codesPostaux":["29510"],"centre":{"type":"Point","coordinates":[-4.0757,48.0878]},"surface":2048.75,"population":1874,"departement":{"code":"29","nom":"Finistère"},"region":{"code":"53","nom":"Bretagne"}},{"nom":"Landudal","code":"29107","codesPostaux":["29510"],"centre":{"type":"Point","coordinates":[-3.9815,48.0585]},"surface":1704.44,"population":910,"departement":{"code":"29","nom":"Finistère"},"region":{"code":"53","nom":"Bretagne"}},{"nom":"Landudec","code":"29108","codesPostaux":["29710"],"centre":{"type":"Point","coordinates":[-4.3325,47.9986]},"surface":2084.83,"population":1477,"departement":{"code":"29","nom":"Finistère"},"region":{"code":"53","nom":"Bretagne"}},{"nom":"Landunvez","code":"29109","codesPostaux":["29840"],"centre":{"type":"Point","coordinates":[-4.7392,48.5379]},"surface":1458.33,"population":1548,"departement":{"code":"29","nom":"Finistère"},"region":{"code":"53","nom":"Bretagne"}},{"nom":"Langolen","code":"29110","codesPostaux":["29510"],"centre":{"type":"Point","coordinates":[-3.911,48.0736]},"surface":1710.18,"population":839,"departement":{"code":"29","nom":"Finistère"},"region":{"code":"53","nom":"Bretagne"}},{"nom":"Lanhouarneau","code":"29111","codesPostaux":["29430"],"centre":{"type":"Point","coordinates":[-4.2059,48.5753]},"surface":1795.49,"population":1294,"departement":{"code":"29","nom":"Finistère"},"region":{"code":"53","nom":"Bretagne"}},{"nom":"Lanildut","code":"29112","codesPostaux":["29840"],"centre":{"type":"Point","coordinates":[-4.7343,48.4821]},"surface":583.76,"population":987,"departement":{"code":"29","nom":"Finistère"},"region":{"code":"53","nom":"Bretagne"}},{"nom":"Lanmeur","code":"29113","codesPostaux":["29620"],"centre":{"type":"Point","coordinates":[-3.7187,48.644]},"surface":2650.13,"population":2367,"departement":{"code":"29","nom":"Finistère"},"region":{"code":"53","nom":"Bretagne"}},{"nom":"Lannéanou","code":"29114","codesPostaux":["29640"],"centre":{"type":"Point","coordinates":[-3.6652,48.4971]},"surface":1629.49,"population":341,"departement":{"code":"29","nom":"Finistère"},"region":{"code":"53","nom":"Bretagne"}},{"nom":"Lannédern","code":"29115","codesPostaux":["29190"],"centre":{"type":"Point","coordinates":[-3.9033,48.2883]},"surface":1235.82,"population":321,"departement":{"code":"29","nom":"Finistère"},"region":{"code":"53","nom":"Bretagne"}},{"nom":"Lanneuffret","code":"29116","codesPostaux":["29400"],"centre":{"type":"Point","coordinates":[-4.2021,48.4959]},"surface":222.46,"population":150,"departement":{"code":"29","nom":"Finistère"},"region":{"code":"53","nom":"Bretagne"}},{"nom":"Lannilis","code":"29117","codesPostaux":["29870"],"centre":{"type":"Point","coordinates":[-4.5244,48.5719]},"surface":2538.86,"population":5712,"departement":{"code":"29","nom":"Finistère"},"region":{"code":"53","nom":"Bretagne"}},{"nom":"Lanrivoaré","code":"29119","codesPostaux":["29290"],"centre":{"type":"Point","coordinates":[-4.6368,48.4683]},"surface":1550.8,"population":1539,"departement":{"code":"29","nom":"Finistère"},"region":{"code":"53","nom":"Bretagne"}},{"nom":"Lanvéoc","code":"29120","codesPostaux":["29160"],"centre":{"type":"Point","coordinates":[-4.4434,48.2764]},"surface":1926.89,"population":1951,"departement":{"code":"29","nom":"Finistère"},"region":{"code":"53","nom":"Bretagne"}},{"nom":"Laz","code":"29122","codesPostaux":["29520"],"centre":{"type":"Point","coordinates":[-3.8363,48.1347]},"surface":3386.59,"population":684,"departement":{"code":"29","nom":"Finistère"},"region":{"code":"53","nom":"Bretagne"}},{"nom":"Lennon","code":"29123","codesPostaux":["29190"],"centre":{"type":"Point","coordinates":[-3.9026,48.207]},"surface":2281.38,"population":801,"departement":{"code":"29","nom":"Finistère"},"region":{"code":"53","nom":"Bretagne"}},{"nom":"Lesneven","code":"29124","codesPostaux":["29260"],"centre":{"type":"Point","coordinates":[-4.3104,48.5814]},"surface":1019.11,"population":7471,"departement":{"code":"29","nom":"Finistère"},"region":{"code":"53","nom":"Bretagne"}},{"nom":"Leuhan","code":"29125","codesPostaux":["29390"],"centre":{"type":"Point","coordinates":[-3.7764,48.0941]},"surface":3268.15,"population":836,"departement":{"code":"29","nom":"Finistère"},"region":{"code":"53","nom":"Bretagne"}},{"nom":"Loc-Brévalaire","code":"29126","codesPostaux":["29260"],"centre":{"type":"Point","coordinates":[-4.4065,48.554]},"surface":165.41,"population":210,"departement":{"code":"29","nom":"Finistère"},"region":{"code":"53","nom":"Bretagne"}},{"nom":"Loc-Eguiner","code":"29128","codesPostaux":["29400"],"centre":{"type":"Point","coordinates":[-4.0952,48.4739]},"surface":1208.21,"population":378,"departement":{"code":"29","nom":"Finistère"},"region":{"code":"53","nom":"Bretagne"}},{"nom":"Locmaria-Plouzané","code":"29130","codesPostaux":["29280"],"centre":{"type":"Point","coordinates":[-4.6533,48.3713]},"surface":2320.7,"population":5160,"departement":{"code":"29","nom":"Finistère"},"region":{"code":"53","nom":"Bretagne"}},{"nom":"Locmélar","code":"29131","codesPostaux":["29400"],"centre":{"type":"Point","coordinates":[-4.0602,48.4533]},"surface":1593.81,"population":476,"departement":{"code":"29","nom":"Finistère"},"region":{"code":"53","nom":"Bretagne"}},{"nom":"Locquénolé","code":"29132","codesPostaux":["29670"],"centre":{"type":"Point","coordinates":[-3.8641,48.6236]},"surface":91.22,"population":792,"departement":{"code":"29","nom":"Finistère"},"region":{"code":"53","nom":"Bretagne"}},{"nom":"Locquirec","code":"29133","codesPostaux":["29241"],"centre":{"type":"Point","coordinates":[-3.6708,48.6817]},"surface":619.07,"population":1543,"departement":{"code":"29","nom":"Finistère"},"region":{"code":"53","nom":"Bretagne"}},{"nom":"Locronan","code":"29134","codesPostaux":["29180"],"centre":{"type":"Point","coordinates":[-4.2102,48.0955]},"surface":799.98,"population":806,"departement":{"code":"29","nom":"Finistère"},"region":{"code":"53","nom":"Bretagne"}},{"nom":"Loctudy","code":"29135","codesPostaux":["29750"],"centre":{"type":"Point","coordinates":[-4.1853,47.8246]},"surface":1333.31,"population":4043,"departement":{"code":"29","nom":"Finistère"},"region":{"code":"53","nom":"Bretagne"}},{"nom":"Locunolé","code":"29136","codesPostaux":["29310"],"centre":{"type":"Point","coordinates":[-3.4859,47.9239]},"surface":1686.05,"population":1166,"departement":{"code":"29","nom":"Finistère"},"region":{"code":"53","nom":"Bretagne"}},{"nom":"Logonna-Daoulas","code":"29137","codesPostaux":["29460"],"centre":{"type":"Point","coordinates":[-4.293,48.3292]},"surface":1236.96,"population":2127,"departement":{"code":"29","nom":"Finistère"},"region":{"code":"53","nom":"Bretagne"}},{"nom":"Lopérec","code":"29139","codesPostaux":["29590"],"centre":{"type":"Point","coordinates":[-4.0352,48.3062]},"surface":3999.68,"population":832,"departement":{"code":"29","nom":"Finistère"},"region":{"code":"53","nom":"Bretagne"}},{"nom":"Loperhet","code":"29140","codesPostaux":["29470"],"centre":{"type":"Point","coordinates":[-4.3142,48.3779]},"surface":2043.65,"population":3952,"departement":{"code":"29","nom":"Finistère"},"region":{"code":"53","nom":"Bretagne"}},{"nom":"Loqueffret","code":"29141","codesPostaux":["29530"],"centre":{"type":"Point","coordinates":[-3.8466,48.3278]},"surface":2774.3,"population":338,"departement":{"code":"29","nom":"Finistère"},"region":{"code":"53","nom":"Bretagne"}},{"nom":"Lothey","code":"29142","codesPostaux":["29190"],"centre":{"type":"Point","coordinates":[-4.0277,48.1874]},"surface":1329.47,"population":444,"departement":{"code":"29","nom":"Finistère"},"region":{"code":"53","nom":"Bretagne"}},{"nom":"Mahalon","code":"29143","codesPostaux":["29790"],"centre":{"type":"Point","coordinates":[-4.4208,48.0286]},"surface":2123.22,"population":1010,"departement":{"code":"29","nom":"Finistère"},"region":{"code":"53","nom":"Bretagne"}},{"nom":"La Martyre","code":"29144","codesPostaux":["29800"],"centre":{"type":"Point","coordinates":[-4.1712,48.4341]},"surface":1833.51,"population":756,"departement":{"code":"29","nom":"Finistère"},"region":{"code":"53","nom":"Bretagne"}},{"nom":"Confort-Meilars","code":"29145","codesPostaux":["29790"],"centre":{"type":"Point","coordinates":[-4.435,48.0596]},"surface":1482.24,"population":860,"departement":{"code":"29","nom":"Finistère"},"region":{"code":"53","nom":"Bretagne"}},{"nom":"Melgven","code":"29146","codesPostaux":["29140"],"centre":{"type":"Point","coordinates":[-3.8433,47.9084]},"surface":5119.83,"population":3388,"departement":{"code":"29","nom":"Finistère"},"region":{"code":"53","nom":"Bretagne"}},{"nom":"Mellac","code":"29147","codesPostaux":["29300"],"centre":{"type":"Point","coordinates":[-3.5835,47.8984]},"surface":2651.07,"population":3371,"departement":{"code":"29","nom":"Finistère"},"region":{"code":"53","nom":"Bretagne"}},{"nom":"Mespaul","code":"29148","codesPostaux":["29420"],"centre":{"type":"Point","coordinates":[-4.0357,48.6161]},"surface":1152.89,"population":935,"departement":{"code":"29","nom":"Finistère"},"region":{"code":"53","nom":"Bretagne"}},{"nom":"Moëlan-sur-Mer","code":"29150","codesPostaux":["29350"],"centre":{"type":"Point","coordinates":[-3.6522,47.8075]},"surface":4744.07,"population":6763,"departement":{"code":"29","nom":"Finistère"},"region":{"code":"53","nom":"Bretagne"}},{"nom":"Morlaix","code":"29151","codesPostaux":["29600"],"centre":{"type":"Point","coordinates":[-3.8214,48.5971]},"surface":2525.53,"population":15220,"departement":{"code":"29","nom":"Finistère"},"region":{"code":"53","nom":"Bretagne"}},{"nom":"Motreff","code":"29152","codesPostaux":["29270"],"centre":{"type":"Point","coordinates":[-3.5602,48.2215]},"surface":2146.55,"population":679,"departement":{"code":"29","nom":"Finistère"},"region":{"code":"53","nom":"Bretagne"}},{"nom":"Névez","code":"29153","codesPostaux":["29920"],"centre":{"type":"Point","coordinates":[-3.7747,47.8091]},"surface":2568.92,"population":2721,"departement":{"code":"29","nom":"Finistère"},"region":{"code":"53","nom":"Bretagne"}},{"nom":"Ouessant","code":"29155","codesPostaux":["29242"],"centre":{"type":"Point","coordinates":[-5.0869,48.4601]},"surface":1623.2,"population":854,"departement":{"code":"29","nom":"Finistère"},"region":{"code":"53","nom":"Bretagne"}},{"nom":"Pencran","code":"29156","codesPostaux":["29800"],"centre":{"type":"Point","coordinates":[-4.2194,48.4447]},"surface":892.72,"population":2229,"departement":{"code":"29","nom":"Finistère"},"region":{"code":"53","nom":"Bretagne"}},{"nom":"Penmarch","code":"29158","codesPostaux":["29760"],"centre":{"type":"Point","coordinates":[-4.3403,47.8131]},"surface":1658.5,"population":5320,"departement":{"code":"29","nom":"Finistère"},"region":{"code":"53","nom":"Bretagne"}},{"nom":"Peumerit","code":"29159","codesPostaux":["29710"],"centre":{"type":"Point","coordinates":[-4.2957,47.9461]},"surface":1966.13,"population":903,"departement":{"code":"29","nom":"Finistère"},"region":{"code":"53","nom":"Bretagne"}},{"nom":"Plabennec","code":"29160","codesPostaux":["29860"],"centre":{"type":"Point","coordinates":[-4.4254,48.5012]},"surface":5050.31,"population":8633,"departement":{"code":"29","nom":"Finistère"},"region":{"code":"53","nom":"Bretagne"}},{"nom":"Pleuven","code":"29161","codesPostaux":["29170"],"centre":{"type":"Point","coordinates":[-4.049,47.9132]},"surface":1367.11,"population":3298,"departement":{"code":"29","nom":"Finistère"},"region":{"code":"53","nom":"Bretagne"}},{"nom":"Pleyben","code":"29162","codesPostaux":["29190"],"centre":{"type":"Point","coordinates":[-3.9783,48.2418]},"surface":7594.44,"population":3649,"departement":{"code":"29","nom":"Finistère"},"region":{"code":"53","nom":"Bretagne"}},{"nom":"Pleyber-Christ","code":"29163","codesPostaux":["29410"],"centre":{"type":"Point","coordinates":[-3.8754,48.5081]},"surface":4573.27,"population":3175,"departement":{"code":"29","nom":"Finistère"},"region":{"code":"53","nom":"Bretagne"}},{"nom":"Plobannalec-Lesconil","code":"29165","codesPostaux":["29740"],"centre":{"type":"Point","coordinates":[-4.2282,47.8209]},"surface":1851.76,"population":3694,"departement":{"code":"29","nom":"Finistère"},"region":{"code":"53","nom":"Bretagne"}},{"nom":"Ploéven","code":"29166","codesPostaux":["29550"],"centre":{"type":"Point","coordinates":[-4.2216,48.158]},"surface":1302.93,"population":534,"departement":{"code":"29","nom":"Finistère"},"region":{"code":"53","nom":"Bretagne"}},{"nom":"Plogastel-Saint-Germain","code":"29167","codesPostaux":["29710"],"centre":{"type":"Point","coordinates":[-4.2689,47.9748]},"surface":3149.76,"population":2016,"departement":{"code":"29","nom":"Finistère"},"region":{"code":"53","nom":"Bretagne"}},{"nom":"Plogoff","code":"29168","codesPostaux":["29770"],"centre":{"type":"Point","coordinates":[-4.687,48.0342]},"surface":1201.54,"population":1166,"departement":{"code":"29","nom":"Finistère"},"region":{"code":"53","nom":"Bretagne"}},{"nom":"Plogonnec","code":"29169","codesPostaux":["29180"],"centre":{"type":"Point","coordinates":[-4.1759,48.0694]},"surface":5371.88,"population":3223,"departement":{"code":"29","nom":"Finistère"},"region":{"code":"53","nom":"Bretagne"}},{"nom":"Plomelin","code":"29170","codesPostaux":["29700"],"centre":{"type":"Point","coordinates":[-4.1499,47.9313]},"surface":2624.34,"population":4216,"departement":{"code":"29","nom":"Finistère"},"region":{"code":"53","nom":"Bretagne"}},{"nom":"Plomeur","code":"29171","codesPostaux":["29120"],"centre":{"type":"Point","coordinates":[-4.3007,47.8377]},"surface":2975.65,"population":3877,"departement":{"code":"29","nom":"Finistère"},"region":{"code":"53","nom":"Bretagne"}},{"nom":"Plomodiern","code":"29172","codesPostaux":["29550"],"centre":{"type":"Point","coordinates":[-4.2046,48.1807]},"surface":4666.82,"population":2254,"departement":{"code":"29","nom":"Finistère"},"region":{"code":"53","nom":"Bretagne"}},{"nom":"Plonéis","code":"29173","codesPostaux":["29710"],"centre":{"type":"Point","coordinates":[-4.2066,48.0099]},"surface":2212.38,"population":2405,"departement":{"code":"29","nom":"Finistère"},"region":{"code":"53","nom":"Bretagne"}},{"nom":"Plonéour-Lanvern","code":"29174","codesPostaux":["29720"],"centre":{"type":"Point","coordinates":[-4.2678,47.9066]},"surface":4881.34,"population":6403,"departement":{"code":"29","nom":"Finistère"},"region":{"code":"53","nom":"Bretagne"}},{"nom":"Plonévez-du-Faou","code":"29175","codesPostaux":["29530"],"centre":{"type":"Point","coordinates":[-3.8095,48.2649]},"surface":8083.64,"population":2174,"departement":{"code":"29","nom":"Finistère"},"region":{"code":"53","nom":"Bretagne"}},{"nom":"Plonévez-Porzay","code":"29176","codesPostaux":["29550"],"centre":{"type":"Point","coordinates":[-4.2387,48.1247]},"surface":2911.23,"population":1783,"departement":{"code":"29","nom":"Finistère"},"region":{"code":"53","nom":"Bretagne"}},{"nom":"Plouarzel","code":"29177","codesPostaux":["29810"],"centre":{"type":"Point","coordinates":[-4.7236,48.4397]},"surface":4283.32,"population":3987,"departement":{"code":"29","nom":"Finistère"},"region":{"code":"53","nom":"Bretagne"}},{"nom":"Ploudalmézeau","code":"29178","codesPostaux":["29830"],"centre":{"type":"Point","coordinates":[-4.6686,48.5407]},"surface":2411.8,"population":6440,"departement":{"code":"29","nom":"Finistère"},"region":{"code":"53","nom":"Bretagne"}},{"nom":"Ploudaniel","code":"29179","codesPostaux":["29260"],"centre":{"type":"Point","coordinates":[-4.3095,48.5205]},"surface":4580.05,"population":3738,"departement":{"code":"29","nom":"Finistère"},"region":{"code":"53","nom":"Bretagne"}},{"nom":"Ploudiry","code":"29180","codesPostaux":["29800"],"centre":{"type":"Point","coordinates":[-4.1323,48.453]},"surface":2782.72,"population":879,"departement":{"code":"29","nom":"Finistère"},"region":{"code":"53","nom":"Bretagne"}},{"nom":"Plouédern","code":"29181","codesPostaux":["29800"],"centre":{"type":"Point","coordinates":[-4.2552,48.4829]},"surface":1956.86,"population":3062,"departement":{"code":"29","nom":"Finistère"},"region":{"code":"53","nom":"Bretagne"}},{"nom":"Plouégat-Guérand","code":"29182","codesPostaux":["29620"],"centre":{"type":"Point","coordinates":[-3.6695,48.624]},"surface":1743.34,"population":1058,"departement":{"code":"29","nom":"Finistère"},"region":{"code":"53","nom":"Bretagne"}},{"nom":"Plouégat-Moysan","code":"29183","codesPostaux":["29650"],"centre":{"type":"Point","coordinates":[-3.6143,48.5679]},"surface":1493.16,"population":720,"departement":{"code":"29","nom":"Finistère"},"region":{"code":"53","nom":"Bretagne"}},{"nom":"Plouénan","code":"29184","codesPostaux":["29420"],"centre":{"type":"Point","coordinates":[-3.99,48.6183]},"surface":3146.54,"population":2588,"departement":{"code":"29","nom":"Finistère"},"region":{"code":"53","nom":"Bretagne"}},{"nom":"Plouescat","code":"29185","codesPostaux":["29430"],"centre":{"type":"Point","coordinates":[-4.1852,48.6675]},"surface":1491.13,"population":3549,"departement":{"code":"29","nom":"Finistère"},"region":{"code":"53","nom":"Bretagne"}},{"nom":"Plouezoc'h","code":"29186","codesPostaux":["29252"],"centre":{"type":"Point","coordinates":[-3.8252,48.6443]},"surface":1599.04,"population":1640,"departement":{"code":"29","nom":"Finistère"},"region":{"code":"53","nom":"Bretagne"}},{"nom":"Plougar","code":"29187","codesPostaux":["29440"],"centre":{"type":"Point","coordinates":[-4.1346,48.5568]},"surface":1756.76,"population":790,"departement":{"code":"29","nom":"Finistère"},"region":{"code":"53","nom":"Bretagne"}},{"nom":"Plougasnou","code":"29188","codesPostaux":["29630"],"centre":{"type":"Point","coordinates":[-3.8143,48.6788]},"surface":3436.41,"population":3035,"departement":{"code":"29","nom":"Finistère"},"region":{"code":"53","nom":"Bretagne"}},{"nom":"Plougastel-Daoulas","code":"29189","codesPostaux":["29470"],"centre":{"type":"Point","coordinates":[-4.3911,48.3629]},"surface":4693.46,"population":13431,"departement":{"code":"29","nom":"Finistère"},"region":{"code":"53","nom":"Bretagne"}},{"nom":"Plougonvelin","code":"29190","codesPostaux":["29217"],"centre":{"type":"Point","coordinates":[-4.7252,48.3533]},"surface":1897.61,"population":4520,"departement":{"code":"29","nom":"Finistère"},"region":{"code":"53","nom":"Bretagne"}},{"nom":"Plougonven","code":"29191","codesPostaux":["29640"],"centre":{"type":"Point","coordinates":[-3.7354,48.5064]},"surface":6994.48,"population":3398,"departement":{"code":"29","nom":"Finistère"},"region":{"code":"53","nom":"Bretagne"}},{"nom":"Plougoulm","code":"29192","codesPostaux":["29250"],"centre":{"type":"Point","coordinates":[-4.0429,48.654]},"surface":1843.53,"population":1761,"departement":{"code":"29","nom":"Finistère"},"region":{"code":"53","nom":"Bretagne"}},{"nom":"Plougourvest","code":"29193","codesPostaux":["29400"],"centre":{"type":"Point","coordinates":[-4.0744,48.5516]},"surface":1417.25,"population":1486,"departement":{"code":"29","nom":"Finistère"},"region":{"code":"53","nom":"Bretagne"}},{"nom":"Plouguerneau","code":"29195","codesPostaux":["29880"],"centre":{"type":"Point","coordinates":[-4.5103,48.6046]},"surface":4414.33,"population":6719,"departement":{"code":"29","nom":"Finistère"},"region":{"code":"53","nom":"Bretagne"}},{"nom":"Plouguin","code":"29196","codesPostaux":["29830"],"centre":{"type":"Point","coordinates":[-4.5931,48.5291]},"surface":3034.47,"population":2236,"departement":{"code":"29","nom":"Finistère"},"region":{"code":"53","nom":"Bretagne"}},{"nom":"Plouhinec","code":"29197","codesPostaux":["29780"],"centre":{"type":"Point","coordinates":[-4.4839,48.0122]},"surface":2836.09,"population":3923,"departement":{"code":"29","nom":"Finistère"},"region":{"code":"53","nom":"Bretagne"}},{"nom":"Plouider","code":"29198","codesPostaux":["29260"],"centre":{"type":"Point","coordinates":[-4.2973,48.6053]},"surface":2348.26,"population":1801,"departement":{"code":"29","nom":"Finistère"},"region":{"code":"53","nom":"Bretagne"}},{"nom":"Plouigneau","code":"29199","codesPostaux":["29610","29650"],"centre":{"type":"Point","coordinates":[-3.7226,48.5718]},"surface":6530.93,"population":5039,"departement":{"code":"29","nom":"Finistère"},"region":{"code":"53","nom":"Bretagne"}},{"nom":"Ploumoguer","code":"29201","codesPostaux":["29810"],"centre":{"type":"Point","coordinates":[-4.7086,48.3951]},"surface":3889.64,"population":2097,"departement":{"code":"29","nom":"Finistère"},"region":{"code":"53","nom":"Bretagne"}},{"nom":"Plounéour-Ménez","code":"29202","codesPostaux":["29410"],"centre":{"type":"Point","coordinates":[-3.8834,48.4431]},"surface":5184.79,"population":1298,"departement":{"code":"29","nom":"Finistère"},"region":{"code":"53","nom":"Bretagne"}},{"nom":"Plounéventer","code":"29204","codesPostaux":["29400"],"centre":{"type":"Point","coordinates":[-4.207,48.524]},"surface":2740.25,"population":2212,"departement":{"code":"29","nom":"Finistère"},"region":{"code":"53","nom":"Bretagne"}},{"nom":"Plounévézel","code":"29205","codesPostaux":["29270"],"centre":{"type":"Point","coordinates":[-3.5653,48.3143]},"surface":2438.76,"population":1153,"departement":{"code":"29","nom":"Finistère"},"region":{"code":"53","nom":"Bretagne"}},{"nom":"Plounévez-Lochrist","code":"29206","codesPostaux":["29430"],"centre":{"type":"Point","coordinates":[-4.1983,48.6213]},"surface":3963.64,"population":2285,"departement":{"code":"29","nom":"Finistère"},"region":{"code":"53","nom":"Bretagne"}},{"nom":"Plourin-lès-Morlaix","code":"29207","codesPostaux":["29600"],"centre":{"type":"Point","coordinates":[-3.7977,48.5262]},"surface":4242.17,"population":4529,"departement":{"code":"29","nom":"Finistère"},"region":{"code":"53","nom":"Bretagne"}},{"nom":"Plourin","code":"29208","codesPostaux":["29830"],"centre":{"type":"Point","coordinates":[-4.6865,48.5057]},"surface":2564.82,"population":1263,"departement":{"code":"29","nom":"Finistère"},"region":{"code":"53","nom":"Bretagne"}},{"nom":"Plouvien","code":"29209","codesPostaux":["29860"],"centre":{"type":"Point","coordinates":[-4.4686,48.5331]},"surface":3406.03,"population":3930,"departement":{"code":"29","nom":"Finistère"},"region":{"code":"53","nom":"Bretagne"}},{"nom":"Plouvorn","code":"29210","codesPostaux":["29420"],"centre":{"type":"Point","coordinates":[-4.0139,48.5759]},"surface":3539.12,"population":2932,"departement":{"code":"29","nom":"Finistère"},"region":{"code":"53","nom":"Bretagne"}},{"nom":"Plouyé","code":"29211","codesPostaux":["29690"],"centre":{"type":"Point","coordinates":[-3.7391,48.3143]},"surface":3755.03,"population":669,"departement":{"code":"29","nom":"Finistère"},"region":{"code":"53","nom":"Bretagne"}},{"nom":"Plouzané","code":"29212","codesPostaux":["29280"],"centre":{"type":"Point","coordinates":[-4.5976,48.3748]},"surface":3297.72,"population":13437,"departement":{"code":"29","nom":"Finistère"},"region":{"code":"53","nom":"Bretagne"}},{"nom":"Plouzévédé","code":"29213","codesPostaux":["29440"],"centre":{"type":"Point","coordinates":[-4.0932,48.5958]},"surface":1826.85,"population":1856,"departement":{"code":"29","nom":"Finistère"},"region":{"code":"53","nom":"Bretagne"}},{"nom":"Plovan","code":"29214","codesPostaux":["29720"],"centre":{"type":"Point","coordinates":[-4.359,47.9336]},"surface":1570.17,"population":682,"departement":{"code":"29","nom":"Finistère"},"region":{"code":"53","nom":"Bretagne"}},{"nom":"Plozévet","code":"29215","codesPostaux":["29710"],"centre":{"type":"Point","coordinates":[-4.4163,47.9793]},"surface":2763,"population":2963,"departement":{"code":"29","nom":"Finistère"},"region":{"code":"53","nom":"Bretagne"}},{"nom":"Pluguffan","code":"29216","codesPostaux":["29700"],"centre":{"type":"Point","coordinates":[-4.1836,47.967]},"surface":3227.29,"population":4229,"departement":{"code":"29","nom":"Finistère"},"region":{"code":"53","nom":"Bretagne"}},{"nom":"Pont-Aven","code":"29217","codesPostaux":["29930"],"centre":{"type":"Point","coordinates":[-3.7651,47.8742]},"surface":2860.96,"population":2796,"departement":{"code":"29","nom":"Finistère"},"region":{"code":"53","nom":"Bretagne"}},{"nom":"Pont-Croix","code":"29218","codesPostaux":["29790"],"centre":{"type":"Point","coordinates":[-4.5026,48.0485]},"surface":849.94,"population":1635,"departement":{"code":"29","nom":"Finistère"},"region":{"code":"53","nom":"Bretagne"}},{"nom":"Pont-l'Abbé","code":"29220","codesPostaux":["29120"],"centre":{"type":"Point","coordinates":[-4.2174,47.8674]},"surface":1829.24,"population":8403,"departement":{"code":"29","nom":"Finistère"},"region":{"code":"53","nom":"Bretagne"}},{"nom":"Porspoder","code":"29221","codesPostaux":["29840"],"centre":{"type":"Point","coordinates":[-4.7536,48.4998]},"surface":1147.46,"population":1761,"departement":{"code":"29","nom":"Finistère"},"region":{"code":"53","nom":"Bretagne"}},{"nom":"Port-Launay","code":"29222","codesPostaux":["29150"],"centre":{"type":"Point","coordinates":[-4.0831,48.2182]},"surface":191.7,"population":396,"departement":{"code":"29","nom":"Finistère"},"region":{"code":"53","nom":"Bretagne"}},{"nom":"Pouldergat","code":"29224","codesPostaux":["29100"],"centre":{"type":"Point","coordinates":[-4.3271,48.0429]},"surface":2439.08,"population":1213,"departement":{"code":"29","nom":"Finistère"},"region":{"code":"53","nom":"Bretagne"}},{"nom":"Pouldreuzic","code":"29225","codesPostaux":["29710"],"centre":{"type":"Point","coordinates":[-4.3653,47.9628]},"surface":1679.63,"population":2128,"departement":{"code":"29","nom":"Finistère"},"region":{"code":"53","nom":"Bretagne"}},{"nom":"Poullan-sur-Mer","code":"29226","codesPostaux":["29100"],"centre":{"type":"Point","coordinates":[-4.4044,48.0749]},"surface":3053.64,"population":1460,"departement":{"code":"29","nom":"Finistère"},"region":{"code":"53","nom":"Bretagne"}},{"nom":"Poullaouen","code":"29227","codesPostaux":["29246","29690"],"centre":{"type":"Point","coordinates":[-3.6451,48.3413]},"surface":8902.83,"population":1466,"departement":{"code":"29","nom":"Finistère"},"region":{"code":"53","nom":"Bretagne"}},{"nom":"Primelin","code":"29228","codesPostaux":["29770"],"centre":{"type":"Point","coordinates":[-4.6052,48.0274]},"surface":868.41,"population":641,"departement":{"code":"29","nom":"Finistère"},"region":{"code":"53","nom":"Bretagne"}},{"nom":"Quéménéven","code":"29229","codesPostaux":["29180"],"centre":{"type":"Point","coordinates":[-4.1438,48.1199]},"surface":2803.69,"population":1116,"departement":{"code":"29","nom":"Finistère"},"region":{"code":"53","nom":"Bretagne"}},{"nom":"Querrien","code":"29230","codesPostaux":["29310"],"centre":{"type":"Point","coordinates":[-3.5398,47.954]},"surface":5431.15,"population":1654,"departement":{"code":"29","nom":"Finistère"},"region":{"code":"53","nom":"Bretagne"}},{"nom":"Quimper","code":"29232","codesPostaux":["29000"],"centre":{"type":"Point","coordinates":[-4.0972,47.9982]},"surface":8452.69,"population":64530,"departement":{"code":"29","nom":"Finistère"},"region":{"code":"53","nom":"Bretagne"}},{"nom":"Quimperlé","code":"29233","codesPostaux":["29300"],"centre":{"type":"Point","coordinates":[-3.5586,47.8558]},"surface":3157.19,"population":12444,"departement":{"code":"29","nom":"Finistère"},"region":{"code":"53","nom":"Bretagne"}},{"nom":"Rédené","code":"29234","codesPostaux":["29300"],"centre":{"type":"Point","coordinates":[-3.4884,47.856]},"surface":2467.08,"population":2999,"departement":{"code":"29","nom":"Finistère"},"region":{"code":"53","nom":"Bretagne"}},{"nom":"Le Relecq-Kerhuon","code":"29235","codesPostaux":["29480"],"centre":{"type":"Point","coordinates":[-4.4014,48.4032]},"surface":653.41,"population":11837,"departement":{"code":"29","nom":"Finistère"},"region":{"code":"53","nom":"Bretagne"}},{"nom":"Riec-sur-Bélon","code":"29236","codesPostaux":["29340"],"centre":{"type":"Point","coordinates":[-3.68,47.8511]},"surface":5460.62,"population":4374,"departement":{"code":"29","nom":"Finistère"},"region":{"code":"53","nom":"Bretagne"}},{"nom":"La Roche-Maurice","code":"29237","codesPostaux":["29800"],"centre":{"type":"Point","coordinates":[-4.1871,48.472]},"surface":1194.67,"population":1865,"departement":{"code":"29","nom":"Finistère"},"region":{"code":"53","nom":"Bretagne"}},{"nom":"Roscanvel","code":"29238","codesPostaux":["29570"],"centre":{"type":"Point","coordinates":[-4.5577,48.3169]},"surface":936.45,"population":825,"departement":{"code":"29","nom":"Finistère"},"region":{"code":"53","nom":"Bretagne"}},{"nom":"Roscoff","code":"29239","codesPostaux":["29680"],"centre":{"type":"Point","coordinates":[-3.9866,48.7135]},"surface":645.97,"population":3318,"departement":{"code":"29","nom":"Finistère"},"region":{"code":"53","nom":"Bretagne"}},{"nom":"Rosnoën","code":"29240","codesPostaux":["29590"],"centre":{"type":"Point","coordinates":[-4.2113,48.2725]},"surface":3427.65,"population":993,"departement":{"code":"29","nom":"Finistère"},"region":{"code":"53","nom":"Bretagne"}},{"nom":"Rosporden","code":"29241","codesPostaux":["29140"],"centre":{"type":"Point","coordinates":[-3.8226,47.9504]},"surface":5744.87,"population":7580,"departement":{"code":"29","nom":"Finistère"},"region":{"code":"53","nom":"Bretagne"}},{"nom":"Saint-Coulitz","code":"29243","codesPostaux":["29150"],"centre":{"type":"Point","coordinates":[-4.0709,48.1835]},"surface":1103.63,"population":471,"departement":{"code":"29","nom":"Finistère"},"region":{"code":"53","nom":"Bretagne"}},{"nom":"Saint-Derrien","code":"29244","codesPostaux":["29440"],"centre":{"type":"Point","coordinates":[-4.1848,48.5475]},"surface":1229.32,"population":846,"departement":{"code":"29","nom":"Finistère"},"region":{"code":"53","nom":"Bretagne"}},{"nom":"Saint-Divy","code":"29245","codesPostaux":["29800"],"centre":{"type":"Point","coordinates":[-4.3317,48.4524]},"surface":851.11,"population":1602,"departement":{"code":"29","nom":"Finistère"},"region":{"code":"53","nom":"Bretagne"}},{"nom":"Saint-Eloy","code":"29246","codesPostaux":["29460"],"centre":{"type":"Point","coordinates":[-4.1138,48.3653]},"surface":1257.33,"population":221,"departement":{"code":"29","nom":"Finistère"},"region":{"code":"53","nom":"Bretagne"}},{"nom":"Saint-Évarzec","code":"29247","codesPostaux":["29170"],"centre":{"type":"Point","coordinates":[-4.0124,47.9556]},"surface":2469.99,"population":3491,"departement":{"code":"29","nom":"Finistère"},"region":{"code":"53","nom":"Bretagne"}},{"nom":"Saint-Frégant","code":"29248","codesPostaux":["29260"],"centre":{"type":"Point","coordinates":[-4.3712,48.5974]},"surface":837.97,"population":870,"departement":{"code":"29","nom":"Finistère"},"region":{"code":"53","nom":"Bretagne"}},{"nom":"Saint-Goazec","code":"29249","codesPostaux":["29520"],"centre":{"type":"Point","coordinates":[-3.7605,48.1546]},"surface":3335.73,"population":730,"departement":{"code":"29","nom":"Finistère"},"region":{"code":"53","nom":"Bretagne"}},{"nom":"Saint-Hernin","code":"29250","codesPostaux":["29270"],"centre":{"type":"Point","coordinates":[-3.6134,48.2097]},"surface":2928.32,"population":735,"departement":{"code":"29","nom":"Finistère"},"region":{"code":"53","nom":"Bretagne"}},{"nom":"Saint-Jean-du-Doigt","code":"29251","codesPostaux":["29630"],"centre":{"type":"Point","coordinates":[-3.7619,48.6683]},"surface":1992.91,"population":683,"departement":{"code":"29","nom":"Finistère"},"region":{"code":"53","nom":"Bretagne"}},{"nom":"Saint-Jean-Trolimon","code":"29252","codesPostaux":["29120"],"centre":{"type":"Point","coordinates":[-4.3083,47.8718]},"surface":1449.2,"population":973,"departement":{"code":"29","nom":"Finistère"},"region":{"code":"53","nom":"Bretagne"}},{"nom":"Saint-Martin-des-Champs","code":"29254","codesPostaux":["29600"],"centre":{"type":"Point","coordinates":[-3.856,48.5755]},"surface":1570.15,"population":4792,"departement":{"code":"29","nom":"Finistère"},"region":{"code":"53","nom":"Bretagne"}},{"nom":"Saint-Méen","code":"29255","codesPostaux":["29260"],"centre":{"type":"Point","coordinates":[-4.2586,48.5542]},"surface":1201.6,"population":941,"departement":{"code":"29","nom":"Finistère"},"region":{"code":"53","nom":"Bretagne"}},{"nom":"Saint-Nic","code":"29256","codesPostaux":["29550"],"centre":{"type":"Point","coordinates":[-4.2809,48.2078]},"surface":1801.42,"population":756,"departement":{"code":"29","nom":"Finistère"},"region":{"code":"53","nom":"Bretagne"}},{"nom":"Saint-Pabu","code":"29257","codesPostaux":["29830"],"centre":{"type":"Point","coordinates":[-4.6203,48.5671]},"surface":981.85,"population":2078,"departement":{"code":"29","nom":"Finistère"},"region":{"code":"53","nom":"Bretagne"}},{"nom":"Saint-Pol-de-Léon","code":"29259","codesPostaux":["29250"],"centre":{"type":"Point","coordinates":[-3.989,48.6743]},"surface":2363.39,"population":6841,"departement":{"code":"29","nom":"Finistère"},"region":{"code":"53","nom":"Bretagne"}},{"nom":"Saint-Renan","code":"29260","codesPostaux":["29290"],"centre":{"type":"Point","coordinates":[-4.6212,48.4288]},"surface":1330.88,"population":8454,"departement":{"code":"29","nom":"Finistère"},"region":{"code":"53","nom":"Bretagne"}},{"nom":"Saint-Rivoal","code":"29261","codesPostaux":["29190"],"centre":{"type":"Point","coordinates":[-3.9946,48.3458]},"surface":1907.89,"population":220,"departement":{"code":"29","nom":"Finistère"},"region":{"code":"53","nom":"Bretagne"}},{"nom":"Saint-Sauveur","code":"29262","codesPostaux":["29400"],"centre":{"type":"Point","coordinates":[-3.9992,48.4485]},"surface":1334.88,"population":827,"departement":{"code":"29","nom":"Finistère"},"region":{"code":"53","nom":"Bretagne"}},{"nom":"Saint-Ségal","code":"29263","codesPostaux":["29590"],"centre":{"type":"Point","coordinates":[-4.0734,48.2349]},"surface":1639.41,"population":1183,"departement":{"code":"29","nom":"Finistère"},"region":{"code":"53","nom":"Bretagne"}},{"nom":"Saint-Servais","code":"29264","codesPostaux":["29400"],"centre":{"type":"Point","coordinates":[-4.161,48.5156]},"surface":1046.41,"population":789,"departement":{"code":"29","nom":"Finistère"},"region":{"code":"53","nom":"Bretagne"}},{"nom":"Sainte-Sève","code":"29265","codesPostaux":["29600"],"centre":{"type":"Point","coordinates":[-3.8881,48.5614]},"surface":997.38,"population":1060,"departement":{"code":"29","nom":"Finistère"},"region":{"code":"53","nom":"Bretagne"}},{"nom":"Saint-Thégonnec Loc-Eguiner","code":"29266","codesPostaux":["29410"],"centre":{"type":"Point","coordinates":[-3.9387,48.5113]},"surface":4988.44,"population":3118,"departement":{"code":"29","nom":"Finistère"},"region":{"code":"53","nom":"Bretagne"}},{"nom":"Saint-Thois","code":"29267","codesPostaux":["29520"],"centre":{"type":"Point","coordinates":[-3.9043,48.1533]},"surface":1792.79,"population":709,"departement":{"code":"29","nom":"Finistère"},"region":{"code":"53","nom":"Bretagne"}},{"nom":"Saint-Thonan","code":"29268","codesPostaux":["29800"],"centre":{"type":"Point","coordinates":[-4.3218,48.4766]},"surface":1141.43,"population":1943,"departement":{"code":"29","nom":"Finistère"},"region":{"code":"53","nom":"Bretagne"}},{"nom":"Saint-Thurien","code":"29269","codesPostaux":["29380"],"centre":{"type":"Point","coordinates":[-3.6208,47.9562]},"surface":2140.83,"population":1005,"departement":{"code":"29","nom":"Finistère"},"region":{"code":"53","nom":"Bretagne"}},{"nom":"Saint-Urbain","code":"29270","codesPostaux":["29800"],"centre":{"type":"Point","coordinates":[-4.219,48.395]},"surface":1525.21,"population":1669,"departement":{"code":"29","nom":"Finistère"},"region":{"code":"53","nom":"Bretagne"}},{"nom":"Saint-Vougay","code":"29271","codesPostaux":["29440"],"centre":{"type":"Point","coordinates":[-4.1444,48.5917]},"surface":1490.15,"population":879,"departement":{"code":"29","nom":"Finistère"},"region":{"code":"53","nom":"Bretagne"}},{"nom":"Saint-Yvi","code":"29272","codesPostaux":["29140"],"centre":{"type":"Point","coordinates":[-3.9329,47.9606]},"surface":2733.57,"population":3418,"departement":{"code":"29","nom":"Finistère"},"region":{"code":"53","nom":"Bretagne"}},{"nom":"Santec","code":"29273","codesPostaux":["29250"],"centre":{"type":"Point","coordinates":[-4.0376,48.706]},"surface":813.64,"population":2435,"departement":{"code":"29","nom":"Finistère"},"region":{"code":"53","nom":"Bretagne"}},{"nom":"Scaër","code":"29274","codesPostaux":["29390"],"centre":{"type":"Point","coordinates":[-3.7267,48.0268]},"surface":11779.41,"population":5197,"departement":{"code":"29","nom":"Finistère"},"region":{"code":"53","nom":"Bretagne"}},{"nom":"Scrignac","code":"29275","codesPostaux":["29640"],"centre":{"type":"Point","coordinates":[-3.6875,48.4238]},"surface":7046.92,"population":781,"departement":{"code":"29","nom":"Finistère"},"region":{"code":"53","nom":"Bretagne"}},{"nom":"Sibiril","code":"29276","codesPostaux":["29250"],"centre":{"type":"Point","coordinates":[-4.0707,48.6666]},"surface":1152.79,"population":1154,"departement":{"code":"29","nom":"Finistère"},"region":{"code":"53","nom":"Bretagne"}},{"nom":"Sizun","code":"29277","codesPostaux":["29450"],"centre":{"type":"Point","coordinates":[-4.0251,48.3966]},"surface":5901.71,"population":2334,"departement":{"code":"29","nom":"Finistère"},"region":{"code":"53","nom":"Bretagne"}},{"nom":"Spézet","code":"29278","codesPostaux":["29540"],"centre":{"type":"Point","coordinates":[-3.6959,48.1875]},"surface":6147.68,"population":1743,"departement":{"code":"29","nom":"Finistère"},"region":{"code":"53","nom":"Bretagne"}},{"nom":"Taulé","code":"29279","codesPostaux":["29670"],"centre":{"type":"Point","coordinates":[-3.9011,48.6001]},"surface":2970.61,"population":2883,"departement":{"code":"29","nom":"Finistère"},"region":{"code":"53","nom":"Bretagne"}},{"nom":"Telgruc-sur-Mer","code":"29280","codesPostaux":["29560"],"centre":{"type":"Point","coordinates":[-4.3613,48.2367]},"surface":2823.48,"population":2145,"departement":{"code":"29","nom":"Finistère"},"region":{"code":"53","nom":"Bretagne"}},{"nom":"Tourch","code":"29281","codesPostaux":["29140"],"centre":{"type":"Point","coordinates":[-3.8229,48.0279]},"surface":1984.2,"population":1004,"departement":{"code":"29","nom":"Finistère"},"region":{"code":"53","nom":"Bretagne"}},{"nom":"Trébabu","code":"29282","codesPostaux":["29217"],"centre":{"type":"Point","coordinates":[-4.7341,48.3713]},"surface":434.81,"population":365,"departement":{"code":"29","nom":"Finistère"},"region":{"code":"53","nom":"Bretagne"}},{"nom":"Treffiagat","code":"29284","codesPostaux":["29730"],"centre":{"type":"Point","coordinates":[-4.2557,47.8068]},"surface":824.18,"population":2438,"departement":{"code":"29","nom":"Finistère"},"region":{"code":"53","nom":"Bretagne"}},{"nom":"Tréflaouénan","code":"29285","codesPostaux":["29440"],"centre":{"type":"Point","coordinates":[-4.1014,48.6239]},"surface":824.13,"population":523,"departement":{"code":"29","nom":"Finistère"},"region":{"code":"53","nom":"Bretagne"}},{"nom":"Tréflévénez","code":"29286","codesPostaux":["29800"],"centre":{"type":"Point","coordinates":[-4.1785,48.4144]},"surface":978.35,"population":247,"departement":{"code":"29","nom":"Finistère"},"region":{"code":"53","nom":"Bretagne"}},{"nom":"Tréflez","code":"29287","codesPostaux":["29430"],"centre":{"type":"Point","coordinates":[-4.2644,48.6256]},"surface":1590.14,"population":984,"departement":{"code":"29","nom":"Finistère"},"region":{"code":"53","nom":"Bretagne"}},{"nom":"Trégarantec","code":"29288","codesPostaux":["29260"],"centre":{"type":"Point","coordinates":[-4.2891,48.5511]},"surface":510.94,"population":628,"departement":{"code":"29","nom":"Finistère"},"region":{"code":"53","nom":"Bretagne"}},{"nom":"Trégarvan","code":"29289","codesPostaux":["29560"],"centre":{"type":"Point","coordinates":[-4.2344,48.2407]},"surface":969,"population":127,"departement":{"code":"29","nom":"Finistère"},"region":{"code":"53","nom":"Bretagne"}},{"nom":"Tréglonou","code":"29290","codesPostaux":["29870"],"centre":{"type":"Point","coordinates":[-4.544,48.5442]},"surface":610.77,"population":689,"departement":{"code":"29","nom":"Finistère"},"region":{"code":"53","nom":"Bretagne"}},{"nom":"Trégourez","code":"29291","codesPostaux":["29970"],"centre":{"type":"Point","coordinates":[-3.8697,48.1053]},"surface":1758.08,"population":952,"departement":{"code":"29","nom":"Finistère"},"region":{"code":"53","nom":"Bretagne"}},{"nom":"Tréguennec","code":"29292","codesPostaux":["29720"],"centre":{"type":"Point","coordinates":[-4.3363,47.883]},"surface":933.24,"population":312,"departement":{"code":"29","nom":"Finistère"},"region":{"code":"53","nom":"Bretagne"}},{"nom":"Trégunc","code":"29293","codesPostaux":["29910"],"centre":{"type":"Point","coordinates":[-3.8464,47.8373]},"surface":5066.34,"population":7094,"departement":{"code":"29","nom":"Finistère"},"region":{"code":"53","nom":"Bretagne"}},{"nom":"Le Tréhou","code":"29294","codesPostaux":["29450"],"centre":{"type":"Point","coordinates":[-4.1364,48.3967]},"surface":2315.62,"population":636,"departement":{"code":"29","nom":"Finistère"},"region":{"code":"53","nom":"Bretagne"}},{"nom":"Trémaouézan","code":"29295","codesPostaux":["29800"],"centre":{"type":"Point","coordinates":[-4.2549,48.5099]},"surface":846.83,"population":492,"departement":{"code":"29","nom":"Finistère"},"region":{"code":"53","nom":"Bretagne"}},{"nom":"Tréméoc","code":"29296","codesPostaux":["29120"],"centre":{"type":"Point","coordinates":[-4.2165,47.9064]},"surface":1167.49,"population":1506,"departement":{"code":"29","nom":"Finistère"},"region":{"code":"53","nom":"Bretagne"}},{"nom":"Tréméven","code":"29297","codesPostaux":["29300"],"centre":{"type":"Point","coordinates":[-3.5254,47.9018]},"surface":1541.2,"population":2378,"departement":{"code":"29","nom":"Finistère"},"region":{"code":"53","nom":"Bretagne"}},{"nom":"Tréogat","code":"29298","codesPostaux":["29720"],"centre":{"type":"Point","coordinates":[-4.342,47.9085]},"surface":971.05,"population":579,"departement":{"code":"29","nom":"Finistère"},"region":{"code":"53","nom":"Bretagne"}},{"nom":"Tréouergat","code":"29299","codesPostaux":["29290"],"centre":{"type":"Point","coordinates":[-4.6065,48.4958]},"surface":613.39,"population":325,"departement":{"code":"29","nom":"Finistère"},"region":{"code":"53","nom":"Bretagne"}},{"nom":"Le Trévoux","code":"29300","codesPostaux":["29380"],"centre":{"type":"Point","coordinates":[-3.6545,47.8866]},"surface":2086.87,"population":1611,"departement":{"code":"29","nom":"Finistère"},"region":{"code":"53","nom":"Bretagne"}},{"nom":"Trézilidé","code":"29301","codesPostaux":["29440"],"centre":{"type":"Point","coordinates":[-4.0832,48.6104]},"surface":454.67,"population":403,"departement":{"code":"29","nom":"Finistère"},"region":{"code":"53","nom":"Bretagne"}},{"nom":"Pont-de-Buis-lès-Quimerch","code":"29302","codesPostaux":["29590"],"centre":{"type":"Point","coordinates":[-4.1109,48.2738]},"surface":4201.66,"population":3571,"departement":{"code":"29","nom":"Finistère"},"region":{"code":"53","nom":"Bretagne"}}]