[{"nom":"Allineuc","code":"22001","codesPostaux":["22460"],"centre":{"type":"Point","coordinates":[-2.8693,48.3147]},"surface":2436.99,"population":596,"departement":{"code":"22","nom":"Côtes-d'Armor"},"region":{"code":"53","nom":"Bretagne"}},{"nom":"Andel","code":"22002","codesPostaux":["22400"],"centre":{"type":"Point","coordinates":[-2.5549,48.493]},"surface":1239.71,"population":1156,"departement":{"code":"22","nom":"Côtes-d'Armor"},"region":{"code":"53","nom":"Bretagne"}},{"nom":"Aucaleuc","code":"22003","codesPostaux":["22100"],"centre":{"type":"Point","coordinates":[-2.1237,48.452]},"surface":653.62,"population":929,"departement":{"code":"22","nom":"Côtes-d'Armor"},"region":{"code":"53","nom":"Bretagne"}},{"nom":"Bégard","code":"22004","codesPostaux":["22140"],"centre":{"type":"Point","coordinates":[-3.2921,48.6365]},"surface":3633.63,"population":4839,"departement":{"code":"22","nom":"Côtes-d'Armor"},"region":{"code":"53","nom":"Bretagne"}},{"nom":"Belle-Isle-en-Terre","code":"22005","codesPostaux":["22810"],"centre":{"type":"Point","coordinates":[-3.3793,48.538]},"surface":1433.13,"population":1030,"departement":{"code":"22","nom":"Côtes-d'Armor"},"region":{"code":"53","nom":"Bretagne"}},{"nom":"Berhet","code":"22006","codesPostaux":["22140"],"centre":{"type":"Point","coordinates":[-3.3089,48.6975]},"surface":333.86,"population":273,"departement":{"code":"22","nom":"Côtes-d'Armor"},"region":{"code":"53","nom":"Bretagne"}},{"nom":"Bobital","code":"22008","codesPostaux":["22100"],"centre":{"type":"Point","coordinates":[-2.098,48.4133]},"surface":509.71,"population":1139,"departement":{"code":"22","nom":"Côtes-d'Armor"},"region":{"code":"53","nom":"Bretagne"}},{"nom":"Le Bodéo","code":"22009","codesPostaux":["22320"],"centre":{"type":"Point","coordinates":[-2.9196,48.3266]},"surface":1025.65,"population":170,"departement":{"code":"22","nom":"Côtes-d'Armor"},"region":{"code":"53","nom":"Bretagne"}},{"nom":"Boqueho","code":"22011","codesPostaux":["22170"],"centre":{"type":"Point","coordinates":[-2.986,48.4666]},"surface":2759.79,"population":1056,"departement":{"code":"22","nom":"Côtes-d'Armor"},"region":{"code":"53","nom":"Bretagne"}},{"nom":"La Bouillie","code":"22012","codesPostaux":["22240"],"centre":{"type":"Point","coordinates":[-2.4398,48.5875]},"surface":1099.99,"population":865,"departement":{"code":"22","nom":"Côtes-d'Armor"},"region":{"code":"53","nom":"Bretagne"}},{"nom":"Bourbriac","code":"22013","codesPostaux":["22390"],"centre":{"type":"Point","coordinates":[-3.1973,48.4649]},"surface":7315.33,"population":2126,"departement":{"code":"22","nom":"Côtes-d'Armor"},"region":{"code":"53","nom":"Bretagne"}},{"nom":"Bourseul","code":"22014","codesPostaux":["22130"],"centre":{"type":"Point","coordinates":[-2.2606,48.4662]},"surface":2251.53,"population":1218,"departement":{"code":"22","nom":"Côtes-d'Armor"},"region":{"code":"53","nom":"Bretagne"}},{"nom":"Bréhand","code":"22015","codesPostaux":["22510"],"centre":{"type":"Point","coordinates":[-2.5899,48.3954]},"surface":2589.4,"population":1707,"departement":{"code":"22","nom":"Côtes-d'Armor"},"region":{"code":"53","nom":"Bretagne"}},{"nom":"Île-de-Bréhat","code":"22016","codesPostaux":["22870"],"centre":{"type":"Point","coordinates":[-3.0083,48.8501]},"surface":316.53,"population":402,"departement":{"code":"22","nom":"Côtes-d'Armor"},"region":{"code":"53","nom":"Bretagne"}},{"nom":"Brélidy","code":"22018","codesPostaux":["22140"],"centre":{"type":"Point","coordinates":[-3.2277,48.6504]},"surface":829.02,"population":304,"departement":{"code":"22","nom":"Côtes-d'Armor"},"region":{"code":"53","nom":"Bretagne"}},{"nom":"Bringolo","code":"22019","codesPostaux":["22170"],"centre":{"type":"Point","coordinates":[-3.0101,48.5806]},"surface":936.84,"population":503,"departement":{"code":"22","nom":"Côtes-d'Armor"},"region":{"code":"53","nom":"Bretagne"}},{"nom":"Broons","code":"22020","codesPostaux":["22250"],"centre":{"type":"Point","coordinates":[-2.2418,48.3135]},"surface":3571.77,"population":2924,"departement":{"code":"22","nom":"Côtes-d'Armor"},"region":{"code":"53","nom":"Bretagne"}},{"nom":"Brusvily","code":"22021","codesPostaux":["22100"],"centre":{"type":"Point","coordinates":[-2.1174,48.3922]},"surface":1208.12,"population":1158,"departement":{"code":"22","nom":"Côtes-d'Armor"},"region":{"code":"53","nom":"Bretagne"}},{"nom":"Bulat-Pestivien","code":"22023","codesPostaux":["22160"],"centre":{"type":"Point","coordinates":[-3.3347,48.4317]},"surface":3168.25,"population":412,"departement":{"code":"22","nom":"Côtes-d'Armor"},"region":{"code":"53","nom":"Bretagne"}},{"nom":"Calanhel","code":"22024","codesPostaux":["22160"],"centre":{"type":"Point","coordinates":[-3.4679,48.4377]},"surface":1469.08,"population":227,"departement":{"code":"22","nom":"Côtes-d'Armor"},"region":{"code":"53","nom":"Bretagne"}},{"nom":"Callac","code":"22025","codesPostaux":["22160"],"centre":{"type":"Point","coordinates":[-3.4138,48.4192]},"surface":3347.14,"population":2235,"departement":{"code":"22","nom":"Côtes-d'Armor"},"region":{"code":"53","nom":"Bretagne"}},{"nom":"Calorguen","code":"22026","codesPostaux":["22100"],"centre":{"type":"Point","coordinates":[-2.0248,48.4061]},"surface":860.14,"population":729,"departement":{"code":"22","nom":"Côtes-d'Armor"},"region":{"code":"53","nom":"Bretagne"}},{"nom":"Le Cambout","code":"22027","codesPostaux":["22210"],"centre":{"type":"Point","coordinates":[-2.6221,48.058]},"surface":1824.62,"population":411,"departement":{"code":"22","nom":"Côtes-d'Armor"},"region":{"code":"53","nom":"Bretagne"}},{"nom":"Camlez","code":"22028","codesPostaux":["22450"],"centre":{"type":"Point","coordinates":[-3.3174,48.7827]},"surface":1175.87,"population":830,"departement":{"code":"22","nom":"Côtes-d'Armor"},"region":{"code":"53","nom":"Bretagne"}},{"nom":"Canihuel","code":"22029","codesPostaux":["22480"],"centre":{"type":"Point","coordinates":[-3.0861,48.337]},"surface":3246.18,"population":347,"departement":{"code":"22","nom":"Côtes-d'Armor"},"region":{"code":"53","nom":"Bretagne"}},{"nom":"Caouënnec-Lanvézéac","code":"22030","codesPostaux":["22300"],"centre":{"type":"Point","coordinates":[-3.368,48.7067]},"surface":725.08,"population":905,"departement":{"code":"22","nom":"Côtes-d'Armor"},"region":{"code":"53","nom":"Bretagne"}},{"nom":"Carnoët","code":"22031","codesPostaux":["22160"],"centre":{"type":"Point","coordinates":[-3.5424,48.3569]},"surface":4200.93,"population":658,"departement":{"code":"22","nom":"Côtes-d'Armor"},"region":{"code":"53","nom":"Bretagne"}},{"nom":"Caulnes","code":"22032","codesPostaux":["22350"],"centre":{"type":"Point","coordinates":[-2.1598,48.3032]},"surface":3252.76,"population":2504,"departement":{"code":"22","nom":"Côtes-d'Armor"},"region":{"code":"53","nom":"Bretagne"}},{"nom":"Caurel","code":"22033","codesPostaux":["22530"],"centre":{"type":"Point","coordinates":[-3.0375,48.2199]},"surface":1315.17,"population":357,"departement":{"code":"22","nom":"Côtes-d'Armor"},"region":{"code":"53","nom":"Bretagne"}},{"nom":"Cavan","code":"22034","codesPostaux":["22140"],"centre":{"type":"Point","coordinates":[-3.3563,48.6832]},"surface":1680.49,"population":1528,"departement":{"code":"22","nom":"Côtes-d'Armor"},"region":{"code":"53","nom":"Bretagne"}},{"nom":"Les Champs-Géraux","code":"22035","codesPostaux":["22630"],"centre":{"type":"Point","coordinates":[-1.9759,48.4271]},"surface":1966.98,"population":1047,"departement":{"code":"22","nom":"Côtes-d'Armor"},"region":{"code":"53","nom":"Bretagne"}},{"nom":"La Chapelle-Blanche","code":"22036","codesPostaux":["22350"],"centre":{"type":"Point","coordinates":[-2.1251,48.2676]},"surface":806.34,"population":211,"departement":{"code":"22","nom":"Côtes-d'Armor"},"region":{"code":"53","nom":"Bretagne"}},{"nom":"La Chapelle-Neuve","code":"22037","codesPostaux":["22160"],"centre":{"type":"Point","coordinates":[-3.4389,48.466]},"surface":2410.94,"population":394,"departement":{"code":"22","nom":"Côtes-d'Armor"},"region":{"code":"53","nom":"Bretagne"}},{"nom":"La Chèze","code":"22039","codesPostaux":["22210"],"centre":{"type":"Point","coordinates":[-2.6618,48.1319]},"surface":259.35,"population":566,"departement":{"code":"22","nom":"Côtes-d'Armor"},"region":{"code":"53","nom":"Bretagne"}},{"nom":"Coadout","code":"22040","codesPostaux":["22970"],"centre":{"type":"Point","coordinates":[-3.1728,48.5154]},"surface":987.95,"population":553,"departement":{"code":"22","nom":"Côtes-d'Armor"},"region":{"code":"53","nom":"Bretagne"}},{"nom":"Coatascorn","code":"22041","codesPostaux":["22140"],"centre":{"type":"Point","coordinates":[-3.2601,48.6692]},"surface":814.06,"population":255,"departement":{"code":"22","nom":"Côtes-d'Armor"},"region":{"code":"53","nom":"Bretagne"}},{"nom":"Coatréven","code":"22042","codesPostaux":["22450"],"centre":{"type":"Point","coordinates":[-3.3235,48.7641]},"surface":927.81,"population":498,"departement":{"code":"22","nom":"Côtes-d'Armor"},"region":{"code":"53","nom":"Bretagne"}},{"nom":"Coëtlogon","code":"22043","codesPostaux":["22210"],"centre":{"type":"Point","coordinates":[-2.5446,48.1295]},"surface":1668.63,"population":217,"departement":{"code":"22","nom":"Côtes-d'Armor"},"region":{"code":"53","nom":"Bretagne"}},{"nom":"Coëtmieux","code":"22044","codesPostaux":["22400"],"centre":{"type":"Point","coordinates":[-2.5904,48.4868]},"surface":820.33,"population":1812,"departement":{"code":"22","nom":"Côtes-d'Armor"},"region":{"code":"53","nom":"Bretagne"}},{"nom":"Cohiniac","code":"22045","codesPostaux":["22800"],"centre":{"type":"Point","coordinates":[-2.9464,48.4513]},"surface":1256.24,"population":380,"departement":{"code":"22","nom":"Côtes-d'Armor"},"region":{"code":"53","nom":"Bretagne"}},{"nom":"Le Mené","code":"22046","codesPostaux":["22330"],"centre":{"type":"Point","coordinates":[-2.5144,48.2837]},"surface":16336.53,"population":6413,"departement":{"code":"22","nom":"Côtes-d'Armor"},"region":{"code":"53","nom":"Bretagne"}},{"nom":"Corlay","code":"22047","codesPostaux":["22320"],"centre":{"type":"Point","coordinates":[-3.0419,48.307]},"surface":1413.74,"population":916,"departement":{"code":"22","nom":"Côtes-d'Armor"},"region":{"code":"53","nom":"Bretagne"}},{"nom":"Corseul","code":"22048","codesPostaux":["22130"],"centre":{"type":"Point","coordinates":[-2.1675,48.4846]},"surface":4227.95,"population":2223,"departement":{"code":"22","nom":"Côtes-d'Armor"},"region":{"code":"53","nom":"Bretagne"}},{"nom":"Créhen","code":"22049","codesPostaux":["22130"],"centre":{"type":"Point","coordinates":[-2.1869,48.5447]},"surface":1821.44,"population":1654,"departement":{"code":"22","nom":"Côtes-d'Armor"},"region":{"code":"53","nom":"Bretagne"}},{"nom":"Dinan","code":"22050","codesPostaux":["22100"],"centre":{"type":"Point","coordinates":[-2.0533,48.4471]},"surface":872.23,"population":14675,"departement":{"code":"22","nom":"Côtes-d'Armor"},"region":{"code":"53","nom":"Bretagne"}},{"nom":"Duault","code":"22052","codesPostaux":["22160"],"centre":{"type":"Point","coordinates":[-3.4361,48.3638]},"surface":2188.11,"population":382,"departement":{"code":"22","nom":"Côtes-d'Armor"},"region":{"code":"53","nom":"Bretagne"}},{"nom":"Éréac","code":"22053","codesPostaux":["22250"],"centre":{"type":"Point","coordinates":[-2.3426,48.2714]},"surface":2149.66,"population":678,"departement":{"code":"22","nom":"Côtes-d'Armor"},"region":{"code":"53","nom":"Bretagne"}},{"nom":"Erquy","code":"22054","codesPostaux":["22430"],"centre":{"type":"Point","coordinates":[-2.4572,48.6199]},"surface":2650.19,"population":3909,"departement":{"code":"22","nom":"Côtes-d'Armor"},"region":{"code":"53","nom":"Bretagne"}},{"nom":"Binic-Étables-sur-Mer","code":"22055","codesPostaux":["22520","22680"],"centre":{"type":"Point","coordinates":[-2.8373,48.6167]},"surface":1505.15,"population":6881,"departement":{"code":"22","nom":"Côtes-d'Armor"},"region":{"code":"53","nom":"Bretagne"}},{"nom":"Évran","code":"22056","codesPostaux":["22630"],"centre":{"type":"Point","coordinates":[-1.9773,48.3771]},"surface":2430.35,"population":1794,"departement":{"code":"22","nom":"Côtes-d'Armor"},"region":{"code":"53","nom":"Bretagne"}},{"nom":"Le Faouët","code":"22057","codesPostaux":["22290"],"centre":{"type":"Point","coordinates":[-3.0726,48.6798]},"surface":766.04,"population":410,"departement":{"code":"22","nom":"Côtes-d'Armor"},"region":{"code":"53","nom":"Bretagne"}},{"nom":"Le Fœil","code":"22059","codesPostaux":["22800"],"centre":{"type":"Point","coordinates":[-2.9055,48.4153]},"surface":2187.78,"population":1394,"departement":{"code":"22","nom":"Côtes-d'Armor"},"region":{"code":"53","nom":"Bretagne"}},{"nom":"Gausson","code":"22060","codesPostaux":["22150"],"centre":{"type":"Point","coordinates":[-2.7615,48.2916]},"surface":1673.52,"population":634,"departement":{"code":"22","nom":"Côtes-d'Armor"},"region":{"code":"53","nom":"Bretagne"}},{"nom":"Glomel","code":"22061","codesPostaux":["22110"],"centre":{"type":"Point","coordinates":[-3.3808,48.2055]},"surface":7911.57,"population":1384,"departement":{"code":"22","nom":"Côtes-d'Armor"},"region":{"code":"53","nom":"Bretagne"}},{"nom":"Gomené","code":"22062","codesPostaux":["22230"],"centre":{"type":"Point","coordinates":[-2.4935,48.1835]},"surface":2561.23,"population":539,"departement":{"code":"22","nom":"Côtes-d'Armor"},"region":{"code":"53","nom":"Bretagne"}},{"nom":"Gommenec'h","code":"22063","codesPostaux":["22290"],"centre":{"type":"Point","coordinates":[-3.0481,48.6362]},"surface":1207.82,"population":550,"departement":{"code":"22","nom":"Côtes-d'Armor"},"region":{"code":"53","nom":"Bretagne"}},{"nom":"Gouarec","code":"22064","codesPostaux":["22570"],"centre":{"type":"Point","coordinates":[-3.1937,48.236]},"surface":657.4,"population":957,"departement":{"code":"22","nom":"Côtes-d'Armor"},"region":{"code":"53","nom":"Bretagne"}},{"nom":"Goudelin","code":"22065","codesPostaux":["22290"],"centre":{"type":"Point","coordinates":[-3.0245,48.606]},"surface":2323.16,"population":1720,"departement":{"code":"22","nom":"Côtes-d'Armor"},"region":{"code":"53","nom":"Bretagne"}},{"nom":"Grâces","code":"22067","codesPostaux":["22200"],"centre":{"type":"Point","coordinates":[-3.1847,48.5478]},"surface":1416.25,"population":2576,"departement":{"code":"22","nom":"Côtes-d'Armor"},"region":{"code":"53","nom":"Bretagne"}},{"nom":"Grâce-Uzel","code":"22068","codesPostaux":["22460"],"centre":{"type":"Point","coordinates":[-2.7951,48.252]},"surface":813.22,"population":429,"departement":{"code":"22","nom":"Côtes-d'Armor"},"region":{"code":"53","nom":"Bretagne"}},{"nom":"Guenroc","code":"22069","codesPostaux":["22350"],"centre":{"type":"Point","coordinates":[-2.0823,48.3141]},"surface":758.19,"population":217,"departement":{"code":"22","nom":"Côtes-d'Armor"},"region":{"code":"53","nom":"Bretagne"}},{"nom":"Guingamp","code":"22070","codesPostaux":["22200"],"centre":{"type":"Point","coordinates":[-3.1533,48.5608]},"surface":346.24,"population":7105,"departement":{"code":"22","nom":"Côtes-d'Armor"},"region":{"code":"53","nom":"Bretagne"}},{"nom":"Guitté","code":"22071","codesPostaux":["22350"],"centre":{"type":"Point","coordinates":[-2.1008,48.2917]},"surface":1494.88,"population":725,"departement":{"code":"22","nom":"Côtes-d'Armor"},"region":{"code":"53","nom":"Bretagne"}},{"nom":"Gurunhuel","code":"22072","codesPostaux":["22390"],"centre":{"type":"Point","coordinates":[-3.2883,48.5114]},"surface":1995.7,"population":404,"departement":{"code":"22","nom":"Côtes-d'Armor"},"region":{"code":"53","nom":"Bretagne"}},{"nom":"La Harmoye","code":"22073","codesPostaux":["22320"],"centre":{"type":"Point","coordinates":[-2.9737,48.3472]},"surface":1782.34,"population":373,"departement":{"code":"22","nom":"Côtes-d'Armor"},"region":{"code":"53","nom":"Bretagne"}},{"nom":"Le Haut-Corlay","code":"22074","codesPostaux":["22320"],"centre":{"type":"Point","coordinates":[-3.0347,48.343]},"surface":2601.46,"population":642,"departement":{"code":"22","nom":"Côtes-d'Armor"},"region":{"code":"53","nom":"Bretagne"}},{"nom":"Hémonstoir","code":"22075","codesPostaux":["22600"],"centre":{"type":"Point","coordinates":[-2.85,48.1573]},"surface":1417.9,"population":728,"departement":{"code":"22","nom":"Côtes-d'Armor"},"region":{"code":"53","nom":"Bretagne"}},{"nom":"Hénanbihen","code":"22076","codesPostaux":["22550"],"centre":{"type":"Point","coordinates":[-2.3861,48.559]},"surface":3181.37,"population":1378,"departement":{"code":"22","nom":"Côtes-d'Armor"},"region":{"code":"53","nom":"Bretagne"}},{"nom":"Hénansal","code":"22077","codesPostaux":["22400"],"centre":{"type":"Point","coordinates":[-2.451,48.5373]},"surface":2928.79,"population":1231,"departement":{"code":"22","nom":"Côtes-d'Armor"},"region":{"code":"53","nom":"Bretagne"}},{"nom":"Hénon","code":"22079","codesPostaux":["22150"],"centre":{"type":"Point","coordinates":[-2.6898,48.3885]},"surface":4205.08,"population":2320,"departement":{"code":"22","nom":"Côtes-d'Armor"},"region":{"code":"53","nom":"Bretagne"}},{"nom":"Hillion","code":"22081","codesPostaux":["22120"],"centre":{"type":"Point","coordinates":[-2.6453,48.5042]},"surface":2466.17,"population":4274,"departement":{"code":"22","nom":"Côtes-d'Armor"},"region":{"code":"53","nom":"Bretagne"}},{"nom":"Le Hinglé","code":"22082","codesPostaux":["22100"],"centre":{"type":"Point","coordinates":[-2.0815,48.3993]},"surface":341.73,"population":907,"departement":{"code":"22","nom":"Côtes-d'Armor"},"region":{"code":"53","nom":"Bretagne"}},{"nom":"Illifaut","code":"22083","codesPostaux":["22230"],"centre":{"type":"Point","coordinates":[-2.3297,48.1418]},"surface":2698.95,"population":671,"departement":{"code":"22","nom":"Côtes-d'Armor"},"region":{"code":"53","nom":"Bretagne"}},{"nom":"Jugon-les-Lacs","code":"22084","codesPostaux":["22270"],"centre":{"type":"Point","coordinates":[-2.3217,48.4014]},"surface":3875.08,"population":2529,"departement":{"code":"22","nom":"Côtes-d'Armor"},"region":{"code":"53","nom":"Bretagne"}},{"nom":"Kerbors","code":"22085","codesPostaux":["22610"],"centre":{"type":"Point","coordinates":[-3.1828,48.825]},"surface":702.93,"population":286,"departement":{"code":"22","nom":"Côtes-d'Armor"},"region":{"code":"53","nom":"Bretagne"}},{"nom":"Kerfot","code":"22086","codesPostaux":["22500"],"centre":{"type":"Point","coordinates":[-3.033,48.7357]},"surface":583.2,"population":647,"departement":{"code":"22","nom":"Côtes-d'Armor"},"region":{"code":"53","nom":"Bretagne"}},{"nom":"Kergrist-Moëlou","code":"22087","codesPostaux":["22110"],"centre":{"type":"Point","coordinates":[-3.3194,48.2945]},"surface":4713.9,"population":644,"departement":{"code":"22","nom":"Côtes-d'Armor"},"region":{"code":"53","nom":"Bretagne"}},{"nom":"Kerien","code":"22088","codesPostaux":["22480"],"centre":{"type":"Point","coordinates":[-3.2274,48.4097]},"surface":2207.02,"population":249,"departement":{"code":"22","nom":"Côtes-d'Armor"},"region":{"code":"53","nom":"Bretagne"}},{"nom":"Kermaria-Sulard","code":"22090","codesPostaux":["22450"],"centre":{"type":"Point","coordinates":[-3.3748,48.7753]},"surface":926.48,"population":1101,"departement":{"code":"22","nom":"Côtes-d'Armor"},"region":{"code":"53","nom":"Bretagne"}},{"nom":"Kermoroc'h","code":"22091","codesPostaux":["22140"],"centre":{"type":"Point","coordinates":[-3.2029,48.6141]},"surface":616.69,"population":433,"departement":{"code":"22","nom":"Côtes-d'Armor"},"region":{"code":"53","nom":"Bretagne"}},{"nom":"Kerpert","code":"22092","codesPostaux":["22480"],"centre":{"type":"Point","coordinates":[-3.1359,48.389]},"surface":2129.64,"population":269,"departement":{"code":"22","nom":"Côtes-d'Armor"},"region":{"code":"53","nom":"Bretagne"}},{"nom":"Lamballe-Armor","code":"22093","codesPostaux":["22400"],"centre":{"type":"Point","coordinates":[-2.5201,48.4859]},"surface":13200.95,"population":16845,"departement":{"code":"22","nom":"Côtes-d'Armor"},"region":{"code":"53","nom":"Bretagne"}},{"nom":"Lancieux","code":"22094","codesPostaux":["22770"],"centre":{"type":"Point","coordinates":[-2.1479,48.6034]},"surface":658.47,"population":1584,"departement":{"code":"22","nom":"Côtes-d'Armor"},"region":{"code":"53","nom":"Bretagne"}},{"nom":"Landebaëron","code":"22095","codesPostaux":["22140"],"centre":{"type":"Point","coordinates":[-3.2067,48.6394]},"surface":642.58,"population":172,"departement":{"code":"22","nom":"Côtes-d'Armor"},"region":{"code":"53","nom":"Bretagne"}},{"nom":"Landébia","code":"22096","codesPostaux":["22130"],"centre":{"type":"Point","coordinates":[-2.3349,48.5171]},"surface":356.55,"population":447,"departement":{"code":"22","nom":"Côtes-d'Armor"},"region":{"code":"53","nom":"Bretagne"}},{"nom":"La Landec","code":"22097","codesPostaux":["22980"],"centre":{"type":"Point","coordinates":[-2.1809,48.4256]},"surface":774.54,"population":738,"departement":{"code":"22","nom":"Côtes-d'Armor"},"region":{"code":"53","nom":"Bretagne"}},{"nom":"Landéhen","code":"22098","codesPostaux":["22400"],"centre":{"type":"Point","coordinates":[-2.5441,48.4188]},"surface":1205.57,"population":1442,"departement":{"code":"22","nom":"Côtes-d'Armor"},"region":{"code":"53","nom":"Bretagne"}},{"nom":"Lanfains","code":"22099","codesPostaux":["22800"],"centre":{"type":"Point","coordinates":[-2.912,48.3699]},"surface":2235.31,"population":1104,"departement":{"code":"22","nom":"Côtes-d'Armor"},"region":{"code":"53","nom":"Bretagne"}},{"nom":"Langoat","code":"22101","codesPostaux":["22450"],"centre":{"type":"Point","coordinates":[-3.3001,48.7325]},"surface":1870.31,"population":1152,"departement":{"code":"22","nom":"Côtes-d'Armor"},"region":{"code":"53","nom":"Bretagne"}},{"nom":"Langrolay-sur-Rance","code":"22103","codesPostaux":["22490"],"centre":{"type":"Point","coordinates":[-2.015,48.5548]},"surface":531.66,"population":974,"departement":{"code":"22","nom":"Côtes-d'Armor"},"region":{"code":"53","nom":"Bretagne"}},{"nom":"Languédias","code":"22104","codesPostaux":["22980"],"centre":{"type":"Point","coordinates":[-2.2064,48.3936]},"surface":871.76,"population":553,"departement":{"code":"22","nom":"Côtes-d'Armor"},"region":{"code":"53","nom":"Bretagne"}},{"nom":"Languenan","code":"22105","codesPostaux":["22130"],"centre":{"type":"Point","coordinates":[-2.1344,48.5127]},"surface":1608.44,"population":1148,"departement":{"code":"22","nom":"Côtes-d'Armor"},"region":{"code":"53","nom":"Bretagne"}},{"nom":"Langueux","code":"22106","codesPostaux":["22360"],"centre":{"type":"Point","coordinates":[-2.7087,48.5021]},"surface":924.82,"population":7886,"departement":{"code":"22","nom":"Côtes-d'Armor"},"region":{"code":"53","nom":"Bretagne"}},{"nom":"Bon Repos sur Blavet","code":"22107","codesPostaux":["22570"],"centre":{"type":"Point","coordinates":[-3.1161,48.2147]},"surface":5514.24,"population":1241,"departement":{"code":"22","nom":"Côtes-d'Armor"},"region":{"code":"53","nom":"Bretagne"}},{"nom":"Lanleff","code":"22108","codesPostaux":["22290"],"centre":{"type":"Point","coordinates":[-3.0447,48.6928]},"surface":222.35,"population":122,"departement":{"code":"22","nom":"Côtes-d'Armor"},"region":{"code":"53","nom":"Bretagne"}},{"nom":"Lanloup","code":"22109","codesPostaux":["22580"],"centre":{"type":"Point","coordinates":[-2.9706,48.7096]},"surface":253.88,"population":237,"departement":{"code":"22","nom":"Côtes-d'Armor"},"region":{"code":"53","nom":"Bretagne"}},{"nom":"Lanmérin","code":"22110","codesPostaux":["22300"],"centre":{"type":"Point","coordinates":[-3.3539,48.7394]},"surface":422.34,"population":582,"departement":{"code":"22","nom":"Côtes-d'Armor"},"region":{"code":"53","nom":"Bretagne"}},{"nom":"Lanmodez","code":"22111","codesPostaux":["22610"],"centre":{"type":"Point","coordinates":[-3.0776,48.8488]},"surface":420.98,"population":403,"departement":{"code":"22","nom":"Côtes-d'Armor"},"region":{"code":"53","nom":"Bretagne"}},{"nom":"Lannebert","code":"22112","codesPostaux":["22290"],"centre":{"type":"Point","coordinates":[-3.0118,48.6498]},"surface":706.41,"population":439,"departement":{"code":"22","nom":"Côtes-d'Armor"},"region":{"code":"53","nom":"Bretagne"}},{"nom":"Lannion","code":"22113","codesPostaux":["22300"],"centre":{"type":"Point","coordinates":[-3.4697,48.7454]},"surface":4687.34,"population":20344,"departement":{"code":"22","nom":"Côtes-d'Armor"},"region":{"code":"53","nom":"Bretagne"}},{"nom":"Lanrelas","code":"22114","codesPostaux":["22250"],"centre":{"type":"Point","coordinates":[-2.296,48.2518]},"surface":3004.18,"population":856,"departement":{"code":"22","nom":"Côtes-d'Armor"},"region":{"code":"53","nom":"Bretagne"}},{"nom":"Lanrivain","code":"22115","codesPostaux":["22480"],"centre":{"type":"Point","coordinates":[-3.2086,48.351]},"surface":3752.65,"population":457,"departement":{"code":"22","nom":"Côtes-d'Armor"},"region":{"code":"53","nom":"Bretagne"}},{"nom":"Lanrodec","code":"22116","codesPostaux":["22170"],"centre":{"type":"Point","coordinates":[-3.0434,48.4977]},"surface":3196.66,"population":1375,"departement":{"code":"22","nom":"Côtes-d'Armor"},"region":{"code":"53","nom":"Bretagne"}},{"nom":"Lantic","code":"22117","codesPostaux":["22410"],"centre":{"type":"Point","coordinates":[-2.8969,48.6057]},"surface":1590.99,"population":1771,"departement":{"code":"22","nom":"Côtes-d'Armor"},"region":{"code":"53","nom":"Bretagne"}},{"nom":"Lanvallay","code":"22118","codesPostaux":["22100"],"centre":{"type":"Point","coordinates":[-2.0018,48.4533]},"surface":1487.19,"population":4222,"departement":{"code":"22","nom":"Côtes-d'Armor"},"region":{"code":"53","nom":"Bretagne"}},{"nom":"Lanvellec","code":"22119","codesPostaux":["22420"],"centre":{"type":"Point","coordinates":[-3.5285,48.6069]},"surface":1891.97,"population":595,"departement":{"code":"22","nom":"Côtes-d'Armor"},"region":{"code":"53","nom":"Bretagne"}},{"nom":"Lanvollon","code":"22121","codesPostaux":["22290"],"centre":{"type":"Point","coordinates":[-2.9913,48.6342]},"surface":507.39,"population":1846,"departement":{"code":"22","nom":"Côtes-d'Armor"},"region":{"code":"53","nom":"Bretagne"}},{"nom":"Laurenan","code":"22122","codesPostaux":["22230"],"centre":{"type":"Point","coordinates":[-2.5092,48.214]},"surface":3113.75,"population":739,"departement":{"code":"22","nom":"Côtes-d'Armor"},"region":{"code":"53","nom":"Bretagne"}},{"nom":"Lescouët-Gouarec","code":"22124","codesPostaux":["22570"],"centre":{"type":"Point","coordinates":[-3.2064,48.17]},"surface":1913.75,"population":214,"departement":{"code":"22","nom":"Côtes-d'Armor"},"region":{"code":"53","nom":"Bretagne"}},{"nom":"Le Leslay","code":"22126","codesPostaux":["22800"],"centre":{"type":"Point","coordinates":[-2.9629,48.4222]},"surface":508.69,"population":155,"departement":{"code":"22","nom":"Côtes-d'Armor"},"region":{"code":"53","nom":"Bretagne"}},{"nom":"Lézardrieux","code":"22127","codesPostaux":["22740"],"centre":{"type":"Point","coordinates":[-3.1051,48.8048]},"surface":1205.71,"population":1582,"departement":{"code":"22","nom":"Côtes-d'Armor"},"region":{"code":"53","nom":"Bretagne"}},{"nom":"Locarn","code":"22128","codesPostaux":["22340"],"centre":{"type":"Point","coordinates":[-3.4177,48.3317]},"surface":3255.03,"population":409,"departement":{"code":"22","nom":"Côtes-d'Armor"},"region":{"code":"53","nom":"Bretagne"}},{"nom":"Loc-Envel","code":"22129","codesPostaux":["22810"],"centre":{"type":"Point","coordinates":[-3.4107,48.5095]},"surface":339.69,"population":72,"departement":{"code":"22","nom":"Côtes-d'Armor"},"region":{"code":"53","nom":"Bretagne"}},{"nom":"Loguivy-Plougras","code":"22131","codesPostaux":["22780"],"centre":{"type":"Point","coordinates":[-3.4824,48.511]},"surface":4878.16,"population":792,"departement":{"code":"22","nom":"Côtes-d'Armor"},"region":{"code":"53","nom":"Bretagne"}},{"nom":"Lohuec","code":"22132","codesPostaux":["22160"],"centre":{"type":"Point","coordinates":[-3.5294,48.4627]},"surface":1751.03,"population":246,"departement":{"code":"22","nom":"Côtes-d'Armor"},"region":{"code":"53","nom":"Bretagne"}},{"nom":"Loscouët-sur-Meu","code":"22133","codesPostaux":["22230"],"centre":{"type":"Point","coordinates":[-2.2559,48.1792]},"surface":2221.49,"population":630,"departement":{"code":"22","nom":"Côtes-d'Armor"},"region":{"code":"53","nom":"Bretagne"}},{"nom":"Louannec","code":"22134","codesPostaux":["22700"],"centre":{"type":"Point","coordinates":[-3.4104,48.7792]},"surface":1421.39,"population":3085,"departement":{"code":"22","nom":"Côtes-d'Armor"},"region":{"code":"53","nom":"Bretagne"}},{"nom":"Louargat","code":"22135","codesPostaux":["22540"],"centre":{"type":"Point","coordinates":[-3.3359,48.5631]},"surface":5838.05,"population":2338,"departement":{"code":"22","nom":"Côtes-d'Armor"},"region":{"code":"53","nom":"Bretagne"}},{"nom":"Loudéac","code":"22136","codesPostaux":["22600"],"centre":{"type":"Point","coordinates":[-2.7442,48.1737]},"surface":8187.23,"population":9762,"departement":{"code":"22","nom":"Côtes-d'Armor"},"region":{"code":"53","nom":"Bretagne"}},{"nom":"Maël-Carhaix","code":"22137","codesPostaux":["22340"],"centre":{"type":"Point","coordinates":[-3.4168,48.2902]},"surface":3696.51,"population":1463,"departement":{"code":"22","nom":"Côtes-d'Armor"},"region":{"code":"53","nom":"Bretagne"}},{"nom":"Maël-Pestivien","code":"22138","codesPostaux":["22160"],"centre":{"type":"Point","coordinates":[-3.2949,48.4101]},"surface":3182.62,"population":348,"departement":{"code":"22","nom":"Côtes-d'Armor"},"region":{"code":"53","nom":"Bretagne"}},{"nom":"Magoar","code":"22139","codesPostaux":["22480"],"centre":{"type":"Point","coordinates":[-3.176,48.4017]},"surface":786.52,"population":80,"departement":{"code":"22","nom":"Côtes-d'Armor"},"region":{"code":"53","nom":"Bretagne"}},{"nom":"La Malhoure","code":"22140","codesPostaux":["22640"],"centre":{"type":"Point","coordinates":[-2.4957,48.3957]},"surface":516.72,"population":616,"departement":{"code":"22","nom":"Côtes-d'Armor"},"region":{"code":"53","nom":"Bretagne"}},{"nom":"Mantallot","code":"22141","codesPostaux":["22450"],"centre":{"type":"Point","coordinates":[-3.291,48.7081]},"surface":286.99,"population":235,"departement":{"code":"22","nom":"Côtes-d'Armor"},"region":{"code":"53","nom":"Bretagne"}},{"nom":"Matignon","code":"22143","codesPostaux":["22550"],"centre":{"type":"Point","coordinates":[-2.2916,48.6023]},"surface":1468.53,"population":1704,"departement":{"code":"22","nom":"Côtes-d'Armor"},"region":{"code":"53","nom":"Bretagne"}},{"nom":"La Méaugon","code":"22144","codesPostaux":["22440"],"centre":{"type":"Point","coordinates":[-2.8472,48.5036]},"surface":673.67,"population":1332,"departement":{"code":"22","nom":"Côtes-d'Armor"},"region":{"code":"53","nom":"Bretagne"}},{"nom":"Mégrit","code":"22145","codesPostaux":["22270"],"centre":{"type":"Point","coordinates":[-2.2714,48.3883]},"surface":2121.66,"population":818,"departement":{"code":"22","nom":"Côtes-d'Armor"},"region":{"code":"53","nom":"Bretagne"}},{"nom":"Mellionnec","code":"22146","codesPostaux":["22110"],"centre":{"type":"Point","coordinates":[-3.296,48.168]},"surface":2443.52,"population":399,"departement":{"code":"22","nom":"Côtes-d'Armor"},"region":{"code":"53","nom":"Bretagne"}},{"nom":"Merdrignac","code":"22147","codesPostaux":["22230"],"centre":{"type":"Point","coordinates":[-2.4001,48.1865]},"surface":5748.05,"population":2964,"departement":{"code":"22","nom":"Côtes-d'Armor"},"region":{"code":"53","nom":"Bretagne"}},{"nom":"Mérillac","code":"22148","codesPostaux":["22230"],"centre":{"type":"Point","coordinates":[-2.3873,48.2511]},"surface":1402.31,"population":236,"departement":{"code":"22","nom":"Côtes-d'Armor"},"region":{"code":"53","nom":"Bretagne"}},{"nom":"Merléac","code":"22149","codesPostaux":["22460"],"centre":{"type":"Point","coordinates":[-2.9112,48.2721]},"surface":3043.47,"population":446,"departement":{"code":"22","nom":"Côtes-d'Armor"},"region":{"code":"53","nom":"Bretagne"}},{"nom":"Le Merzer","code":"22150","codesPostaux":["22200"],"centre":{"type":"Point","coordinates":[-3.0778,48.5804]},"surface":1291.59,"population":961,"departement":{"code":"22","nom":"Côtes-d'Armor"},"region":{"code":"53","nom":"Bretagne"}},{"nom":"Minihy-Tréguier","code":"22152","codesPostaux":["22220"],"centre":{"type":"Point","coordinates":[-3.2586,48.7693]},"surface":1220.64,"population":1249,"departement":{"code":"22","nom":"Côtes-d'Armor"},"region":{"code":"53","nom":"Bretagne"}},{"nom":"Moncontour","code":"22153","codesPostaux":["22510"],"centre":{"type":"Point","coordinates":[-2.6348,48.3585]},"surface":48.1,"population":745,"departement":{"code":"22","nom":"Côtes-d'Armor"},"region":{"code":"53","nom":"Bretagne"}},{"nom":"La Motte","code":"22155","codesPostaux":["22600"],"centre":{"type":"Point","coordinates":[-2.7052,48.2342]},"surface":4351.11,"population":2145,"departement":{"code":"22","nom":"Côtes-d'Armor"},"region":{"code":"53","nom":"Bretagne"}},{"nom":"Moustéru","code":"22156","codesPostaux":["22200"],"centre":{"type":"Point","coordinates":[-3.2329,48.5282]},"surface":1447.06,"population":639,"departement":{"code":"22","nom":"Côtes-d'Armor"},"region":{"code":"53","nom":"Bretagne"}},{"nom":"Le Moustoir","code":"22157","codesPostaux":["22340"],"centre":{"type":"Point","coordinates":[-3.4855,48.2729]},"surface":1487.77,"population":663,"departement":{"code":"22","nom":"Côtes-d'Armor"},"region":{"code":"53","nom":"Bretagne"}},{"nom":"Guerlédan","code":"22158","codesPostaux":["22530"],"centre":{"type":"Point","coordinates":[-2.9481,48.1955]},"surface":4913.81,"population":2498,"departement":{"code":"22","nom":"Côtes-d'Armor"},"region":{"code":"53","nom":"Bretagne"}},{"nom":"Noyal","code":"22160","codesPostaux":["22400"],"centre":{"type":"Point","coordinates":[-2.4641,48.4513]},"surface":709.75,"population":962,"departement":{"code":"22","nom":"Côtes-d'Armor"},"region":{"code":"53","nom":"Bretagne"}},{"nom":"Pabu","code":"22161","codesPostaux":["22200"],"centre":{"type":"Point","coordinates":[-3.1445,48.5861]},"surface":798.03,"population":2762,"departement":{"code":"22","nom":"Côtes-d'Armor"},"region":{"code":"53","nom":"Bretagne"}},{"nom":"Paimpol","code":"22162","codesPostaux":["22500"],"centre":{"type":"Point","coordinates":[-3.0472,48.7789]},"surface":2385.92,"population":7191,"departement":{"code":"22","nom":"Côtes-d'Armor"},"region":{"code":"53","nom":"Bretagne"}},{"nom":"Paule","code":"22163","codesPostaux":["22340"],"centre":{"type":"Point","coordinates":[-3.461,48.2242]},"surface":3800.5,"population":679,"departement":{"code":"22","nom":"Côtes-d'Armor"},"region":{"code":"53","nom":"Bretagne"}},{"nom":"Pédernec","code":"22164","codesPostaux":["22540"],"centre":{"type":"Point","coordinates":[-3.2754,48.5869]},"surface":2700.32,"population":1874,"departement":{"code":"22","nom":"Côtes-d'Armor"},"region":{"code":"53","nom":"Bretagne"}},{"nom":"Penguily","code":"22165","codesPostaux":["22510"],"centre":{"type":"Point","coordinates":[-2.4949,48.3755]},"surface":1075.39,"population":607,"departement":{"code":"22","nom":"Côtes-d'Armor"},"region":{"code":"53","nom":"Bretagne"}},{"nom":"Penvénan","code":"22166","codesPostaux":["22710"],"centre":{"type":"Point","coordinates":[-3.3016,48.8223]},"surface":2034.87,"population":2511,"departement":{"code":"22","nom":"Côtes-d'Armor"},"region":{"code":"53","nom":"Bretagne"}},{"nom":"Perros-Guirec","code":"22168","codesPostaux":["22700"],"centre":{"type":"Point","coordinates":[-3.476,48.8377]},"surface":1492.75,"population":7175,"departement":{"code":"22","nom":"Côtes-d'Armor"},"region":{"code":"53","nom":"Bretagne"}},{"nom":"Peumerit-Quintin","code":"22169","codesPostaux":["22480"],"centre":{"type":"Point","coordinates":[-3.2923,48.368]},"surface":1491.26,"population":177,"departement":{"code":"22","nom":"Côtes-d'Armor"},"region":{"code":"53","nom":"Bretagne"}},{"nom":"Plaine-Haute","code":"22170","codesPostaux":["22800"],"centre":{"type":"Point","coordinates":[-2.861,48.4458]},"surface":1589.42,"population":1684,"departement":{"code":"22","nom":"Côtes-d'Armor"},"region":{"code":"53","nom":"Bretagne"}},{"nom":"Plaintel","code":"22171","codesPostaux":["22940"],"centre":{"type":"Point","coordinates":[-2.8072,48.4054]},"surface":2751.57,"population":4540,"departement":{"code":"22","nom":"Côtes-d'Armor"},"region":{"code":"53","nom":"Bretagne"}},{"nom":"Plancoët","code":"22172","codesPostaux":["22130"],"centre":{"type":"Point","coordinates":[-2.2184,48.5176]},"surface":1157.59,"population":3057,"departement":{"code":"22","nom":"Côtes-d'Armor"},"region":{"code":"53","nom":"Bretagne"}},{"nom":"Pléboulle","code":"22174","codesPostaux":["22550"],"centre":{"type":"Point","coordinates":[-2.33,48.5951]},"surface":1418,"population":768,"departement":{"code":"22","nom":"Côtes-d'Armor"},"region":{"code":"53","nom":"Bretagne"}},{"nom":"Plédéliac","code":"22175","codesPostaux":["22270"],"centre":{"type":"Point","coordinates":[-2.3675,48.4645]},"surface":5274.57,"population":1541,"departement":{"code":"22","nom":"Côtes-d'Armor"},"region":{"code":"53","nom":"Bretagne"}},{"nom":"Plédran","code":"22176","codesPostaux":["22960"],"centre":{"type":"Point","coordinates":[-2.7381,48.4426]},"surface":3463.98,"population":6910,"departement":{"code":"22","nom":"Côtes-d'Armor"},"region":{"code":"53","nom":"Bretagne"}},{"nom":"Pléguien","code":"22177","codesPostaux":["22290"],"centre":{"type":"Point","coordinates":[-2.9527,48.6351]},"surface":1568.96,"population":1412,"departement":{"code":"22","nom":"Côtes-d'Armor"},"region":{"code":"53","nom":"Bretagne"}},{"nom":"Pléhédel","code":"22178","codesPostaux":["22290"],"centre":{"type":"Point","coordinates":[-3.0068,48.6969]},"surface":1270.23,"population":1327,"departement":{"code":"22","nom":"Côtes-d'Armor"},"region":{"code":"53","nom":"Bretagne"}},{"nom":"Fréhel","code":"22179","codesPostaux":["22240"],"centre":{"type":"Point","coordinates":[-2.3716,48.6334]},"surface":1931.69,"population":1608,"departement":{"code":"22","nom":"Côtes-d'Armor"},"region":{"code":"53","nom":"Bretagne"}},{"nom":"Plélan-le-Petit","code":"22180","codesPostaux":["22980"],"centre":{"type":"Point","coordinates":[-2.2256,48.4274]},"surface":2176.78,"population":1933,"departement":{"code":"22","nom":"Côtes-d'Armor"},"region":{"code":"53","nom":"Bretagne"}},{"nom":"Plélauff","code":"22181","codesPostaux":["22570"],"centre":{"type":"Point","coordinates":[-3.1933,48.1954]},"surface":2594.69,"population":657,"departement":{"code":"22","nom":"Côtes-d'Armor"},"region":{"code":"53","nom":"Bretagne"}},{"nom":"Plélo","code":"22182","codesPostaux":["22170"],"centre":{"type":"Point","coordinates":[-2.9183,48.5567]},"surface":4446.14,"population":3230,"departement":{"code":"22","nom":"Côtes-d'Armor"},"region":{"code":"53","nom":"Bretagne"}},{"nom":"Plémet","code":"22183","codesPostaux":["22210"],"centre":{"type":"Point","coordinates":[-2.596,48.1732]},"surface":5759.81,"population":3739,"departement":{"code":"22","nom":"Côtes-d'Armor"},"region":{"code":"53","nom":"Bretagne"}},{"nom":"Plémy","code":"22184","codesPostaux":["22150"],"centre":{"type":"Point","coordinates":[-2.6716,48.337]},"surface":3995.74,"population":1589,"departement":{"code":"22","nom":"Côtes-d'Armor"},"region":{"code":"53","nom":"Bretagne"}},{"nom":"Plénée-Jugon","code":"22185","codesPostaux":["22640"],"centre":{"type":"Point","coordinates":[-2.412,48.3537]},"surface":6237.69,"population":2487,"departement":{"code":"22","nom":"Côtes-d'Armor"},"region":{"code":"53","nom":"Bretagne"}},{"nom":"Pléneuf-Val-André","code":"22186","codesPostaux":["22370"],"centre":{"type":"Point","coordinates":[-2.5352,48.5854]},"surface":1699.18,"population":4063,"departement":{"code":"22","nom":"Côtes-d'Armor"},"region":{"code":"53","nom":"Bretagne"}},{"nom":"Plérin","code":"22187","codesPostaux":["22190"],"centre":{"type":"Point","coordinates":[-2.7817,48.5467]},"surface":2756.53,"population":14704,"departement":{"code":"22","nom":"Côtes-d'Armor"},"region":{"code":"53","nom":"Bretagne"}},{"nom":"Plerneuf","code":"22188","codesPostaux":["22170"],"centre":{"type":"Point","coordinates":[-2.8824,48.5051]},"surface":852.51,"population":1115,"departement":{"code":"22","nom":"Côtes-d'Armor"},"region":{"code":"53","nom":"Bretagne"}},{"nom":"Plésidy","code":"22189","codesPostaux":["22720"],"centre":{"type":"Point","coordinates":[-3.1292,48.4444]},"surface":2620.99,"population":563,"departement":{"code":"22","nom":"Côtes-d'Armor"},"region":{"code":"53","nom":"Bretagne"}},{"nom":"Pleslin-Trigavou","code":"22190","codesPostaux":["22490"],"centre":{"type":"Point","coordinates":[-2.0706,48.5285]},"surface":2194.69,"population":3955,"departement":{"code":"22","nom":"Côtes-d'Armor"},"region":{"code":"53","nom":"Bretagne"}},{"nom":"Plestan","code":"22193","codesPostaux":["22640"],"centre":{"type":"Point","coordinates":[-2.428,48.4135]},"surface":3336.76,"population":1640,"departement":{"code":"22","nom":"Côtes-d'Armor"},"region":{"code":"53","nom":"Bretagne"}},{"nom":"Plestin-les-Grèves","code":"22194","codesPostaux":["22310"],"centre":{"type":"Point","coordinates":[-3.6197,48.6508]},"surface":3435.57,"population":3635,"departement":{"code":"22","nom":"Côtes-d'Armor"},"region":{"code":"53","nom":"Bretagne"}},{"nom":"Pleubian","code":"22195","codesPostaux":["22610"],"centre":{"type":"Point","coordinates":[-3.1176,48.8537]},"surface":2013.86,"population":2304,"departement":{"code":"22","nom":"Côtes-d'Armor"},"region":{"code":"53","nom":"Bretagne"}},{"nom":"Pleudaniel","code":"22196","codesPostaux":["22740"],"centre":{"type":"Point","coordinates":[-3.1537,48.7617]},"surface":1832.69,"population":929,"departement":{"code":"22","nom":"Côtes-d'Armor"},"region":{"code":"53","nom":"Bretagne"}},{"nom":"Pleudihen-sur-Rance","code":"22197","codesPostaux":["22690"],"centre":{"type":"Point","coordinates":[-1.9452,48.5138]},"surface":2495.59,"population":3025,"departement":{"code":"22","nom":"Côtes-d'Armor"},"region":{"code":"53","nom":"Bretagne"}},{"nom":"Pleumeur-Bodou","code":"22198","codesPostaux":["22560"],"centre":{"type":"Point","coordinates":[-3.5389,48.7897]},"surface":2752.4,"population":3809,"departement":{"code":"22","nom":"Côtes-d'Armor"},"region":{"code":"53","nom":"Bretagne"}},{"nom":"Pleumeur-Gautier","code":"22199","codesPostaux":["22740"],"centre":{"type":"Point","coordinates":[-3.148,48.7986]},"surface":1925.72,"population":1185,"departement":{"code":"22","nom":"Côtes-d'Armor"},"region":{"code":"53","nom":"Bretagne"}},{"nom":"Pléven","code":"22200","codesPostaux":["22130"],"centre":{"type":"Point","coordinates":[-2.3198,48.4916]},"surface":971.1,"population":610,"departement":{"code":"22","nom":"Côtes-d'Armor"},"region":{"code":"53","nom":"Bretagne"}},{"nom":"Plévenon","code":"22201","codesPostaux":["22240"],"centre":{"type":"Point","coordinates":[-2.317,48.6581]},"surface":1408.62,"population":754,"departement":{"code":"22","nom":"Côtes-d'Armor"},"region":{"code":"53","nom":"Bretagne"}},{"nom":"Plévin","code":"22202","codesPostaux":["22340"],"centre":{"type":"Point","coordinates":[-3.5191,48.22]},"surface":2777.94,"population":754,"departement":{"code":"22","nom":"Côtes-d'Armor"},"region":{"code":"53","nom":"Bretagne"}},{"nom":"Plœuc-L'Hermitage","code":"22203","codesPostaux":["22150"],"centre":{"type":"Point","coordinates":[-2.8172,48.3353]},"surface":8406.91,"population":4112,"departement":{"code":"22","nom":"Côtes-d'Armor"},"region":{"code":"53","nom":"Bretagne"}},{"nom":"Ploëzal","code":"22204","codesPostaux":["22260"],"centre":{"type":"Point","coordinates":[-3.1809,48.7179]},"surface":2644.74,"population":1224,"departement":{"code":"22","nom":"Côtes-d'Armor"},"region":{"code":"53","nom":"Bretagne"}},{"nom":"Plorec-sur-Arguenon","code":"22205","codesPostaux":["22130"],"centre":{"type":"Point","coordinates":[-2.3024,48.4653]},"surface":1386.94,"population":422,"departement":{"code":"22","nom":"Côtes-d'Armor"},"region":{"code":"53","nom":"Bretagne"}},{"nom":"Châtelaudren-Plouagat","code":"22206","codesPostaux":["22170"],"centre":{"type":"Point","coordinates":[-2.9872,48.5311]},"surface":3283.28,"population":3961,"departement":{"code":"22","nom":"Côtes-d'Armor"},"region":{"code":"53","nom":"Bretagne"}},{"nom":"Plouaret","code":"22207","codesPostaux":["22420"],"centre":{"type":"Point","coordinates":[-3.4832,48.6161]},"surface":3063.34,"population":2206,"departement":{"code":"22","nom":"Côtes-d'Armor"},"region":{"code":"53","nom":"Bretagne"}},{"nom":"Plouasne","code":"22208","codesPostaux":["22830"],"centre":{"type":"Point","coordinates":[-2.0102,48.3118]},"surface":3453.8,"population":1729,"departement":{"code":"22","nom":"Côtes-d'Armor"},"region":{"code":"53","nom":"Bretagne"}},{"nom":"Beaussais-sur-Mer","code":"22209","codesPostaux":["22650"],"centre":{"type":"Point","coordinates":[-2.1383,48.5627]},"surface":4188.12,"population":4168,"departement":{"code":"22","nom":"Côtes-d'Armor"},"region":{"code":"53","nom":"Bretagne"}},{"nom":"Ploubazlanec","code":"22210","codesPostaux":["22620"],"centre":{"type":"Point","coordinates":[-3.0308,48.8047]},"surface":1534.99,"population":3040,"departement":{"code":"22","nom":"Côtes-d'Armor"},"region":{"code":"53","nom":"Bretagne"}},{"nom":"Ploubezre","code":"22211","codesPostaux":["22300"],"centre":{"type":"Point","coordinates":[-3.4509,48.6877]},"surface":3110.41,"population":3743,"departement":{"code":"22","nom":"Côtes-d'Armor"},"region":{"code":"53","nom":"Bretagne"}},{"nom":"Plouëc-du-Trieux","code":"22212","codesPostaux":["22260"],"centre":{"type":"Point","coordinates":[-3.1889,48.6719]},"surface":1854.14,"population":1143,"departement":{"code":"22","nom":"Côtes-d'Armor"},"region":{"code":"53","nom":"Bretagne"}},{"nom":"Plouër-sur-Rance","code":"22213","codesPostaux":["22490"],"centre":{"type":"Point","coordinates":[-2.0064,48.5254]},"surface":2029.05,"population":3469,"departement":{"code":"22","nom":"Côtes-d'Armor"},"region":{"code":"53","nom":"Bretagne"}},{"nom":"Plouézec","code":"22214","codesPostaux":["22470"],"centre":{"type":"Point","coordinates":[-2.976,48.745]},"surface":2841.85,"population":3110,"departement":{"code":"22","nom":"Côtes-d'Armor"},"region":{"code":"53","nom":"Bretagne"}},{"nom":"Ploufragan","code":"22215","codesPostaux":["22440"],"centre":{"type":"Point","coordinates":[-2.8001,48.4915]},"surface":2685.14,"population":11369,"departement":{"code":"22","nom":"Côtes-d'Armor"},"region":{"code":"53","nom":"Bretagne"}},{"nom":"Plougonver","code":"22216","codesPostaux":["22810"],"centre":{"type":"Point","coordinates":[-3.3859,48.4848]},"surface":3639.98,"population":754,"departement":{"code":"22","nom":"Côtes-d'Armor"},"region":{"code":"53","nom":"Bretagne"}},{"nom":"Plougras","code":"22217","codesPostaux":["22780"],"centre":{"type":"Point","coordinates":[-3.5655,48.5031]},"surface":2703.1,"population":421,"departement":{"code":"22","nom":"Côtes-d'Armor"},"region":{"code":"53","nom":"Bretagne"}},{"nom":"Plougrescant","code":"22218","codesPostaux":["22820"],"centre":{"type":"Point","coordinates":[-3.2276,48.8423]},"surface":1620.73,"population":1153,"departement":{"code":"22","nom":"Côtes-d'Armor"},"region":{"code":"53","nom":"Bretagne"}},{"nom":"Plouguenast-Langast","code":"22219","codesPostaux":["22150"],"centre":{"type":"Point","coordinates":[-2.6933,48.2802]},"surface":5547.01,"population":2406,"departement":{"code":"22","nom":"Côtes-d'Armor"},"region":{"code":"53","nom":"Bretagne"}},{"nom":"Plouguernével","code":"22220","codesPostaux":["22110"],"centre":{"type":"Point","coordinates":[-3.2395,48.2296]},"surface":4177.6,"population":1605,"departement":{"code":"22","nom":"Côtes-d'Armor"},"region":{"code":"53","nom":"Bretagne"}},{"nom":"Plouguiel","code":"22221","codesPostaux":["22220"],"centre":{"type":"Point","coordinates":[-3.2455,48.8065]},"surface":1960.64,"population":1745,"departement":{"code":"22","nom":"Côtes-d'Armor"},"region":{"code":"53","nom":"Bretagne"}},{"nom":"Plouha","code":"22222","codesPostaux":["22580"],"centre":{"type":"Point","coordinates":[-2.9334,48.6855]},"surface":4132.89,"population":4596,"departement":{"code":"22","nom":"Côtes-d'Armor"},"region":{"code":"53","nom":"Bretagne"}},{"nom":"Plouisy","code":"22223","codesPostaux":["22200"],"centre":{"type":"Point","coordinates":[-3.1885,48.5775]},"surface":2394.02,"population":2006,"departement":{"code":"22","nom":"Côtes-d'Armor"},"region":{"code":"53","nom":"Bretagne"}},{"nom":"Ploulec'h","code":"22224","codesPostaux":["22300"],"centre":{"type":"Point","coordinates":[-3.5001,48.7183]},"surface":980.59,"population":1578,"departement":{"code":"22","nom":"Côtes-d'Armor"},"region":{"code":"53","nom":"Bretagne"}},{"nom":"Ploumagoar","code":"22225","codesPostaux":["22970"],"centre":{"type":"Point","coordinates":[-3.1096,48.5295]},"surface":3211.57,"population":5411,"departement":{"code":"22","nom":"Côtes-d'Armor"},"region":{"code":"53","nom":"Bretagne"}},{"nom":"Ploumilliau","code":"22226","codesPostaux":["22300"],"centre":{"type":"Point","coordinates":[-3.5116,48.6869]},"surface":3472.95,"population":2453,"departement":{"code":"22","nom":"Côtes-d'Armor"},"region":{"code":"53","nom":"Bretagne"}},{"nom":"Plounérin","code":"22227","codesPostaux":["22780"],"centre":{"type":"Point","coordinates":[-3.5472,48.5667]},"surface":2633.11,"population":793,"departement":{"code":"22","nom":"Côtes-d'Armor"},"region":{"code":"53","nom":"Bretagne"}},{"nom":"Plounévez-Moëdec","code":"22228","codesPostaux":["22810"],"centre":{"type":"Point","coordinates":[-3.4499,48.55]},"surface":4104.54,"population":1467,"departement":{"code":"22","nom":"Côtes-d'Armor"},"region":{"code":"53","nom":"Bretagne"}},{"nom":"Plounévez-Quintin","code":"22229","codesPostaux":["22110"],"centre":{"type":"Point","coordinates":[-3.2384,48.2898]},"surface":4326.49,"population":1060,"departement":{"code":"22","nom":"Côtes-d'Armor"},"region":{"code":"53","nom":"Bretagne"}},{"nom":"Plourac'h","code":"22231","codesPostaux":["22160"],"centre":{"type":"Point","coordinates":[-3.5531,48.416]},"surface":3258.87,"population":339,"departement":{"code":"22","nom":"Côtes-d'Armor"},"region":{"code":"53","nom":"Bretagne"}},{"nom":"Plourhan","code":"22232","codesPostaux":["22410"],"centre":{"type":"Point","coordinates":[-2.8839,48.6303]},"surface":1726.83,"population":2088,"departement":{"code":"22","nom":"Côtes-d'Armor"},"region":{"code":"53","nom":"Bretagne"}},{"nom":"Plourivo","code":"22233","codesPostaux":["22860"],"centre":{"type":"Point","coordinates":[-3.0965,48.7388]},"surface":2814.14,"population":2263,"departement":{"code":"22","nom":"Côtes-d'Armor"},"region":{"code":"53","nom":"Bretagne"}},{"nom":"Plouvara","code":"22234","codesPostaux":["22170"],"centre":{"type":"Point","coordinates":[-2.9259,48.4962]},"surface":2299.96,"population":1154,"departement":{"code":"22","nom":"Côtes-d'Armor"},"region":{"code":"53","nom":"Bretagne"}},{"nom":"Plouzélambre","code":"22235","codesPostaux":["22420"],"centre":{"type":"Point","coordinates":[-3.5346,48.6476]},"surface":778.91,"population":214,"departement":{"code":"22","nom":"Côtes-d'Armor"},"region":{"code":"53","nom":"Bretagne"}},{"nom":"Pludual","code":"22236","codesPostaux":["22290"],"centre":{"type":"Point","coordinates":[-2.9868,48.6653]},"surface":959.29,"population":730,"departement":{"code":"22","nom":"Côtes-d'Armor"},"region":{"code":"53","nom":"Bretagne"}},{"nom":"Pluduno","code":"22237","codesPostaux":["22130"],"centre":{"type":"Point","coordinates":[-2.2875,48.5238]},"surface":2882.55,"population":2208,"departement":{"code":"22","nom":"Côtes-d'Armor"},"region":{"code":"53","nom":"Bretagne"}},{"nom":"Plufur","code":"22238","codesPostaux":["22310"],"centre":{"type":"Point","coordinates":[-3.5756,48.6141]},"surface":1749.94,"population":533,"departement":{"code":"22","nom":"Côtes-d'Armor"},"region":{"code":"53","nom":"Bretagne"}},{"nom":"Plumaudan","code":"22239","codesPostaux":["22350"],"centre":{"type":"Point","coordinates":[-2.1179,48.3542]},"surface":1915.06,"population":1382,"departement":{"code":"22","nom":"Côtes-d'Armor"},"region":{"code":"53","nom":"Bretagne"}},{"nom":"Plumaugat","code":"22240","codesPostaux":["22250"],"centre":{"type":"Point","coordinates":[-2.2322,48.2451]},"surface":4377.41,"population":1130,"departement":{"code":"22","nom":"Côtes-d'Armor"},"region":{"code":"53","nom":"Bretagne"}},{"nom":"Plumieux","code":"22241","codesPostaux":["22210"],"centre":{"type":"Point","coordinates":[-2.6018,48.1088]},"surface":3982.09,"population":1025,"departement":{"code":"22","nom":"Côtes-d'Armor"},"region":{"code":"53","nom":"Bretagne"}},{"nom":"Plurien","code":"22242","codesPostaux":["22240"],"centre":{"type":"Point","coordinates":[-2.3959,48.6115]},"surface":2169,"population":1528,"departement":{"code":"22","nom":"Côtes-d'Armor"},"region":{"code":"53","nom":"Bretagne"}},{"nom":"Plusquellec","code":"22243","codesPostaux":["22160"],"centre":{"type":"Point","coordinates":[-3.4821,48.3968]},"surface":2683.52,"population":553,"departement":{"code":"22","nom":"Côtes-d'Armor"},"region":{"code":"53","nom":"Bretagne"}},{"nom":"Plussulien","code":"22244","codesPostaux":["22320"],"centre":{"type":"Point","coordinates":[-3.0608,48.2763]},"surface":2273.04,"population":493,"departement":{"code":"22","nom":"Côtes-d'Armor"},"region":{"code":"53","nom":"Bretagne"}},{"nom":"Pluzunet","code":"22245","codesPostaux":["22140"],"centre":{"type":"Point","coordinates":[-3.3765,48.6368]},"surface":2359.34,"population":952,"departement":{"code":"22","nom":"Côtes-d'Armor"},"region":{"code":"53","nom":"Bretagne"}},{"nom":"Pommeret","code":"22246","codesPostaux":["22120"],"centre":{"type":"Point","coordinates":[-2.6215,48.4599]},"surface":1356.93,"population":2121,"departement":{"code":"22","nom":"Côtes-d'Armor"},"region":{"code":"53","nom":"Bretagne"}},{"nom":"Pommerit-le-Vicomte","code":"22248","codesPostaux":["22200"],"centre":{"type":"Point","coordinates":[-3.0959,48.6182]},"surface":3367.44,"population":1834,"departement":{"code":"22","nom":"Côtes-d'Armor"},"region":{"code":"53","nom":"Bretagne"}},{"nom":"Pont-Melvez","code":"22249","codesPostaux":["22390"],"centre":{"type":"Point","coordinates":[-3.2837,48.475]},"surface":2354.67,"population":607,"departement":{"code":"22","nom":"Côtes-d'Armor"},"region":{"code":"53","nom":"Bretagne"}},{"nom":"Pontrieux","code":"22250","codesPostaux":["22260"],"centre":{"type":"Point","coordinates":[-3.1602,48.7]},"surface":104.55,"population":998,"departement":{"code":"22","nom":"Côtes-d'Armor"},"region":{"code":"53","nom":"Bretagne"}},{"nom":"Pordic","code":"22251","codesPostaux":["22590"],"centre":{"type":"Point","coordinates":[-2.825,48.5695]},"surface":3374.59,"population":7316,"departement":{"code":"22","nom":"Côtes-d'Armor"},"region":{"code":"53","nom":"Bretagne"}},{"nom":"Prat","code":"22254","codesPostaux":["22140"],"centre":{"type":"Point","coordinates":[-3.2922,48.6804]},"surface":2227.73,"population":1103,"departement":{"code":"22","nom":"Côtes-d'Armor"},"region":{"code":"53","nom":"Bretagne"}},{"nom":"La Prénessaye","code":"22255","codesPostaux":["22210"],"centre":{"type":"Point","coordinates":[-2.6479,48.1852]},"surface":1729.06,"population":874,"departement":{"code":"22","nom":"Côtes-d'Armor"},"region":{"code":"53","nom":"Bretagne"}},{"nom":"Quemper-Guézennec","code":"22256","codesPostaux":["22260"],"centre":{"type":"Point","coordinates":[-3.1023,48.7008]},"surface":2309.97,"population":1057,"departement":{"code":"22","nom":"Côtes-d'Armor"},"region":{"code":"53","nom":"Bretagne"}},{"nom":"Quemperven","code":"22257","codesPostaux":["22450"],"centre":{"type":"Point","coordinates":[-3.3357,48.7267]},"surface":797.6,"population":404,"departement":{"code":"22","nom":"Côtes-d'Armor"},"region":{"code":"53","nom":"Bretagne"}},{"nom":"Quessoy","code":"22258","codesPostaux":["22120"],"centre":{"type":"Point","coordinates":[-2.6587,48.4273]},"surface":3014.34,"population":3891,"departement":{"code":"22","nom":"Côtes-d'Armor"},"region":{"code":"53","nom":"Bretagne"}},{"nom":"Quévert","code":"22259","codesPostaux":["22100"],"centre":{"type":"Point","coordinates":[-2.0852,48.466]},"surface":1282.63,"population":3966,"departement":{"code":"22","nom":"Côtes-d'Armor"},"region":{"code":"53","nom":"Bretagne"}},{"nom":"Le Quillio","code":"22260","codesPostaux":["22460"],"centre":{"type":"Point","coordinates":[-2.9033,48.2439]},"surface":1640.02,"population":579,"departement":{"code":"22","nom":"Côtes-d'Armor"},"region":{"code":"53","nom":"Bretagne"}},{"nom":"Quintenic","code":"22261","codesPostaux":["22400"],"centre":{"type":"Point","coordinates":[-2.4249,48.5104]},"surface":751.65,"population":363,"departement":{"code":"22","nom":"Côtes-d'Armor"},"region":{"code":"53","nom":"Bretagne"}},{"nom":"Quintin","code":"22262","codesPostaux":["22800"],"centre":{"type":"Point","coordinates":[-2.9132,48.4029]},"surface":311.12,"population":2783,"departement":{"code":"22","nom":"Côtes-d'Armor"},"region":{"code":"53","nom":"Bretagne"}},{"nom":"Le Quiou","code":"22263","codesPostaux":["22630"],"centre":{"type":"Point","coordinates":[-1.9963,48.3464]},"surface":524.68,"population":351,"departement":{"code":"22","nom":"Côtes-d'Armor"},"region":{"code":"53","nom":"Bretagne"}},{"nom":"La Roche-Jaudy","code":"22264","codesPostaux":["22450"],"centre":{"type":"Point","coordinates":[-3.23,48.7304]},"surface":2993.95,"population":2657,"departement":{"code":"22","nom":"Côtes-d'Armor"},"region":{"code":"53","nom":"Bretagne"}},{"nom":"Rospez","code":"22265","codesPostaux":["22300"],"centre":{"type":"Point","coordinates":[-3.3862,48.7385]},"surface":1340.02,"population":1787,"departement":{"code":"22","nom":"Côtes-d'Armor"},"region":{"code":"53","nom":"Bretagne"}},{"nom":"Rostrenen","code":"22266","codesPostaux":["22110"],"centre":{"type":"Point","coordinates":[-3.3105,48.2223]},"surface":3234.11,"population":3207,"departement":{"code":"22","nom":"Côtes-d'Armor"},"region":{"code":"53","nom":"Bretagne"}},{"nom":"Rouillac","code":"22267","codesPostaux":["22250"],"centre":{"type":"Point","coordinates":[-2.3661,48.308]},"surface":1607.88,"population":396,"departement":{"code":"22","nom":"Côtes-d'Armor"},"region":{"code":"53","nom":"Bretagne"}},{"nom":"Ruca","code":"22268","codesPostaux":["22550"],"centre":{"type":"Point","coordinates":[-2.336,48.5598]},"surface":1227.98,"population":595,"departement":{"code":"22","nom":"Côtes-d'Armor"},"region":{"code":"53","nom":"Bretagne"}},{"nom":"Runan","code":"22269","codesPostaux":["22260"],"centre":{"type":"Point","coordinates":[-3.2284,48.6857]},"surface":527.19,"population":262,"departement":{"code":"22","nom":"Côtes-d'Armor"},"region":{"code":"53","nom":"Bretagne"}},{"nom":"Saint-Adrien","code":"22271","codesPostaux":["22390"],"centre":{"type":"Point","coordinates":[-3.1318,48.4931]},"surface":1001.55,"population":359,"departement":{"code":"22","nom":"Côtes-d'Armor"},"region":{"code":"53","nom":"Bretagne"}},{"nom":"Saint-Agathon","code":"22272","codesPostaux":["22200"],"centre":{"type":"Point","coordinates":[-3.0995,48.5664]},"surface":1462.49,"population":2236,"departement":{"code":"22","nom":"Côtes-d'Armor"},"region":{"code":"53","nom":"Bretagne"}},{"nom":"Saint-Alban","code":"22273","codesPostaux":["22400"],"centre":{"type":"Point","coordinates":[-2.5174,48.5556]},"surface":3031.2,"population":2309,"departement":{"code":"22","nom":"Côtes-d'Armor"},"region":{"code":"53","nom":"Bretagne"}},{"nom":"Saint-André-des-Eaux","code":"22274","codesPostaux":["22630"],"centre":{"type":"Point","coordinates":[-2.0131,48.3745]},"surface":553.47,"population":390,"departement":{"code":"22","nom":"Côtes-d'Armor"},"region":{"code":"53","nom":"Bretagne"}},{"nom":"Saint-Barnabé","code":"22275","codesPostaux":["22600"],"centre":{"type":"Point","coordinates":[-2.6995,48.1387]},"surface":2327.85,"population":1214,"departement":{"code":"22","nom":"Côtes-d'Armor"},"region":{"code":"53","nom":"Bretagne"}},{"nom":"Saint-Bihy","code":"22276","codesPostaux":["22800"],"centre":{"type":"Point","coordinates":[-2.9697,48.3763]},"surface":837.5,"population":264,"departement":{"code":"22","nom":"Côtes-d'Armor"},"region":{"code":"53","nom":"Bretagne"}},{"nom":"Saint-Brandan","code":"22277","codesPostaux":["22800"],"centre":{"type":"Point","coordinates":[-2.8736,48.3904]},"surface":2552.97,"population":2295,"departement":{"code":"22","nom":"Côtes-d'Armor"},"region":{"code":"53","nom":"Bretagne"}},{"nom":"Saint-Brieuc","code":"22278","codesPostaux":["22000"],"centre":{"type":"Point","coordinates":[-2.7657,48.5108]},"surface":1923.1,"population":44224,"departement":{"code":"22","nom":"Côtes-d'Armor"},"region":{"code":"53","nom":"Bretagne"}},{"nom":"Saint-Caradec","code":"22279","codesPostaux":["22600"],"centre":{"type":"Point","coordinates":[-2.8653,48.1993]},"surface":2217.7,"population":1131,"departement":{"code":"22","nom":"Côtes-d'Armor"},"region":{"code":"53","nom":"Bretagne"}},{"nom":"Saint-Carné","code":"22280","codesPostaux":["22100"],"centre":{"type":"Point","coordinates":[-2.0517,48.4193]},"surface":852.12,"population":1096,"departement":{"code":"22","nom":"Côtes-d'Armor"},"region":{"code":"53","nom":"Bretagne"}},{"nom":"Saint-Carreuc","code":"22281","codesPostaux":["22150"],"centre":{"type":"Point","coordinates":[-2.7471,48.4017]},"surface":1323.32,"population":1532,"departement":{"code":"22","nom":"Côtes-d'Armor"},"region":{"code":"53","nom":"Bretagne"}},{"nom":"Saint-Cast-le-Guildo","code":"22282","codesPostaux":["22380"],"centre":{"type":"Point","coordinates":[-2.2499,48.6077]},"surface":2288.24,"population":3334,"departement":{"code":"22","nom":"Côtes-d'Armor"},"region":{"code":"53","nom":"Bretagne"}},{"nom":"Saint-Clet","code":"22283","codesPostaux":["22260"],"centre":{"type":"Point","coordinates":[-3.1348,48.6694]},"surface":1482.99,"population":872,"departement":{"code":"22","nom":"Côtes-d'Armor"},"region":{"code":"53","nom":"Bretagne"}},{"nom":"Saint-Connan","code":"22284","codesPostaux":["22480"],"centre":{"type":"Point","coordinates":[-3.0786,48.4108]},"surface":1370.07,"population":294,"departement":{"code":"22","nom":"Côtes-d'Armor"},"region":{"code":"53","nom":"Bretagne"}},{"nom":"Saint-Connec","code":"22285","codesPostaux":["22530"],"centre":{"type":"Point","coordinates":[-2.9259,48.1821]},"surface":1123.92,"population":259,"departement":{"code":"22","nom":"Côtes-d'Armor"},"region":{"code":"53","nom":"Bretagne"}},{"nom":"Saint-Denoual","code":"22286","codesPostaux":["22400"],"centre":{"type":"Point","coordinates":[-2.3811,48.5193]},"surface":870.31,"population":484,"departement":{"code":"22","nom":"Côtes-d'Armor"},"region":{"code":"53","nom":"Bretagne"}},{"nom":"Saint-Donan","code":"22287","codesPostaux":["22800"],"centre":{"type":"Point","coordinates":[-2.8856,48.4633]},"surface":2289.25,"population":1456,"departement":{"code":"22","nom":"Côtes-d'Armor"},"region":{"code":"53","nom":"Bretagne"}},{"nom":"Saint-Étienne-du-Gué-de-l'Isle","code":"22288","codesPostaux":["22210"],"centre":{"type":"Point","coordinates":[-2.6398,48.0816]},"surface":1516.99,"population":365,"departement":{"code":"22","nom":"Côtes-d'Armor"},"region":{"code":"53","nom":"Bretagne"}},{"nom":"Saint-Fiacre","code":"22289","codesPostaux":["22720"],"centre":{"type":"Point","coordinates":[-3.0546,48.456]},"surface":978.28,"population":213,"departement":{"code":"22","nom":"Côtes-d'Armor"},"region":{"code":"53","nom":"Bretagne"}},{"nom":"Saint-Gildas","code":"22291","codesPostaux":["22800"],"centre":{"type":"Point","coordinates":[-3.0014,48.4255]},"surface":1602.46,"population":244,"departement":{"code":"22","nom":"Côtes-d'Armor"},"region":{"code":"53","nom":"Bretagne"}},{"nom":"Saint-Gilles-les-Bois","code":"22293","codesPostaux":["22290"],"centre":{"type":"Point","coordinates":[-3.0884,48.6569]},"surface":958.72,"population":392,"departement":{"code":"22","nom":"Côtes-d'Armor"},"region":{"code":"53","nom":"Bretagne"}},{"nom":"Saint-Gilles-Pligeaux","code":"22294","codesPostaux":["22480"],"centre":{"type":"Point","coordinates":[-3.0836,48.3767]},"surface":1995.9,"population":305,"departement":{"code":"22","nom":"Côtes-d'Armor"},"region":{"code":"53","nom":"Bretagne"}},{"nom":"Saint-Gilles-Vieux-Marché","code":"22295","codesPostaux":["22530"],"centre":{"type":"Point","coordinates":[-2.973,48.2481]},"surface":2224.87,"population":328,"departement":{"code":"22","nom":"Côtes-d'Armor"},"region":{"code":"53","nom":"Bretagne"}},{"nom":"Saint-Glen","code":"22296","codesPostaux":["22510"],"centre":{"type":"Point","coordinates":[-2.5266,48.3468]},"surface":1110.51,"population":662,"departement":{"code":"22","nom":"Côtes-d'Armor"},"region":{"code":"53","nom":"Bretagne"}},{"nom":"Saint-Hélen","code":"22299","codesPostaux":["22100"],"centre":{"type":"Point","coordinates":[-1.9639,48.466]},"surface":1714.97,"population":1531,"departement":{"code":"22","nom":"Côtes-d'Armor"},"region":{"code":"53","nom":"Bretagne"}},{"nom":"Saint-Hervé","code":"22300","codesPostaux":["22460"],"centre":{"type":"Point","coordinates":[-2.8122,48.2761]},"surface":998.35,"population":401,"departement":{"code":"22","nom":"Côtes-d'Armor"},"region":{"code":"53","nom":"Bretagne"}},{"nom":"Saint-Jacut-de-la-Mer","code":"22302","codesPostaux":["22750"],"centre":{"type":"Point","coordinates":[-2.1942,48.6001]},"surface":302.68,"population":910,"departement":{"code":"22","nom":"Côtes-d'Armor"},"region":{"code":"53","nom":"Bretagne"}},{"nom":"Saint-Jean-Kerdaniel","code":"22304","codesPostaux":["22170"],"centre":{"type":"Point","coordinates":[-3.0334,48.5513]},"surface":1114.42,"population":680,"departement":{"code":"22","nom":"Côtes-d'Armor"},"region":{"code":"53","nom":"Bretagne"}},{"nom":"Saint-Jouan-de-l'Isle","code":"22305","codesPostaux":["22350"],"centre":{"type":"Point","coordinates":[-2.1788,48.2645]},"surface":835.07,"population":469,"departement":{"code":"22","nom":"Côtes-d'Armor"},"region":{"code":"53","nom":"Bretagne"}},{"nom":"Saint-Judoce","code":"22306","codesPostaux":["22630"],"centre":{"type":"Point","coordinates":[-1.952,48.3646]},"surface":1043.51,"population":578,"departement":{"code":"22","nom":"Côtes-d'Armor"},"region":{"code":"53","nom":"Bretagne"}},{"nom":"Saint-Julien","code":"22307","codesPostaux":["22940"],"centre":{"type":"Point","coordinates":[-2.8177,48.4486]},"surface":561.21,"population":2066,"departement":{"code":"22","nom":"Côtes-d'Armor"},"region":{"code":"53","nom":"Bretagne"}},{"nom":"Saint-Juvat","code":"22308","codesPostaux":["22630"],"centre":{"type":"Point","coordinates":[-2.0573,48.3663]},"surface":1804.01,"population":649,"departement":{"code":"22","nom":"Côtes-d'Armor"},"region":{"code":"53","nom":"Bretagne"}},{"nom":"Saint-Launeuc","code":"22309","codesPostaux":["22230"],"centre":{"type":"Point","coordinates":[-2.3645,48.2316]},"surface":1175.91,"population":190,"departement":{"code":"22","nom":"Côtes-d'Armor"},"region":{"code":"53","nom":"Bretagne"}},{"nom":"Saint-Laurent","code":"22310","codesPostaux":["22140"],"centre":{"type":"Point","coordinates":[-3.2472,48.6204]},"surface":896.56,"population":512,"departement":{"code":"22","nom":"Côtes-d'Armor"},"region":{"code":"53","nom":"Bretagne"}},{"nom":"Saint-Lormel","code":"22311","codesPostaux":["22130"],"centre":{"type":"Point","coordinates":[-2.2374,48.5494]},"surface":981.28,"population":882,"departement":{"code":"22","nom":"Côtes-d'Armor"},"region":{"code":"53","nom":"Bretagne"}},{"nom":"Saint-Maden","code":"22312","codesPostaux":["22350"],"centre":{"type":"Point","coordinates":[-2.0655,48.3363]},"surface":676.63,"population":221,"departement":{"code":"22","nom":"Côtes-d'Armor"},"region":{"code":"53","nom":"Bretagne"}},{"nom":"Saint-Martin-des-Prés","code":"22313","codesPostaux":["22320"],"centre":{"type":"Point","coordinates":[-2.9674,48.3031]},"surface":2060.32,"population":316,"departement":{"code":"22","nom":"Côtes-d'Armor"},"region":{"code":"53","nom":"Bretagne"}},{"nom":"Saint-Maudan","code":"22314","codesPostaux":["22600"],"centre":{"type":"Point","coordinates":[-2.7672,48.1071]},"surface":683.76,"population":398,"departement":{"code":"22","nom":"Côtes-d'Armor"},"region":{"code":"53","nom":"Bretagne"}},{"nom":"Saint-Maudez","code":"22315","codesPostaux":["22980"],"centre":{"type":"Point","coordinates":[-2.1798,48.4549]},"surface":537.68,"population":284,"departement":{"code":"22","nom":"Côtes-d'Armor"},"region":{"code":"53","nom":"Bretagne"}},{"nom":"Saint-Mayeux","code":"22316","codesPostaux":["22320"],"centre":{"type":"Point","coordinates":[-3.021,48.264]},"surface":3076.57,"population":463,"departement":{"code":"22","nom":"Côtes-d'Armor"},"region":{"code":"53","nom":"Bretagne"}},{"nom":"Saint-Méloir-des-Bois","code":"22317","codesPostaux":["22980"],"centre":{"type":"Point","coordinates":[-2.2559,48.4376]},"surface":633.81,"population":270,"departement":{"code":"22","nom":"Côtes-d'Armor"},"region":{"code":"53","nom":"Bretagne"}},{"nom":"Saint-Michel-de-Plélan","code":"22318","codesPostaux":["22980"],"centre":{"type":"Point","coordinates":[-2.219,48.4617]},"surface":772.47,"population":305,"departement":{"code":"22","nom":"Côtes-d'Armor"},"region":{"code":"53","nom":"Bretagne"}},{"nom":"Saint-Michel-en-Grève","code":"22319","codesPostaux":["22300"],"centre":{"type":"Point","coordinates":[-3.5563,48.6758]},"surface":466.84,"population":448,"departement":{"code":"22","nom":"Côtes-d'Armor"},"region":{"code":"53","nom":"Bretagne"}},{"nom":"Saint-Nicodème","code":"22320","codesPostaux":["22160"],"centre":{"type":"Point","coordinates":[-3.342,48.3602]},"surface":1723.97,"population":174,"departement":{"code":"22","nom":"Côtes-d'Armor"},"region":{"code":"53","nom":"Bretagne"}},{"nom":"Saint-Nicolas-du-Pélem","code":"22321","codesPostaux":["22480"],"centre":{"type":"Point","coordinates":[-3.166,48.3265]},"surface":4145.81,"population":1548,"departement":{"code":"22","nom":"Côtes-d'Armor"},"region":{"code":"53","nom":"Bretagne"}},{"nom":"Saint-Péver","code":"22322","codesPostaux":["22720"],"centre":{"type":"Point","coordinates":[-3.0878,48.4819]},"surface":1313.98,"population":380,"departement":{"code":"22","nom":"Côtes-d'Armor"},"region":{"code":"53","nom":"Bretagne"}},{"nom":"Saint-Pôtan","code":"22323","codesPostaux":["22550"],"centre":{"type":"Point","coordinates":[-2.2977,48.5589]},"surface":2020.16,"population":828,"departement":{"code":"22","nom":"Côtes-d'Armor"},"region":{"code":"53","nom":"Bretagne"}},{"nom":"Saint-Quay-Perros","code":"22324","codesPostaux":["22700"],"centre":{"type":"Point","coordinates":[-3.4493,48.7787]},"surface":474.71,"population":1285,"departement":{"code":"22","nom":"Côtes-d'Armor"},"region":{"code":"53","nom":"Bretagne"}},{"nom":"Saint-Quay-Portrieux","code":"22325","codesPostaux":["22410"],"centre":{"type":"Point","coordinates":[-2.8403,48.6552]},"surface":402.31,"population":3175,"departement":{"code":"22","nom":"Côtes-d'Armor"},"region":{"code":"53","nom":"Bretagne"}},{"nom":"Saint-Rieul","code":"22326","codesPostaux":["22270"],"centre":{"type":"Point","coordinates":[-2.4235,48.4413]},"surface":642.97,"population":545,"departement":{"code":"22","nom":"Côtes-d'Armor"},"region":{"code":"53","nom":"Bretagne"}},{"nom":"Saint-Samson-sur-Rance","code":"22327","codesPostaux":["22100"],"centre":{"type":"Point","coordinates":[-2.0168,48.49]},"surface":636.52,"population":1635,"departement":{"code":"22","nom":"Côtes-d'Armor"},"region":{"code":"53","nom":"Bretagne"}},{"nom":"Saint-Servais","code":"22328","codesPostaux":["22160"],"centre":{"type":"Point","coordinates":[-3.3753,48.3819]},"surface":2828.11,"population":418,"departement":{"code":"22","nom":"Côtes-d'Armor"},"region":{"code":"53","nom":"Bretagne"}},{"nom":"Saint-Thélo","code":"22330","codesPostaux":["22460"],"centre":{"type":"Point","coordinates":[-2.8381,48.246]},"surface":1465.29,"population":378,"departement":{"code":"22","nom":"Côtes-d'Armor"},"region":{"code":"53","nom":"Bretagne"}},{"nom":"Sainte-Tréphine","code":"22331","codesPostaux":["22480"],"centre":{"type":"Point","coordinates":[-3.1687,48.2632]},"surface":1267.36,"population":186,"departement":{"code":"22","nom":"Côtes-d'Armor"},"region":{"code":"53","nom":"Bretagne"}},{"nom":"Saint-Trimoël","code":"22332","codesPostaux":["22510"],"centre":{"type":"Point","coordinates":[-2.5427,48.3928]},"surface":860.87,"population":513,"departement":{"code":"22","nom":"Côtes-d'Armor"},"region":{"code":"53","nom":"Bretagne"}},{"nom":"Saint-Vran","code":"22333","codesPostaux":["22230"],"centre":{"type":"Point","coordinates":[-2.459,48.2428]},"surface":2834.74,"population":760,"departement":{"code":"22","nom":"Côtes-d'Armor"},"region":{"code":"53","nom":"Bretagne"}},{"nom":"Saint-Igeaux","code":"22334","codesPostaux":["22570"],"centre":{"type":"Point","coordinates":[-3.118,48.278]},"surface":1290.76,"population":124,"departement":{"code":"22","nom":"Côtes-d'Armor"},"region":{"code":"53","nom":"Bretagne"}},{"nom":"Senven-Léhart","code":"22335","codesPostaux":["22720"],"centre":{"type":"Point","coordinates":[-3.0609,48.4356]},"surface":1271.81,"population":239,"departement":{"code":"22","nom":"Côtes-d'Armor"},"region":{"code":"53","nom":"Bretagne"}},{"nom":"Sévignac","code":"22337","codesPostaux":["22250"],"centre":{"type":"Point","coordinates":[-2.3244,48.3312]},"surface":4393.32,"population":1116,"departement":{"code":"22","nom":"Côtes-d'Armor"},"region":{"code":"53","nom":"Bretagne"}},{"nom":"Squiffiec","code":"22338","codesPostaux":["22200"],"centre":{"type":"Point","coordinates":[-3.1659,48.6385]},"surface":1082.37,"population":756,"departement":{"code":"22","nom":"Côtes-d'Armor"},"region":{"code":"53","nom":"Bretagne"}},{"nom":"Taden","code":"22339","codesPostaux":["22100"],"centre":{"type":"Point","coordinates":[-2.0536,48.4867]},"surface":2033.55,"population":2563,"departement":{"code":"22","nom":"Côtes-d'Armor"},"region":{"code":"53","nom":"Bretagne"}},{"nom":"Tonquédec","code":"22340","codesPostaux":["22140"],"centre":{"type":"Point","coordinates":[-3.3962,48.6782]},"surface":1849.54,"population":1201,"departement":{"code":"22","nom":"Côtes-d'Armor"},"region":{"code":"53","nom":"Bretagne"}},{"nom":"Tramain","code":"22341","codesPostaux":["22640"],"centre":{"type":"Point","coordinates":[-2.3877,48.4001]},"surface":937.11,"population":697,"departement":{"code":"22","nom":"Côtes-d'Armor"},"region":{"code":"53","nom":"Bretagne"}},{"nom":"Trébédan","code":"22342","codesPostaux":["22980"],"centre":{"type":"Point","coordinates":[-2.1622,48.4056]},"surface":1118.01,"population":435,"departement":{"code":"22","nom":"Côtes-d'Armor"},"region":{"code":"53","nom":"Bretagne"}},{"nom":"Trébeurden","code":"22343","codesPostaux":["22560"],"centre":{"type":"Point","coordinates":[-3.5652,48.772]},"surface":1371.7,"population":3761,"departement":{"code":"22","nom":"Côtes-d'Armor"},"region":{"code":"53","nom":"Bretagne"}},{"nom":"Trébrivan","code":"22344","codesPostaux":["22340"],"centre":{"type":"Point","coordinates":[-3.4806,48.3116]},"surface":2300.76,"population":759,"departement":{"code":"22","nom":"Côtes-d'Armor"},"region":{"code":"53","nom":"Bretagne"}},{"nom":"Trébry","code":"22345","codesPostaux":["22510"],"centre":{"type":"Point","coordinates":[-2.5589,48.343]},"surface":2550.28,"population":801,"departement":{"code":"22","nom":"Côtes-d'Armor"},"region":{"code":"53","nom":"Bretagne"}},{"nom":"Trédaniel","code":"22346","codesPostaux":["22510"],"centre":{"type":"Point","coordinates":[-2.6039,48.3482]},"surface":1597.84,"population":886,"departement":{"code":"22","nom":"Côtes-d'Armor"},"region":{"code":"53","nom":"Bretagne"}},{"nom":"Trédarzec","code":"22347","codesPostaux":["22220"],"centre":{"type":"Point","coordinates":[-3.2,48.7923]},"surface":1158.26,"population":1061,"departement":{"code":"22","nom":"Côtes-d'Armor"},"region":{"code":"53","nom":"Bretagne"}},{"nom":"Trédias","code":"22348","codesPostaux":["22250"],"centre":{"type":"Point","coordinates":[-2.2243,48.367]},"surface":1132.59,"population":502,"departement":{"code":"22","nom":"Côtes-d'Armor"},"region":{"code":"53","nom":"Bretagne"}},{"nom":"Trédrez-Locquémeau","code":"22349","codesPostaux":["22300"],"centre":{"type":"Point","coordinates":[-3.5623,48.7094]},"surface":1063.82,"population":1456,"departement":{"code":"22","nom":"Côtes-d'Armor"},"region":{"code":"53","nom":"Bretagne"}},{"nom":"Tréduder","code":"22350","codesPostaux":["22310"],"centre":{"type":"Point","coordinates":[-3.5663,48.6559]},"surface":480.78,"population":192,"departement":{"code":"22","nom":"Côtes-d'Armor"},"region":{"code":"53","nom":"Bretagne"}},{"nom":"Treffrin","code":"22351","codesPostaux":["22340"],"centre":{"type":"Point","coordinates":[-3.5308,48.3001]},"surface":751.27,"population":533,"departement":{"code":"22","nom":"Côtes-d'Armor"},"region":{"code":"53","nom":"Bretagne"}},{"nom":"Tréfumel","code":"22352","codesPostaux":["22630"],"centre":{"type":"Point","coordinates":[-2.0236,48.3401]},"surface":598.96,"population":275,"departement":{"code":"22","nom":"Côtes-d'Armor"},"region":{"code":"53","nom":"Bretagne"}},{"nom":"Trégastel","code":"22353","codesPostaux":["22730"],"centre":{"type":"Point","coordinates":[-3.512,48.8166]},"surface":722.28,"population":2541,"departement":{"code":"22","nom":"Côtes-d'Armor"},"region":{"code":"53","nom":"Bretagne"}},{"nom":"Tréglamus","code":"22354","codesPostaux":["22540"],"centre":{"type":"Point","coordinates":[-3.2523,48.5534]},"surface":1925.79,"population":1105,"departement":{"code":"22","nom":"Côtes-d'Armor"},"region":{"code":"53","nom":"Bretagne"}},{"nom":"Trégomeur","code":"22356","codesPostaux":["22590"],"centre":{"type":"Point","coordinates":[-2.8857,48.5666]},"surface":1071.61,"population":948,"departement":{"code":"22","nom":"Côtes-d'Armor"},"region":{"code":"53","nom":"Bretagne"}},{"nom":"Trégonneau","code":"22358","codesPostaux":["22200"],"centre":{"type":"Point","coordinates":[-3.1644,48.6144]},"surface":628.53,"population":541,"departement":{"code":"22","nom":"Côtes-d'Armor"},"region":{"code":"53","nom":"Bretagne"}},{"nom":"Trégrom","code":"22359","codesPostaux":["22420"],"centre":{"type":"Point","coordinates":[-3.4042,48.5962]},"surface":1688.08,"population":429,"departement":{"code":"22","nom":"Côtes-d'Armor"},"region":{"code":"53","nom":"Bretagne"}},{"nom":"Trégueux","code":"22360","codesPostaux":["22950"],"centre":{"type":"Point","coordinates":[-2.7454,48.4769]},"surface":1446.04,"population":8450,"departement":{"code":"22","nom":"Côtes-d'Armor"},"region":{"code":"53","nom":"Bretagne"}},{"nom":"Tréguidel","code":"22361","codesPostaux":["22290"],"centre":{"type":"Point","coordinates":[-2.9436,48.5996]},"surface":665.21,"population":631,"departement":{"code":"22","nom":"Côtes-d'Armor"},"region":{"code":"53","nom":"Bretagne"}},{"nom":"Tréguier","code":"22362","codesPostaux":["22220"],"centre":{"type":"Point","coordinates":[-3.2331,48.7846]},"surface":160.07,"population":2409,"departement":{"code":"22","nom":"Côtes-d'Armor"},"region":{"code":"53","nom":"Bretagne"}},{"nom":"Trélévern","code":"22363","codesPostaux":["22660"],"centre":{"type":"Point","coordinates":[-3.3689,48.8014]},"surface":704.66,"population":1241,"departement":{"code":"22","nom":"Côtes-d'Armor"},"region":{"code":"53","nom":"Bretagne"}},{"nom":"Trélivan","code":"22364","codesPostaux":["22100"],"centre":{"type":"Point","coordinates":[-2.1025,48.427]},"surface":1132.71,"population":2892,"departement":{"code":"22","nom":"Côtes-d'Armor"},"region":{"code":"53","nom":"Bretagne"}},{"nom":"Trémargat","code":"22365","codesPostaux":["22110"],"centre":{"type":"Point","coordinates":[-3.268,48.3265]},"surface":1398.81,"population":176,"departement":{"code":"22","nom":"Côtes-d'Armor"},"region":{"code":"53","nom":"Bretagne"}},{"nom":"Trémel","code":"22366","codesPostaux":["22310"],"centre":{"type":"Point","coordinates":[-3.6219,48.6052]},"surface":1189.96,"population":404,"departement":{"code":"22","nom":"Côtes-d'Armor"},"region":{"code":"53","nom":"Bretagne"}},{"nom":"Tréméreuc","code":"22368","codesPostaux":["22490"],"centre":{"type":"Point","coordinates":[-2.0634,48.5601]},"surface":415.59,"population":731,"departement":{"code":"22","nom":"Côtes-d'Armor"},"region":{"code":"53","nom":"Bretagne"}},{"nom":"Trémeur","code":"22369","codesPostaux":["22250"],"centre":{"type":"Point","coordinates":[-2.2668,48.3535]},"surface":1488.03,"population":797,"departement":{"code":"22","nom":"Côtes-d'Armor"},"region":{"code":"53","nom":"Bretagne"}},{"nom":"Tréméven","code":"22370","codesPostaux":["22290"],"centre":{"type":"Point","coordinates":[-3.0323,48.6709]},"surface":517.9,"population":352,"departement":{"code":"22","nom":"Côtes-d'Armor"},"region":{"code":"53","nom":"Bretagne"}},{"nom":"Trémorel","code":"22371","codesPostaux":["22230"],"centre":{"type":"Point","coordinates":[-2.3007,48.1891]},"surface":3393.36,"population":1150,"departement":{"code":"22","nom":"Côtes-d'Armor"},"region":{"code":"53","nom":"Bretagne"}},{"nom":"Trémuson","code":"22372","codesPostaux":["22440"],"centre":{"type":"Point","coordinates":[-2.8476,48.5246]},"surface":630.11,"population":2201,"departement":{"code":"22","nom":"Côtes-d'Armor"},"region":{"code":"53","nom":"Bretagne"}},{"nom":"Tréogan","code":"22373","codesPostaux":["22340"],"centre":{"type":"Point","coordinates":[-3.5316,48.1879]},"surface":711.61,"population":108,"departement":{"code":"22","nom":"Côtes-d'Armor"},"region":{"code":"53","nom":"Bretagne"}},{"nom":"Tressignaux","code":"22375","codesPostaux":["22290"],"centre":{"type":"Point","coordinates":[-2.9743,48.6085]},"surface":740.64,"population":694,"departement":{"code":"22","nom":"Côtes-d'Armor"},"region":{"code":"53","nom":"Bretagne"}},{"nom":"Trévé","code":"22376","codesPostaux":["22600"],"centre":{"type":"Point","coordinates":[-2.8074,48.2139]},"surface":2669.46,"population":1684,"departement":{"code":"22","nom":"Côtes-d'Armor"},"region":{"code":"53","nom":"Bretagne"}},{"nom":"Tréveneuc","code":"22377","codesPostaux":["22410"],"centre":{"type":"Point","coordinates":[-2.8733,48.66]},"surface":671.06,"population":804,"departement":{"code":"22","nom":"Côtes-d'Armor"},"region":{"code":"53","nom":"Bretagne"}},{"nom":"Trévérec","code":"22378","codesPostaux":["22290"],"centre":{"type":"Point","coordinates":[-3.0572,48.6619]},"surface":435.75,"population":220,"departement":{"code":"22","nom":"Côtes-d'Armor"},"region":{"code":"53","nom":"Bretagne"}},{"nom":"Trévou-Tréguignec","code":"22379","codesPostaux":["22660"],"centre":{"type":"Point","coordinates":[-3.3451,48.811]},"surface":665.67,"population":1541,"departement":{"code":"22","nom":"Côtes-d'Armor"},"region":{"code":"53","nom":"Bretagne"}},{"nom":"Trévron","code":"22380","codesPostaux":["22100"],"centre":{"type":"Point","coordinates":[-2.0682,48.3909]},"surface":981.41,"population":684,"departement":{"code":"22","nom":"Côtes-d'Armor"},"region":{"code":"53","nom":"Bretagne"}},{"nom":"Trézény","code":"22381","codesPostaux":["22450"],"centre":{"type":"Point","coordinates":[-3.361,48.7546]},"surface":330.49,"population":354,"departement":{"code":"22","nom":"Côtes-d'Armor"},"region":{"code":"53","nom":"Bretagne"}},{"nom":"Troguéry","code":"22383","codesPostaux":["22450"],"centre":{"type":"Point","coordinates":[-3.2262,48.7606]},"surface":325.72,"population":211,"departement":{"code":"22","nom":"Côtes-d'Armor"},"region":{"code":"53","nom":"Bretagne"}},{"nom":"Uzel","code":"22384","codesPostaux":["22460"],"centre":{"type":"Point","coordinates":[-2.8487,48.2794]},"surface":695.01,"population":1107,"departement":{"code":"22","nom":"Côtes-d'Armor"},"region":{"code":"53","nom":"Bretagne"}},{"nom":"La Vicomté-sur-Rance","code":"22385","codesPostaux":["22690"],"centre":{"type":"Point","coordinates":[-1.9834,48.4882]},"surface":467.31,"population":1125,"departement":{"code":"22","nom":"Côtes-d'Armor"},"region":{"code":"53","nom":"Bretagne"}},{"nom":"Le Vieux-Bourg","code":"22386","codesPostaux":["22800"],"centre":{"type":"Point","coordinates":[-2.997,48.3902]},"surface":2568.31,"population":777,"departement":{"code":"22","nom":"Côtes-d'Armor"},"region":{"code":"53","nom":"Bretagne"}},{"nom":"Le Vieux-Marché","code":"22387","codesPostaux":["22420"],"centre":{"type":"Point","coordinates":[-3.44,48.6148]},"surface":2232.45,"population":1273,"departement":{"code":"22","nom":"Côtes-d'Armor"},"region":{"code":"53","nom":"Bretagne"}},{"nom":"Vildé-Guingalan","code":"22388","codesPostaux":["22980"],"centre":{"type":"Point","coordinates":[-2.1532,48.4351]},"surface":753.2,"population":1276,"departement":{"code":"22","nom":"Côtes-d'Armor"},"region":{"code":"53","nom":"Bretagne"}},{"nom":"Yffiniac","code":"22389","codesPostaux":["22120"],"centre":{"type":"Point","coordinates":[-2.6862,48.4695]},"surface":1735.22,"population":4987,"departement":{"code":"22","nom":"Côtes-d'Armor"},"region":{"code":"53","nom":"Bretagne"}},{"nom":"Yvias","code":"22390","codesPostaux":["22930"],"centre":{"type":"Point","coordinates":[-3.0449,48.7193]},"surface":1175.48,"population":774,"departement":{"code":"22","nom":"Côtes-d'Armor"},"region":{"code":"53","nom":"Bretagne"}},{"nom":"Yvignac-la-Tour","code":"22391","codesPostaux":["22350"],"centre":{"type":"Point","coordinates":[-2.1661,48.3496]},"surface":3635.34,"population":1113,"departement":{"code":"22","nom":"Côtes-d'Armor"},"region":{"code":"53","nom":"Bretagne"}}]