[{"nom":"Ablancourt","code":"51001","codesPostaux":["51240"],"centre":{"type":"Point","coordinates":[4.531,48.8103]},"surface":717.04,"population":165,"departement":{"code":"51","nom":"Marne"},"region":{"code":"44","nom":"Grand Est"}},{"nom":"Saint-Martin-d'Ablois","code":"51002","codesPostaux":["51530"],"centre":{"type":"Point","coordinates":[3.846,49.0128]},"surface":2227.53,"population":1374,"departement":{"code":"51","nom":"Marne"},"region":{"code":"44","nom":"Grand Est"}},{"nom":"Aigny","code":"51003","codesPostaux":["51150"],"centre":{"type":"Point","coordinates":[4.2243,49.0434]},"surface":1122.11,"population":283,"departement":{"code":"51","nom":"Marne"},"region":{"code":"44","nom":"Grand Est"}},{"nom":"Allemanche-Launay-et-Soyer","code":"51004","codesPostaux":["51260"],"centre":{"type":"Point","coordinates":[3.7932,48.608]},"surface":1524.99,"population":116,"departement":{"code":"51","nom":"Marne"},"region":{"code":"44","nom":"Grand Est"}},{"nom":"Allemant","code":"51005","codesPostaux":["51120"],"centre":{"type":"Point","coordinates":[3.8221,48.7633]},"surface":1585.26,"population":176,"departement":{"code":"51","nom":"Marne"},"region":{"code":"44","nom":"Grand Est"}},{"nom":"Alliancelles","code":"51006","codesPostaux":["51250"],"centre":{"type":"Point","coordinates":[4.8744,48.8016]},"surface":695.91,"population":150,"departement":{"code":"51","nom":"Marne"},"region":{"code":"44","nom":"Grand Est"}},{"nom":"Ambonnay","code":"51007","codesPostaux":["51150"],"centre":{"type":"Point","coordinates":[4.1778,49.0926]},"surface":1173.82,"population":958,"departement":{"code":"51","nom":"Marne"},"region":{"code":"44","nom":"Grand Est"}},{"nom":"Ambrières","code":"51008","codesPostaux":["51290"],"centre":{"type":"Point","coordinates":[4.8276,48.6285]},"surface":1000.96,"population":212,"departement":{"code":"51","nom":"Marne"},"region":{"code":"44","nom":"Grand Est"}},{"nom":"Anglure","code":"51009","codesPostaux":["51260"],"centre":{"type":"Point","coordinates":[3.8166,48.5891]},"surface":805.76,"population":797,"departement":{"code":"51","nom":"Marne"},"region":{"code":"44","nom":"Grand Est"}},{"nom":"Angluzelles-et-Courcelles","code":"51010","codesPostaux":["51230"],"centre":{"type":"Point","coordinates":[3.9125,48.6646]},"surface":1374.65,"population":142,"departement":{"code":"51","nom":"Marne"},"region":{"code":"44","nom":"Grand Est"}},{"nom":"Anthenay","code":"51012","codesPostaux":["51700"],"centre":{"type":"Point","coordinates":[3.7368,49.1414]},"surface":662.2,"population":71,"departement":{"code":"51","nom":"Marne"},"region":{"code":"44","nom":"Grand Est"}},{"nom":"Aougny","code":"51013","codesPostaux":["51170"],"centre":{"type":"Point","coordinates":[3.7267,49.1878]},"surface":748.49,"population":100,"departement":{"code":"51","nom":"Marne"},"region":{"code":"44","nom":"Grand Est"}},{"nom":"Arcis-le-Ponsart","code":"51014","codesPostaux":["51170"],"centre":{"type":"Point","coordinates":[3.6868,49.2235]},"surface":1548.46,"population":287,"departement":{"code":"51","nom":"Marne"},"region":{"code":"44","nom":"Grand Est"}},{"nom":"Argers","code":"51015","codesPostaux":["51800"],"centre":{"type":"Point","coordinates":[4.8597,49.0654]},"surface":698.61,"population":109,"departement":{"code":"51","nom":"Marne"},"region":{"code":"44","nom":"Grand Est"}},{"nom":"Arrigny","code":"51016","codesPostaux":["51290"],"centre":{"type":"Point","coordinates":[4.6936,48.6036]},"surface":1607.77,"population":240,"departement":{"code":"51","nom":"Marne"},"region":{"code":"44","nom":"Grand Est"}},{"nom":"Arzillières-Neuville","code":"51017","codesPostaux":["51290"],"centre":{"type":"Point","coordinates":[4.6041,48.6419]},"surface":1224.71,"population":327,"departement":{"code":"51","nom":"Marne"},"region":{"code":"44","nom":"Grand Est"}},{"nom":"Athis","code":"51018","codesPostaux":["51150"],"centre":{"type":"Point","coordinates":[4.1302,49.0022]},"surface":1686.04,"population":892,"departement":{"code":"51","nom":"Marne"},"region":{"code":"44","nom":"Grand Est"}},{"nom":"Aubérive","code":"51019","codesPostaux":["51600"],"centre":{"type":"Point","coordinates":[4.4114,49.1959]},"surface":2766.55,"population":254,"departement":{"code":"51","nom":"Marne"},"region":{"code":"44","nom":"Grand Est"}},{"nom":"Aubilly","code":"51020","codesPostaux":["51170"],"centre":{"type":"Point","coordinates":[3.8536,49.2122]},"surface":320.72,"population":52,"departement":{"code":"51","nom":"Marne"},"region":{"code":"44","nom":"Grand Est"}},{"nom":"Aulnay-l'Aître","code":"51022","codesPostaux":["51240"],"centre":{"type":"Point","coordinates":[4.5674,48.8262]},"surface":830.93,"population":184,"departement":{"code":"51","nom":"Marne"},"region":{"code":"44","nom":"Grand Est"}},{"nom":"Aulnay-sur-Marne","code":"51023","codesPostaux":["51150"],"centre":{"type":"Point","coordinates":[4.2091,48.9986]},"surface":907.24,"population":273,"departement":{"code":"51","nom":"Marne"},"region":{"code":"44","nom":"Grand Est"}},{"nom":"Auménancourt","code":"51025","codesPostaux":["51110"],"centre":{"type":"Point","coordinates":[4.0605,49.3823]},"surface":1281.29,"population":1106,"departement":{"code":"51","nom":"Marne"},"region":{"code":"44","nom":"Grand Est"}},{"nom":"Auve","code":"51027","codesPostaux":["51800"],"centre":{"type":"Point","coordinates":[4.6851,49.028]},"surface":2326.73,"population":306,"departement":{"code":"51","nom":"Marne"},"region":{"code":"44","nom":"Grand Est"}},{"nom":"Avenay-Val-d'Or","code":"51028","codesPostaux":["51160"],"centre":{"type":"Point","coordinates":[4.0453,49.0743]},"surface":1242.17,"population":984,"departement":{"code":"51","nom":"Marne"},"region":{"code":"44","nom":"Grand Est"}},{"nom":"Avize","code":"51029","codesPostaux":["51190"],"centre":{"type":"Point","coordinates":[4.0056,48.9724]},"surface":762.58,"population":1760,"departement":{"code":"51","nom":"Marne"},"region":{"code":"44","nom":"Grand Est"}},{"nom":"Aÿ-Champagne","code":"51030","codesPostaux":["51150","51160"],"centre":{"type":"Point","coordinates":[4.0414,49.0561]},"surface":3209.75,"population":5197,"departement":{"code":"51","nom":"Marne"},"region":{"code":"44","nom":"Grand Est"}},{"nom":"Baconnes","code":"51031","codesPostaux":["51400"],"centre":{"type":"Point","coordinates":[4.3344,49.1663]},"surface":2121.26,"population":283,"departement":{"code":"51","nom":"Marne"},"region":{"code":"44","nom":"Grand Est"}},{"nom":"Bagneux","code":"51032","codesPostaux":["51260"],"centre":{"type":"Point","coordinates":[3.8304,48.5605]},"surface":1385.53,"population":413,"departement":{"code":"51","nom":"Marne"},"region":{"code":"44","nom":"Grand Est"}},{"nom":"Le Baizil","code":"51033","codesPostaux":["51270"],"centre":{"type":"Point","coordinates":[3.7947,48.9749]},"surface":1465.77,"population":260,"departement":{"code":"51","nom":"Marne"},"region":{"code":"44","nom":"Grand Est"}},{"nom":"Bannay","code":"51034","codesPostaux":["51270"],"centre":{"type":"Point","coordinates":[3.7218,48.8565]},"surface":718.64,"population":22,"departement":{"code":"51","nom":"Marne"},"region":{"code":"44","nom":"Grand Est"}},{"nom":"Bannes","code":"51035","codesPostaux":["51230"],"centre":{"type":"Point","coordinates":[3.9308,48.7908]},"surface":2330.22,"population":244,"departement":{"code":"51","nom":"Marne"},"region":{"code":"44","nom":"Grand Est"}},{"nom":"Barbonne-Fayel","code":"51036","codesPostaux":["51120"],"centre":{"type":"Point","coordinates":[3.6885,48.6541]},"surface":2439,"population":490,"departement":{"code":"51","nom":"Marne"},"region":{"code":"44","nom":"Grand Est"}},{"nom":"Baslieux-lès-Fismes","code":"51037","codesPostaux":["51170"],"centre":{"type":"Point","coordinates":[3.7148,49.3233]},"surface":560.27,"population":344,"departement":{"code":"51","nom":"Marne"},"region":{"code":"44","nom":"Grand Est"}},{"nom":"Baslieux-sous-Châtillon","code":"51038","codesPostaux":["51700"],"centre":{"type":"Point","coordinates":[3.794,49.1245]},"surface":589.15,"population":178,"departement":{"code":"51","nom":"Marne"},"region":{"code":"44","nom":"Grand Est"}},{"nom":"Bassu","code":"51039","codesPostaux":["51300"],"centre":{"type":"Point","coordinates":[4.6918,48.8334]},"surface":1028.88,"population":93,"departement":{"code":"51","nom":"Marne"},"region":{"code":"44","nom":"Grand Est"}},{"nom":"Bassuet","code":"51040","codesPostaux":["51300"],"centre":{"type":"Point","coordinates":[4.6699,48.8023]},"surface":836.76,"population":243,"departement":{"code":"51","nom":"Marne"},"region":{"code":"44","nom":"Grand Est"}},{"nom":"Baudement","code":"51041","codesPostaux":["51260"],"centre":{"type":"Point","coordinates":[3.7721,48.5802]},"surface":854.2,"population":99,"departement":{"code":"51","nom":"Marne"},"region":{"code":"44","nom":"Grand Est"}},{"nom":"Baye","code":"51042","codesPostaux":["51270"],"centre":{"type":"Point","coordinates":[3.7566,48.8595]},"surface":1798.91,"population":386,"departement":{"code":"51","nom":"Marne"},"region":{"code":"44","nom":"Grand Est"}},{"nom":"Bazancourt","code":"51043","codesPostaux":["51110"],"centre":{"type":"Point","coordinates":[4.1704,49.371]},"surface":1165.3,"population":2388,"departement":{"code":"51","nom":"Marne"},"region":{"code":"44","nom":"Grand Est"}},{"nom":"Beaumont-sur-Vesle","code":"51044","codesPostaux":["51360"],"centre":{"type":"Point","coordinates":[4.1826,49.175]},"surface":574.15,"population":776,"departement":{"code":"51","nom":"Marne"},"region":{"code":"44","nom":"Grand Est"}},{"nom":"Beaunay","code":"51045","codesPostaux":["51270"],"centre":{"type":"Point","coordinates":[3.8857,48.8771]},"surface":355.76,"population":103,"departement":{"code":"51","nom":"Marne"},"region":{"code":"44","nom":"Grand Est"}},{"nom":"Beine-Nauroy","code":"51046","codesPostaux":["51490"],"centre":{"type":"Point","coordinates":[4.2322,49.2444]},"surface":4271.57,"population":990,"departement":{"code":"51","nom":"Marne"},"region":{"code":"44","nom":"Grand Est"}},{"nom":"Belval-en-Argonne","code":"51047","codesPostaux":["51330"],"centre":{"type":"Point","coordinates":[4.9814,48.9439]},"surface":1220.92,"population":44,"departement":{"code":"51","nom":"Marne"},"region":{"code":"44","nom":"Grand Est"}},{"nom":"Belval-sous-Châtillon","code":"51048","codesPostaux":["51480"],"centre":{"type":"Point","coordinates":[3.8533,49.124]},"surface":712.13,"population":169,"departement":{"code":"51","nom":"Marne"},"region":{"code":"44","nom":"Grand Est"}},{"nom":"Bergères-lès-Vertus","code":"51049","codesPostaux":["51130"],"centre":{"type":"Point","coordinates":[4.0108,48.8747]},"surface":1834.09,"population":582,"departement":{"code":"51","nom":"Marne"},"region":{"code":"44","nom":"Grand Est"}},{"nom":"Bergères-sous-Montmirail","code":"51050","codesPostaux":["51210"],"centre":{"type":"Point","coordinates":[3.5965,48.8472]},"surface":1061.9,"population":139,"departement":{"code":"51","nom":"Marne"},"region":{"code":"44","nom":"Grand Est"}},{"nom":"Berméricourt","code":"51051","codesPostaux":["51220"],"centre":{"type":"Point","coordinates":[3.9842,49.3639]},"surface":809.36,"population":255,"departement":{"code":"51","nom":"Marne"},"region":{"code":"44","nom":"Grand Est"}},{"nom":"Berru","code":"51052","codesPostaux":["51420"],"centre":{"type":"Point","coordinates":[4.1631,49.2711]},"surface":1366.17,"population":609,"departement":{"code":"51","nom":"Marne"},"region":{"code":"44","nom":"Grand Est"}},{"nom":"Berzieux","code":"51053","codesPostaux":["51800"],"centre":{"type":"Point","coordinates":[4.7949,49.1606]},"surface":1165.68,"population":73,"departement":{"code":"51","nom":"Marne"},"region":{"code":"44","nom":"Grand Est"}},{"nom":"Bétheniville","code":"51054","codesPostaux":["51490"],"centre":{"type":"Point","coordinates":[4.3672,49.2929]},"surface":1769.13,"population":1280,"departement":{"code":"51","nom":"Marne"},"region":{"code":"44","nom":"Grand Est"}},{"nom":"Bétheny","code":"51055","codesPostaux":["51450"],"centre":{"type":"Point","coordinates":[4.0623,49.2979]},"surface":2000.18,"population":7086,"departement":{"code":"51","nom":"Marne"},"region":{"code":"44","nom":"Grand Est"}},{"nom":"Bethon","code":"51056","codesPostaux":["51260"],"centre":{"type":"Point","coordinates":[3.6084,48.6105]},"surface":1535.44,"population":235,"departement":{"code":"51","nom":"Marne"},"region":{"code":"44","nom":"Grand Est"}},{"nom":"Bettancourt-la-Longue","code":"51057","codesPostaux":["51330"],"centre":{"type":"Point","coordinates":[4.882,48.8339]},"surface":614.95,"population":75,"departement":{"code":"51","nom":"Marne"},"region":{"code":"44","nom":"Grand Est"}},{"nom":"Bezannes","code":"51058","codesPostaux":["51430"],"centre":{"type":"Point","coordinates":[3.9915,49.2223]},"surface":812.18,"population":4011,"departement":{"code":"51","nom":"Marne"},"region":{"code":"44","nom":"Grand Est"}},{"nom":"Bignicourt-sur-Marne","code":"51059","codesPostaux":["51300"],"centre":{"type":"Point","coordinates":[4.6084,48.6804]},"surface":284.08,"population":372,"departement":{"code":"51","nom":"Marne"},"region":{"code":"44","nom":"Grand Est"}},{"nom":"Bignicourt-sur-Saulx","code":"51060","codesPostaux":["51340"],"centre":{"type":"Point","coordinates":[4.7912,48.7586]},"surface":1105.35,"population":159,"departement":{"code":"51","nom":"Marne"},"region":{"code":"44","nom":"Grand Est"}},{"nom":"Billy-le-Grand","code":"51061","codesPostaux":["51400"],"centre":{"type":"Point","coordinates":[4.2329,49.1078]},"surface":729.05,"population":129,"departement":{"code":"51","nom":"Marne"},"region":{"code":"44","nom":"Grand Est"}},{"nom":"Binarville","code":"51062","codesPostaux":["51800"],"centre":{"type":"Point","coordinates":[4.9064,49.2467]},"surface":1666.95,"population":91,"departement":{"code":"51","nom":"Marne"},"region":{"code":"44","nom":"Grand Est"}},{"nom":"Blacy","code":"51065","codesPostaux":["51300"],"centre":{"type":"Point","coordinates":[4.5133,48.7242]},"surface":1739.31,"population":618,"departement":{"code":"51","nom":"Marne"},"region":{"code":"44","nom":"Grand Est"}},{"nom":"Blaise-sous-Arzillières","code":"51066","codesPostaux":["51300"],"centre":{"type":"Point","coordinates":[4.5849,48.6715]},"surface":689.01,"population":321,"departement":{"code":"51","nom":"Marne"},"region":{"code":"44","nom":"Grand Est"}},{"nom":"Blesme","code":"51068","codesPostaux":["51340"],"centre":{"type":"Point","coordinates":[4.7893,48.7311]},"surface":668.02,"population":200,"departement":{"code":"51","nom":"Marne"},"region":{"code":"44","nom":"Grand Est"}},{"nom":"Bligny","code":"51069","codesPostaux":["51170"],"centre":{"type":"Point","coordinates":[3.8596,49.1935]},"surface":261.64,"population":116,"departement":{"code":"51","nom":"Marne"},"region":{"code":"44","nom":"Grand Est"}},{"nom":"Boissy-le-Repos","code":"51070","codesPostaux":["51210"],"centre":{"type":"Point","coordinates":[3.6408,48.848]},"surface":1520.18,"population":229,"departement":{"code":"51","nom":"Marne"},"region":{"code":"44","nom":"Grand Est"}},{"nom":"Bouchy-Saint-Genest","code":"51071","codesPostaux":["51310"],"centre":{"type":"Point","coordinates":[3.4904,48.6551]},"surface":1962.59,"population":205,"departement":{"code":"51","nom":"Marne"},"region":{"code":"44","nom":"Grand Est"}},{"nom":"Bouilly","code":"51072","codesPostaux":["51390"],"centre":{"type":"Point","coordinates":[3.8976,49.1961]},"surface":569.78,"population":229,"departement":{"code":"51","nom":"Marne"},"region":{"code":"44","nom":"Grand Est"}},{"nom":"Bouleuse","code":"51073","codesPostaux":["51170"],"centre":{"type":"Point","coordinates":[3.8419,49.2268]},"surface":403.19,"population":226,"departement":{"code":"51","nom":"Marne"},"region":{"code":"44","nom":"Grand Est"}},{"nom":"Boult-sur-Suippe","code":"51074","codesPostaux":["51110"],"centre":{"type":"Point","coordinates":[4.1517,49.3774]},"surface":1970.84,"population":1787,"departement":{"code":"51","nom":"Marne"},"region":{"code":"44","nom":"Grand Est"}},{"nom":"Bourgogne-Fresne","code":"51075","codesPostaux":["51110"],"centre":{"type":"Point","coordinates":[4.0855,49.3488]},"surface":2702.75,"population":1442,"departement":{"code":"51","nom":"Marne"},"region":{"code":"44","nom":"Grand Est"}},{"nom":"Boursault","code":"51076","codesPostaux":["51480"],"centre":{"type":"Point","coordinates":[3.8401,49.0513]},"surface":1649.99,"population":421,"departement":{"code":"51","nom":"Marne"},"region":{"code":"44","nom":"Grand Est"}},{"nom":"Bouvancourt","code":"51077","codesPostaux":["51140"],"centre":{"type":"Point","coordinates":[3.8575,49.346]},"surface":1298.96,"population":175,"departement":{"code":"51","nom":"Marne"},"region":{"code":"44","nom":"Grand Est"}},{"nom":"Bouy","code":"51078","codesPostaux":["51400"],"centre":{"type":"Point","coordinates":[4.3692,49.0881]},"surface":2249.68,"population":549,"departement":{"code":"51","nom":"Marne"},"region":{"code":"44","nom":"Grand Est"}},{"nom":"Bouzy","code":"51079","codesPostaux":["51150"],"centre":{"type":"Point","coordinates":[4.1297,49.0861]},"surface":624.35,"population":839,"departement":{"code":"51","nom":"Marne"},"region":{"code":"44","nom":"Grand Est"}},{"nom":"Brandonvillers","code":"51080","codesPostaux":["51290"],"centre":{"type":"Point","coordinates":[4.5697,48.5883]},"surface":1169.99,"population":194,"departement":{"code":"51","nom":"Marne"},"region":{"code":"44","nom":"Grand Est"}},{"nom":"Branscourt","code":"51081","codesPostaux":["51140"],"centre":{"type":"Point","coordinates":[3.8213,49.2701]},"surface":371.47,"population":323,"departement":{"code":"51","nom":"Marne"},"region":{"code":"44","nom":"Grand Est"}},{"nom":"Braux-Sainte-Cohière","code":"51082","codesPostaux":["51800"],"centre":{"type":"Point","coordinates":[4.8207,49.0929]},"surface":622.24,"population":94,"departement":{"code":"51","nom":"Marne"},"region":{"code":"44","nom":"Grand Est"}},{"nom":"Braux-Saint-Remy","code":"51083","codesPostaux":["51800"],"centre":{"type":"Point","coordinates":[4.8673,49.0234]},"surface":975.21,"population":81,"departement":{"code":"51","nom":"Marne"},"region":{"code":"44","nom":"Grand Est"}},{"nom":"Bréban","code":"51084","codesPostaux":["51320"],"centre":{"type":"Point","coordinates":[4.3866,48.5777]},"surface":1073.75,"population":82,"departement":{"code":"51","nom":"Marne"},"region":{"code":"44","nom":"Grand Est"}},{"nom":"Le Breuil","code":"51085","codesPostaux":["51210"],"centre":{"type":"Point","coordinates":[3.6556,48.9787]},"surface":1598.06,"population":376,"departement":{"code":"51","nom":"Marne"},"region":{"code":"44","nom":"Grand Est"}},{"nom":"Breuil-sur-Vesle","code":"51086","codesPostaux":["51140"],"centre":{"type":"Point","coordinates":[3.7686,49.3028]},"surface":654.22,"population":328,"departement":{"code":"51","nom":"Marne"},"region":{"code":"44","nom":"Grand Est"}},{"nom":"Breuvery-sur-Coole","code":"51087","codesPostaux":["51240"],"centre":{"type":"Point","coordinates":[4.3032,48.854]},"surface":1017.54,"population":214,"departement":{"code":"51","nom":"Marne"},"region":{"code":"44","nom":"Grand Est"}},{"nom":"Brimont","code":"51088","codesPostaux":["51220"],"centre":{"type":"Point","coordinates":[4.0337,49.3369]},"surface":1262.78,"population":453,"departement":{"code":"51","nom":"Marne"},"region":{"code":"44","nom":"Grand Est"}},{"nom":"Brouillet","code":"51089","codesPostaux":["51170"],"centre":{"type":"Point","coordinates":[3.7371,49.2271]},"surface":451.31,"population":64,"departement":{"code":"51","nom":"Marne"},"region":{"code":"44","nom":"Grand Est"}},{"nom":"Broussy-le-Grand","code":"51090","codesPostaux":["51230"],"centre":{"type":"Point","coordinates":[3.8686,48.7861]},"surface":2122.29,"population":315,"departement":{"code":"51","nom":"Marne"},"region":{"code":"44","nom":"Grand Est"}},{"nom":"Broussy-le-Petit","code":"51091","codesPostaux":["51230"],"centre":{"type":"Point","coordinates":[3.8345,48.7859]},"surface":1162.74,"population":134,"departement":{"code":"51","nom":"Marne"},"region":{"code":"44","nom":"Grand Est"}},{"nom":"Broyes","code":"51092","codesPostaux":["51120"],"centre":{"type":"Point","coordinates":[3.7603,48.7611]},"surface":1519.34,"population":346,"departement":{"code":"51","nom":"Marne"},"region":{"code":"44","nom":"Grand Est"}},{"nom":"Brugny-Vaudancourt","code":"51093","codesPostaux":["51530"],"centre":{"type":"Point","coordinates":[3.8603,48.9849]},"surface":1983.49,"population":440,"departement":{"code":"51","nom":"Marne"},"region":{"code":"44","nom":"Grand Est"}},{"nom":"Brusson","code":"51094","codesPostaux":["51300"],"centre":{"type":"Point","coordinates":[4.7067,48.7416]},"surface":487.91,"population":184,"departement":{"code":"51","nom":"Marne"},"region":{"code":"44","nom":"Grand Est"}},{"nom":"Le Buisson","code":"51095","codesPostaux":["51300"],"centre":{"type":"Point","coordinates":[4.7486,48.7546]},"surface":680.45,"population":87,"departement":{"code":"51","nom":"Marne"},"region":{"code":"44","nom":"Grand Est"}},{"nom":"Bussy-le-Château","code":"51097","codesPostaux":["51600"],"centre":{"type":"Point","coordinates":[4.5243,49.0558]},"surface":2391.42,"population":179,"departement":{"code":"51","nom":"Marne"},"region":{"code":"44","nom":"Grand Est"}},{"nom":"Bussy-le-Repos","code":"51098","codesPostaux":["51330"],"centre":{"type":"Point","coordinates":[4.7387,48.9018]},"surface":2268.89,"population":136,"departement":{"code":"51","nom":"Marne"},"region":{"code":"44","nom":"Grand Est"}},{"nom":"Bussy-Lettrée","code":"51099","codesPostaux":["51320"],"centre":{"type":"Point","coordinates":[4.2445,48.8079]},"surface":3358.02,"population":320,"departement":{"code":"51","nom":"Marne"},"region":{"code":"44","nom":"Grand Est"}},{"nom":"La Caure","code":"51100","codesPostaux":["51270"],"centre":{"type":"Point","coordinates":[3.7765,48.9086]},"surface":861.2,"population":103,"departement":{"code":"51","nom":"Marne"},"region":{"code":"44","nom":"Grand Est"}},{"nom":"Caurel","code":"51101","codesPostaux":["51110"],"centre":{"type":"Point","coordinates":[4.1476,49.3058]},"surface":974.32,"population":695,"departement":{"code":"51","nom":"Marne"},"region":{"code":"44","nom":"Grand Est"}},{"nom":"Cauroy-lès-Hermonville","code":"51102","codesPostaux":["51220"],"centre":{"type":"Point","coordinates":[3.9212,49.3579]},"surface":1024.36,"population":494,"departement":{"code":"51","nom":"Marne"},"region":{"code":"44","nom":"Grand Est"}},{"nom":"La Celle-sous-Chantemerle","code":"51103","codesPostaux":["51260"],"centre":{"type":"Point","coordinates":[3.6834,48.6054]},"surface":1204.39,"population":138,"departement":{"code":"51","nom":"Marne"},"region":{"code":"44","nom":"Grand Est"}},{"nom":"Cernay-en-Dormois","code":"51104","codesPostaux":["51800"],"centre":{"type":"Point","coordinates":[4.762,49.2248]},"surface":2542.61,"population":134,"departement":{"code":"51","nom":"Marne"},"region":{"code":"44","nom":"Grand Est"}},{"nom":"Cernay-lès-Reims","code":"51105","codesPostaux":["51420"],"centre":{"type":"Point","coordinates":[4.1078,49.2539]},"surface":1637.92,"population":1508,"departement":{"code":"51","nom":"Marne"},"region":{"code":"44","nom":"Grand Est"}},{"nom":"Cernon","code":"51106","codesPostaux":["51240"],"centre":{"type":"Point","coordinates":[4.3426,48.8307]},"surface":1607.93,"population":127,"departement":{"code":"51","nom":"Marne"},"region":{"code":"44","nom":"Grand Est"}},{"nom":"Chaintrix-Bierges","code":"51107","codesPostaux":["51130"],"centre":{"type":"Point","coordinates":[4.1088,48.8934]},"surface":1028.7,"population":342,"departement":{"code":"51","nom":"Marne"},"region":{"code":"44","nom":"Grand Est"}},{"nom":"Châlons-en-Champagne","code":"51108","codesPostaux":["51000"],"centre":{"type":"Point","coordinates":[4.3801,48.9656]},"surface":2601.67,"population":43877,"departement":{"code":"51","nom":"Marne"},"region":{"code":"44","nom":"Grand Est"}},{"nom":"Châlons-sur-Vesle","code":"51109","codesPostaux":["51140"],"centre":{"type":"Point","coordinates":[3.9198,49.2875]},"surface":447.42,"population":198,"departement":{"code":"51","nom":"Marne"},"region":{"code":"44","nom":"Grand Est"}},{"nom":"Chaltrait","code":"51110","codesPostaux":["51130"],"centre":{"type":"Point","coordinates":[3.8925,48.935]},"surface":661.14,"population":58,"departement":{"code":"51","nom":"Marne"},"region":{"code":"44","nom":"Grand Est"}},{"nom":"Chambrecy","code":"51111","codesPostaux":["51170"],"centre":{"type":"Point","coordinates":[3.8231,49.1834]},"surface":618.85,"population":148,"departement":{"code":"51","nom":"Marne"},"region":{"code":"44","nom":"Grand Est"}},{"nom":"Chamery","code":"51112","codesPostaux":["51500"],"centre":{"type":"Point","coordinates":[3.9577,49.1681]},"surface":531.5,"population":447,"departement":{"code":"51","nom":"Marne"},"region":{"code":"44","nom":"Grand Est"}},{"nom":"Champaubert","code":"51113","codesPostaux":["51270"],"centre":{"type":"Point","coordinates":[3.766,48.8858]},"surface":1265.89,"population":122,"departement":{"code":"51","nom":"Marne"},"region":{"code":"44","nom":"Grand Est"}},{"nom":"Champfleury","code":"51115","codesPostaux":["51500"],"centre":{"type":"Point","coordinates":[4.0196,49.1982]},"surface":398.6,"population":586,"departement":{"code":"51","nom":"Marne"},"region":{"code":"44","nom":"Grand Est"}},{"nom":"Champguyon","code":"51116","codesPostaux":["51310"],"centre":{"type":"Point","coordinates":[3.5639,48.7729]},"surface":1677.07,"population":286,"departement":{"code":"51","nom":"Marne"},"region":{"code":"44","nom":"Grand Est"}},{"nom":"Champigneul-Champagne","code":"51117","codesPostaux":["51150"],"centre":{"type":"Point","coordinates":[4.1744,48.9619]},"surface":2949.14,"population":321,"departement":{"code":"51","nom":"Marne"},"region":{"code":"44","nom":"Grand Est"}},{"nom":"Champigny","code":"51118","codesPostaux":["51370"],"centre":{"type":"Point","coordinates":[3.9582,49.2675]},"surface":447.08,"population":1586,"departement":{"code":"51","nom":"Marne"},"region":{"code":"44","nom":"Grand Est"}},{"nom":"Champillon","code":"51119","codesPostaux":["51160"],"centre":{"type":"Point","coordinates":[3.9753,49.0859]},"surface":146.07,"population":507,"departement":{"code":"51","nom":"Marne"},"region":{"code":"44","nom":"Grand Est"}},{"nom":"Champlat-et-Boujacourt","code":"51120","codesPostaux":["51480"],"centre":{"type":"Point","coordinates":[3.8268,49.1545]},"surface":630.83,"population":149,"departement":{"code":"51","nom":"Marne"},"region":{"code":"44","nom":"Grand Est"}},{"nom":"Champvoisy","code":"51121","codesPostaux":["51700"],"centre":{"type":"Point","coordinates":[3.6267,49.1274]},"surface":917.88,"population":252,"departement":{"code":"51","nom":"Marne"},"region":{"code":"44","nom":"Grand Est"}},{"nom":"Changy","code":"51122","codesPostaux":["51300"],"centre":{"type":"Point","coordinates":[4.6788,48.7804]},"surface":624.85,"population":117,"departement":{"code":"51","nom":"Marne"},"region":{"code":"44","nom":"Grand Est"}},{"nom":"Chantemerle","code":"51124","codesPostaux":["51260"],"centre":{"type":"Point","coordinates":[3.6356,48.6183]},"surface":844.86,"population":49,"departement":{"code":"51","nom":"Marne"},"region":{"code":"44","nom":"Grand Est"}},{"nom":"Chapelaine","code":"51125","codesPostaux":["51290"],"centre":{"type":"Point","coordinates":[4.4777,48.5788]},"surface":917.17,"population":54,"departement":{"code":"51","nom":"Marne"},"region":{"code":"44","nom":"Grand Est"}},{"nom":"La Chapelle-Felcourt","code":"51126","codesPostaux":["51800"],"centre":{"type":"Point","coordinates":[4.755,49.0404]},"surface":984.2,"population":45,"departement":{"code":"51","nom":"Marne"},"region":{"code":"44","nom":"Grand Est"}},{"nom":"La Chapelle-Lasson","code":"51127","codesPostaux":["51260"],"centre":{"type":"Point","coordinates":[3.8192,48.6341]},"surface":1502.27,"population":86,"departement":{"code":"51","nom":"Marne"},"region":{"code":"44","nom":"Grand Est"}},{"nom":"La Chapelle-sous-Orbais","code":"51128","codesPostaux":["51270"],"centre":{"type":"Point","coordinates":[3.7181,48.9138]},"surface":1473.21,"population":54,"departement":{"code":"51","nom":"Marne"},"region":{"code":"44","nom":"Grand Est"}},{"nom":"Charleville","code":"51129","codesPostaux":["51120"],"centre":{"type":"Point","coordinates":[3.6535,48.8028]},"surface":1744.47,"population":255,"departement":{"code":"51","nom":"Marne"},"region":{"code":"44","nom":"Grand Est"}},{"nom":"Charmont","code":"51130","codesPostaux":["51330"],"centre":{"type":"Point","coordinates":[4.8733,48.8671]},"surface":2281.55,"population":240,"departement":{"code":"51","nom":"Marne"},"region":{"code":"44","nom":"Grand Est"}},{"nom":"Les Charmontois","code":"51132","codesPostaux":["51330"],"centre":{"type":"Point","coordinates":[4.9894,48.9645]},"surface":1472.69,"population":116,"departement":{"code":"51","nom":"Marne"},"region":{"code":"44","nom":"Grand Est"}},{"nom":"Le Châtelier","code":"51133","codesPostaux":["51330"],"centre":{"type":"Point","coordinates":[4.9226,48.9411]},"surface":1074.9,"population":63,"departement":{"code":"51","nom":"Marne"},"region":{"code":"44","nom":"Grand Est"}},{"nom":"Châtelraould-Saint-Louvent","code":"51134","codesPostaux":["51300"],"centre":{"type":"Point","coordinates":[4.5173,48.6613]},"surface":1688.78,"population":247,"departement":{"code":"51","nom":"Marne"},"region":{"code":"44","nom":"Grand Est"}},{"nom":"Châtillon-sur-Broué","code":"51135","codesPostaux":["51290"],"centre":{"type":"Point","coordinates":[4.7011,48.549]},"surface":667.18,"population":81,"departement":{"code":"51","nom":"Marne"},"region":{"code":"44","nom":"Grand Est"}},{"nom":"Châtillon-sur-Marne","code":"51136","codesPostaux":["51700"],"centre":{"type":"Point","coordinates":[3.7734,49.1044]},"surface":1152.67,"population":618,"departement":{"code":"51","nom":"Marne"},"region":{"code":"44","nom":"Grand Est"}},{"nom":"Châtillon-sur-Morin","code":"51137","codesPostaux":["51310"],"centre":{"type":"Point","coordinates":[3.5968,48.7006]},"surface":1806.68,"population":213,"departement":{"code":"51","nom":"Marne"},"region":{"code":"44","nom":"Grand Est"}},{"nom":"Châtrices","code":"51138","codesPostaux":["51800"],"centre":{"type":"Point","coordinates":[4.9395,49.0388]},"surface":1975.93,"population":36,"departement":{"code":"51","nom":"Marne"},"region":{"code":"44","nom":"Grand Est"}},{"nom":"Chaudefontaine","code":"51139","codesPostaux":["51800"],"centre":{"type":"Point","coordinates":[4.8861,49.1024]},"surface":1302.53,"population":313,"departement":{"code":"51","nom":"Marne"},"region":{"code":"44","nom":"Grand Est"}},{"nom":"Chaumuzy","code":"51140","codesPostaux":["51170"],"centre":{"type":"Point","coordinates":[3.8704,49.1543]},"surface":1992.55,"population":362,"departement":{"code":"51","nom":"Marne"},"region":{"code":"44","nom":"Grand Est"}},{"nom":"La Chaussée-sur-Marne","code":"51141","codesPostaux":["51240"],"centre":{"type":"Point","coordinates":[4.5458,48.8426]},"surface":2238.1,"population":770,"departement":{"code":"51","nom":"Marne"},"region":{"code":"44","nom":"Grand Est"}},{"nom":"Chavot-Courcourt","code":"51142","codesPostaux":["51530"],"centre":{"type":"Point","coordinates":[3.9181,48.9966]},"surface":439.02,"population":334,"departement":{"code":"51","nom":"Marne"},"region":{"code":"44","nom":"Grand Est"}},{"nom":"Le Chemin","code":"51143","codesPostaux":["51800"],"centre":{"type":"Point","coordinates":[4.9782,48.9993]},"surface":627.46,"population":60,"departement":{"code":"51","nom":"Marne"},"region":{"code":"44","nom":"Grand Est"}},{"nom":"Cheminon","code":"51144","codesPostaux":["51250"],"centre":{"type":"Point","coordinates":[4.9217,48.7421]},"surface":2767.7,"population":596,"departement":{"code":"51","nom":"Marne"},"region":{"code":"44","nom":"Grand Est"}},{"nom":"Chenay","code":"51145","codesPostaux":["51140"],"centre":{"type":"Point","coordinates":[3.9259,49.3022]},"surface":392.11,"population":224,"departement":{"code":"51","nom":"Marne"},"region":{"code":"44","nom":"Grand Est"}},{"nom":"Cheniers","code":"51146","codesPostaux":["51510"],"centre":{"type":"Point","coordinates":[4.2464,48.8884]},"surface":1538.59,"population":115,"departement":{"code":"51","nom":"Marne"},"region":{"code":"44","nom":"Grand Est"}},{"nom":"La Cheppe","code":"51147","codesPostaux":["51600"],"centre":{"type":"Point","coordinates":[4.4896,49.056]},"surface":2400.3,"population":323,"departement":{"code":"51","nom":"Marne"},"region":{"code":"44","nom":"Grand Est"}},{"nom":"Cheppes-la-Prairie","code":"51148","codesPostaux":["51240"],"centre":{"type":"Point","coordinates":[4.4447,48.8207]},"surface":1996.58,"population":144,"departement":{"code":"51","nom":"Marne"},"region":{"code":"44","nom":"Grand Est"}},{"nom":"Chepy","code":"51149","codesPostaux":["51240"],"centre":{"type":"Point","coordinates":[4.4511,48.9071]},"surface":869.71,"population":449,"departement":{"code":"51","nom":"Marne"},"region":{"code":"44","nom":"Grand Est"}},{"nom":"Cherville","code":"51150","codesPostaux":["51150"],"centre":{"type":"Point","coordinates":[4.1523,49.0038]},"surface":381.39,"population":83,"departement":{"code":"51","nom":"Marne"},"region":{"code":"44","nom":"Grand Est"}},{"nom":"Chichey","code":"51151","codesPostaux":["51120"],"centre":{"type":"Point","coordinates":[3.7527,48.6854]},"surface":718.01,"population":171,"departement":{"code":"51","nom":"Marne"},"region":{"code":"44","nom":"Grand Est"}},{"nom":"Chigny-les-Roses","code":"51152","codesPostaux":["51500"],"centre":{"type":"Point","coordinates":[4.0608,49.1514]},"surface":435.07,"population":530,"departement":{"code":"51","nom":"Marne"},"region":{"code":"44","nom":"Grand Est"}},{"nom":"Chouilly","code":"51153","codesPostaux":["51530"],"centre":{"type":"Point","coordinates":[4.0013,49.0146]},"surface":1607.55,"population":1049,"departement":{"code":"51","nom":"Marne"},"region":{"code":"44","nom":"Grand Est"}},{"nom":"Clamanges","code":"51154","codesPostaux":["51130"],"centre":{"type":"Point","coordinates":[4.0867,48.8315]},"surface":2365.48,"population":220,"departement":{"code":"51","nom":"Marne"},"region":{"code":"44","nom":"Grand Est"}},{"nom":"Clesles","code":"51155","codesPostaux":["51260"],"centre":{"type":"Point","coordinates":[3.8261,48.5322]},"surface":1333.21,"population":620,"departement":{"code":"51","nom":"Marne"},"region":{"code":"44","nom":"Grand Est"}},{"nom":"Cloyes-sur-Marne","code":"51156","codesPostaux":["51300"],"centre":{"type":"Point","coordinates":[4.6437,48.66]},"surface":628.29,"population":123,"departement":{"code":"51","nom":"Marne"},"region":{"code":"44","nom":"Grand Est"}},{"nom":"Coizard-Joches","code":"51157","codesPostaux":["51270"],"centre":{"type":"Point","coordinates":[3.8663,48.828]},"surface":1087.62,"population":85,"departement":{"code":"51","nom":"Marne"},"region":{"code":"44","nom":"Grand Est"}},{"nom":"Val-des-Marais","code":"51158","codesPostaux":["51130"],"centre":{"type":"Point","coordinates":[3.9616,48.8269]},"surface":3973.6,"population":572,"departement":{"code":"51","nom":"Marne"},"region":{"code":"44","nom":"Grand Est"}},{"nom":"Compertrix","code":"51160","codesPostaux":["51510"],"centre":{"type":"Point","coordinates":[4.3217,48.9278]},"surface":472.25,"population":1329,"departement":{"code":"51","nom":"Marne"},"region":{"code":"44","nom":"Grand Est"}},{"nom":"Condé-sur-Marne","code":"51161","codesPostaux":["51150"],"centre":{"type":"Point","coordinates":[4.1827,49.0459]},"surface":1232.88,"population":747,"departement":{"code":"51","nom":"Marne"},"region":{"code":"44","nom":"Grand Est"}},{"nom":"Conflans-sur-Seine","code":"51162","codesPostaux":["51260"],"centre":{"type":"Point","coordinates":[3.6834,48.5508]},"surface":616.39,"population":641,"departement":{"code":"51","nom":"Marne"},"region":{"code":"44","nom":"Grand Est"}},{"nom":"Congy","code":"51163","codesPostaux":["51270"],"centre":{"type":"Point","coordinates":[3.8191,48.8707]},"surface":1756.92,"population":260,"departement":{"code":"51","nom":"Marne"},"region":{"code":"44","nom":"Grand Est"}},{"nom":"Connantray-Vaurefroy","code":"51164","codesPostaux":["51230"],"centre":{"type":"Point","coordinates":[4.0692,48.7378]},"surface":2869.88,"population":143,"departement":{"code":"51","nom":"Marne"},"region":{"code":"44","nom":"Grand Est"}},{"nom":"Connantre","code":"51165","codesPostaux":["51230"],"centre":{"type":"Point","coordinates":[3.9159,48.7391]},"surface":2841.58,"population":1017,"departement":{"code":"51","nom":"Marne"},"region":{"code":"44","nom":"Grand Est"}},{"nom":"Contault","code":"51166","codesPostaux":["51330"],"centre":{"type":"Point","coordinates":[4.7879,48.9143]},"surface":954.79,"population":66,"departement":{"code":"51","nom":"Marne"},"region":{"code":"44","nom":"Grand Est"}},{"nom":"Coole","code":"51167","codesPostaux":["51320"],"centre":{"type":"Point","coordinates":[4.3943,48.7391]},"surface":2997.43,"population":151,"departement":{"code":"51","nom":"Marne"},"region":{"code":"44","nom":"Grand Est"}},{"nom":"Coolus","code":"51168","codesPostaux":["51510"],"centre":{"type":"Point","coordinates":[4.3174,48.9142]},"surface":1316.56,"population":225,"departement":{"code":"51","nom":"Marne"},"region":{"code":"44","nom":"Grand Est"}},{"nom":"Corbeil","code":"51169","codesPostaux":["51320"],"centre":{"type":"Point","coordinates":[4.4364,48.5719]},"surface":955.98,"population":98,"departement":{"code":"51","nom":"Marne"},"region":{"code":"44","nom":"Grand Est"}},{"nom":"Corfélix","code":"51170","codesPostaux":["51210"],"centre":{"type":"Point","coordinates":[3.7005,48.8321]},"surface":838.02,"population":110,"departement":{"code":"51","nom":"Marne"},"region":{"code":"44","nom":"Grand Est"}},{"nom":"Cormicy","code":"51171","codesPostaux":["51220"],"centre":{"type":"Point","coordinates":[3.892,49.3794]},"surface":3174.66,"population":1509,"departement":{"code":"51","nom":"Marne"},"region":{"code":"44","nom":"Grand Est"}},{"nom":"Cormontreuil","code":"51172","codesPostaux":["51350"],"centre":{"type":"Point","coordinates":[4.0522,49.2165]},"surface":467.82,"population":6456,"departement":{"code":"51","nom":"Marne"},"region":{"code":"44","nom":"Grand Est"}},{"nom":"Cormoyeux","code":"51173","codesPostaux":["51480"],"centre":{"type":"Point","coordinates":[3.9147,49.1093]},"surface":214.18,"population":127,"departement":{"code":"51","nom":"Marne"},"region":{"code":"44","nom":"Grand Est"}},{"nom":"Corribert","code":"51174","codesPostaux":["51270"],"centre":{"type":"Point","coordinates":[3.7641,48.9442]},"surface":974.89,"population":63,"departement":{"code":"51","nom":"Marne"},"region":{"code":"44","nom":"Grand Est"}},{"nom":"Corrobert","code":"51175","codesPostaux":["51210"],"centre":{"type":"Point","coordinates":[3.6094,48.9235]},"surface":1425.01,"population":210,"departement":{"code":"51","nom":"Marne"},"region":{"code":"44","nom":"Grand Est"}},{"nom":"Corroy","code":"51176","codesPostaux":["51230"],"centre":{"type":"Point","coordinates":[3.9552,48.7003]},"surface":1988.52,"population":144,"departement":{"code":"51","nom":"Marne"},"region":{"code":"44","nom":"Grand Est"}},{"nom":"Coulommes-la-Montagne","code":"51177","codesPostaux":["51390"],"centre":{"type":"Point","coordinates":[3.9136,49.2271]},"surface":273.2,"population":206,"departement":{"code":"51","nom":"Marne"},"region":{"code":"44","nom":"Grand Est"}},{"nom":"Coupetz","code":"51178","codesPostaux":["51240"],"centre":{"type":"Point","coordinates":[4.3501,48.813]},"surface":1054.71,"population":81,"departement":{"code":"51","nom":"Marne"},"region":{"code":"44","nom":"Grand Est"}},{"nom":"Coupéville","code":"51179","codesPostaux":["51240"],"centre":{"type":"Point","coordinates":[4.6266,48.9063]},"surface":3046.56,"population":166,"departement":{"code":"51","nom":"Marne"},"region":{"code":"44","nom":"Grand Est"}},{"nom":"Courcelles-Sapicourt","code":"51181","codesPostaux":["51140"],"centre":{"type":"Point","coordinates":[3.8418,49.2685]},"surface":386.79,"population":402,"departement":{"code":"51","nom":"Marne"},"region":{"code":"44","nom":"Grand Est"}},{"nom":"Courcemain","code":"51182","codesPostaux":["51260"],"centre":{"type":"Point","coordinates":[3.9369,48.6172]},"surface":991.31,"population":88,"departement":{"code":"51","nom":"Marne"},"region":{"code":"44","nom":"Grand Est"}},{"nom":"Courcy","code":"51183","codesPostaux":["51220"],"centre":{"type":"Point","coordinates":[4.0084,49.3247]},"surface":1536.36,"population":1247,"departement":{"code":"51","nom":"Marne"},"region":{"code":"44","nom":"Grand Est"}},{"nom":"Courdemanges","code":"51184","codesPostaux":["51300"],"centre":{"type":"Point","coordinates":[4.5112,48.6783]},"surface":1943.87,"population":385,"departement":{"code":"51","nom":"Marne"},"region":{"code":"44","nom":"Grand Est"}},{"nom":"Courgivaux","code":"51185","codesPostaux":["51310"],"centre":{"type":"Point","coordinates":[3.4919,48.7122]},"surface":1083.02,"population":281,"departement":{"code":"51","nom":"Marne"},"region":{"code":"44","nom":"Grand Est"}},{"nom":"Courjeonnet","code":"51186","codesPostaux":["51270"],"centre":{"type":"Point","coordinates":[3.8297,48.8235]},"surface":554.2,"population":48,"departement":{"code":"51","nom":"Marne"},"region":{"code":"44","nom":"Grand Est"}},{"nom":"Courlandon","code":"51187","codesPostaux":["51170"],"centre":{"type":"Point","coordinates":[3.7332,49.3183]},"surface":349.22,"population":296,"departement":{"code":"51","nom":"Marne"},"region":{"code":"44","nom":"Grand Est"}},{"nom":"Courmas","code":"51188","codesPostaux":["51390"],"centre":{"type":"Point","coordinates":[3.9103,49.19]},"surface":285.78,"population":214,"departement":{"code":"51","nom":"Marne"},"region":{"code":"44","nom":"Grand Est"}},{"nom":"Courtagnon","code":"51190","codesPostaux":["51480"],"centre":{"type":"Point","coordinates":[3.9484,49.1435]},"surface":395.14,"population":72,"departement":{"code":"51","nom":"Marne"},"region":{"code":"44","nom":"Grand Est"}},{"nom":"Courtémont","code":"51191","codesPostaux":["51800"],"centre":{"type":"Point","coordinates":[4.7844,49.137]},"surface":1064.95,"population":61,"departement":{"code":"51","nom":"Marne"},"region":{"code":"44","nom":"Grand Est"}},{"nom":"Courthiézy","code":"51192","codesPostaux":["51700"],"centre":{"type":"Point","coordinates":[3.601,49.0525]},"surface":599.33,"population":345,"departement":{"code":"51","nom":"Marne"},"region":{"code":"44","nom":"Grand Est"}},{"nom":"Courtisols","code":"51193","codesPostaux":["51460"],"centre":{"type":"Point","coordinates":[4.5282,48.9776]},"surface":6566.06,"population":2353,"departement":{"code":"51","nom":"Marne"},"region":{"code":"44","nom":"Grand Est"}},{"nom":"Courville","code":"51194","codesPostaux":["51170"],"centre":{"type":"Point","coordinates":[3.7078,49.2696]},"surface":1203.9,"population":460,"departement":{"code":"51","nom":"Marne"},"region":{"code":"44","nom":"Grand Est"}},{"nom":"Couvrot","code":"51195","codesPostaux":["51300"],"centre":{"type":"Point","coordinates":[4.5759,48.7644]},"surface":803.91,"population":807,"departement":{"code":"51","nom":"Marne"},"region":{"code":"44","nom":"Grand Est"}},{"nom":"Cramant","code":"51196","codesPostaux":["51530"],"centre":{"type":"Point","coordinates":[4.0004,48.9879]},"surface":535.51,"population":872,"departement":{"code":"51","nom":"Marne"},"region":{"code":"44","nom":"Grand Est"}},{"nom":"La Croix-en-Champagne","code":"51197","codesPostaux":["51600"],"centre":{"type":"Point","coordinates":[4.6593,49.0673]},"surface":1662.02,"population":84,"departement":{"code":"51","nom":"Marne"},"region":{"code":"44","nom":"Grand Est"}},{"nom":"Crugny","code":"51198","codesPostaux":["51170"],"centre":{"type":"Point","coordinates":[3.7375,49.2515]},"surface":1261.76,"population":667,"departement":{"code":"51","nom":"Marne"},"region":{"code":"44","nom":"Grand Est"}},{"nom":"Cuchery","code":"51199","codesPostaux":["51480"],"centre":{"type":"Point","coordinates":[3.827,49.1275]},"surface":700.62,"population":408,"departement":{"code":"51","nom":"Marne"},"region":{"code":"44","nom":"Grand Est"}},{"nom":"Cuis","code":"51200","codesPostaux":["51530"],"centre":{"type":"Point","coordinates":[3.967,48.9989]},"surface":828.42,"population":369,"departement":{"code":"51","nom":"Marne"},"region":{"code":"44","nom":"Grand Est"}},{"nom":"Cuisles","code":"51201","codesPostaux":["51700"],"centre":{"type":"Point","coordinates":[3.7782,49.1293]},"surface":291.64,"population":122,"departement":{"code":"51","nom":"Marne"},"region":{"code":"44","nom":"Grand Est"}},{"nom":"Cumières","code":"51202","codesPostaux":["51480"],"centre":{"type":"Point","coordinates":[3.9214,49.0715]},"surface":299.69,"population":745,"departement":{"code":"51","nom":"Marne"},"region":{"code":"44","nom":"Grand Est"}},{"nom":"Cuperly","code":"51203","codesPostaux":["51400"],"centre":{"type":"Point","coordinates":[4.4464,49.0653]},"surface":2077.63,"population":223,"departement":{"code":"51","nom":"Marne"},"region":{"code":"44","nom":"Grand Est"}},{"nom":"Damery","code":"51204","codesPostaux":["51480"],"centre":{"type":"Point","coordinates":[3.8852,49.0841]},"surface":1544.71,"population":1335,"departement":{"code":"51","nom":"Marne"},"region":{"code":"44","nom":"Grand Est"}},{"nom":"Dampierre-au-Temple","code":"51205","codesPostaux":["51400"],"centre":{"type":"Point","coordinates":[4.3956,49.0357]},"surface":1022.25,"population":271,"departement":{"code":"51","nom":"Marne"},"region":{"code":"44","nom":"Grand Est"}},{"nom":"Dampierre-le-Château","code":"51206","codesPostaux":["51330"],"centre":{"type":"Point","coordinates":[4.7957,49.007]},"surface":1110.68,"population":116,"departement":{"code":"51","nom":"Marne"},"region":{"code":"44","nom":"Grand Est"}},{"nom":"Dampierre-sur-Moivre","code":"51208","codesPostaux":["51240"],"centre":{"type":"Point","coordinates":[4.5735,48.8809]},"surface":1149.06,"population":113,"departement":{"code":"51","nom":"Marne"},"region":{"code":"44","nom":"Grand Est"}},{"nom":"Dizy","code":"51210","codesPostaux":["51530"],"centre":{"type":"Point","coordinates":[3.9716,49.0699]},"surface":321.37,"population":1489,"departement":{"code":"51","nom":"Marne"},"region":{"code":"44","nom":"Grand Est"}},{"nom":"Dommartin-Dampierre","code":"51211","codesPostaux":["51800"],"centre":{"type":"Point","coordinates":[4.8261,49.0645]},"surface":831.54,"population":73,"departement":{"code":"51","nom":"Marne"},"region":{"code":"44","nom":"Grand Est"}},{"nom":"Dommartin-Lettrée","code":"51212","codesPostaux":["51320"],"centre":{"type":"Point","coordinates":[4.2849,48.7677]},"surface":3263.95,"population":160,"departement":{"code":"51","nom":"Marne"},"region":{"code":"44","nom":"Grand Est"}},{"nom":"Dommartin-sous-Hans","code":"51213","codesPostaux":["51800"],"centre":{"type":"Point","coordinates":[4.7931,49.1227]},"surface":649.75,"population":50,"departement":{"code":"51","nom":"Marne"},"region":{"code":"44","nom":"Grand Est"}},{"nom":"Dommartin-Varimont","code":"51214","codesPostaux":["51330"],"centre":{"type":"Point","coordinates":[4.7743,48.9807]},"surface":2366.58,"population":137,"departement":{"code":"51","nom":"Marne"},"region":{"code":"44","nom":"Grand Est"}},{"nom":"Dompremy","code":"51215","codesPostaux":["51300"],"centre":{"type":"Point","coordinates":[4.7395,48.7326]},"surface":365.77,"population":120,"departement":{"code":"51","nom":"Marne"},"region":{"code":"44","nom":"Grand Est"}},{"nom":"Dontrien","code":"51216","codesPostaux":["51490"],"centre":{"type":"Point","coordinates":[4.409,49.2455]},"surface":1266.11,"population":258,"departement":{"code":"51","nom":"Marne"},"region":{"code":"44","nom":"Grand Est"}},{"nom":"Dormans","code":"51217","codesPostaux":["51700"],"centre":{"type":"Point","coordinates":[3.6447,49.0636]},"surface":2253.03,"population":2911,"departement":{"code":"51","nom":"Marne"},"region":{"code":"44","nom":"Grand Est"}},{"nom":"Val-de-Vière","code":"51218","codesPostaux":["51340"],"centre":{"type":"Point","coordinates":[4.747,48.8197]},"surface":1918.75,"population":130,"departement":{"code":"51","nom":"Marne"},"region":{"code":"44","nom":"Grand Est"}},{"nom":"Drosnay","code":"51219","codesPostaux":["51290"],"centre":{"type":"Point","coordinates":[4.6147,48.5746]},"surface":1860.62,"population":204,"departement":{"code":"51","nom":"Marne"},"region":{"code":"44","nom":"Grand Est"}},{"nom":"Drouilly","code":"51220","codesPostaux":["51300"],"centre":{"type":"Point","coordinates":[4.51,48.7699]},"surface":246.43,"population":143,"departement":{"code":"51","nom":"Marne"},"region":{"code":"44","nom":"Grand Est"}},{"nom":"Éclaires","code":"51222","codesPostaux":["51800"],"centre":{"type":"Point","coordinates":[4.9983,48.9939]},"surface":1091.25,"population":90,"departement":{"code":"51","nom":"Marne"},"region":{"code":"44","nom":"Grand Est"}},{"nom":"Écollemont","code":"51223","codesPostaux":["51290"],"centre":{"type":"Point","coordinates":[4.7405,48.6149]},"surface":281.93,"population":61,"departement":{"code":"51","nom":"Marne"},"region":{"code":"44","nom":"Grand Est"}},{"nom":"Écriennes","code":"51224","codesPostaux":["51300"],"centre":{"type":"Point","coordinates":[4.6854,48.6925]},"surface":636.07,"population":167,"departement":{"code":"51","nom":"Marne"},"region":{"code":"44","nom":"Grand Est"}},{"nom":"Écueil","code":"51225","codesPostaux":["51500"],"centre":{"type":"Point","coordinates":[3.9528,49.1791]},"surface":701.27,"population":334,"departement":{"code":"51","nom":"Marne"},"region":{"code":"44","nom":"Grand Est"}},{"nom":"Écury-le-Repos","code":"51226","codesPostaux":["51230"],"centre":{"type":"Point","coordinates":[4.0289,48.8076]},"surface":1001.55,"population":60,"departement":{"code":"51","nom":"Marne"},"region":{"code":"44","nom":"Grand Est"}},{"nom":"Écury-sur-Coole","code":"51227","codesPostaux":["51240"],"centre":{"type":"Point","coordinates":[4.3369,48.898]},"surface":1823.28,"population":480,"departement":{"code":"51","nom":"Marne"},"region":{"code":"44","nom":"Grand Est"}},{"nom":"Élise-Daucourt","code":"51228","codesPostaux":["51800"],"centre":{"type":"Point","coordinates":[4.8658,49.0425]},"surface":1534.41,"population":82,"departement":{"code":"51","nom":"Marne"},"region":{"code":"44","nom":"Grand Est"}},{"nom":"Épense","code":"51229","codesPostaux":["51330"],"centre":{"type":"Point","coordinates":[4.8329,48.9737]},"surface":1136.74,"population":121,"departement":{"code":"51","nom":"Marne"},"region":{"code":"44","nom":"Grand Est"}},{"nom":"Épernay","code":"51230","codesPostaux":["51200"],"centre":{"type":"Point","coordinates":[3.9282,49.0391]},"surface":2276.05,"population":22001,"departement":{"code":"51","nom":"Marne"},"region":{"code":"44","nom":"Grand Est"}},{"nom":"L'Épine","code":"51231","codesPostaux":["51460"],"centre":{"type":"Point","coordinates":[4.4451,48.9943]},"surface":3046.83,"population":666,"departement":{"code":"51","nom":"Marne"},"region":{"code":"44","nom":"Grand Est"}},{"nom":"Époye","code":"51232","codesPostaux":["51490"],"centre":{"type":"Point","coordinates":[4.2305,49.2879]},"surface":1536.21,"population":415,"departement":{"code":"51","nom":"Marne"},"region":{"code":"44","nom":"Grand Est"}},{"nom":"Escardes","code":"51233","codesPostaux":["51310"],"centre":{"type":"Point","coordinates":[3.5309,48.6912]},"surface":1443.46,"population":67,"departement":{"code":"51","nom":"Marne"},"region":{"code":"44","nom":"Grand Est"}},{"nom":"Esclavolles-Lurey","code":"51234","codesPostaux":["51260"],"centre":{"type":"Point","coordinates":[3.652,48.5546]},"surface":947.8,"population":639,"departement":{"code":"51","nom":"Marne"},"region":{"code":"44","nom":"Grand Est"}},{"nom":"Les Essarts-lès-Sézanne","code":"51235","codesPostaux":["51120"],"centre":{"type":"Point","coordinates":[3.6365,48.7649]},"surface":1679.56,"population":236,"departement":{"code":"51","nom":"Marne"},"region":{"code":"44","nom":"Grand Est"}},{"nom":"Les Essarts-le-Vicomte","code":"51236","codesPostaux":["51310"],"centre":{"type":"Point","coordinates":[3.5499,48.6653]},"surface":1129.78,"population":136,"departement":{"code":"51","nom":"Marne"},"region":{"code":"44","nom":"Grand Est"}},{"nom":"Esternay","code":"51237","codesPostaux":["51310"],"centre":{"type":"Point","coordinates":[3.5839,48.7281]},"surface":3171,"population":1808,"departement":{"code":"51","nom":"Marne"},"region":{"code":"44","nom":"Grand Est"}},{"nom":"Étoges","code":"51238","codesPostaux":["51270"],"centre":{"type":"Point","coordinates":[3.8566,48.8929]},"surface":1462.81,"population":441,"departement":{"code":"51","nom":"Marne"},"region":{"code":"44","nom":"Grand Est"}},{"nom":"Étréchy","code":"51239","codesPostaux":["51130"],"centre":{"type":"Point","coordinates":[3.9477,48.8815]},"surface":669.04,"population":105,"departement":{"code":"51","nom":"Marne"},"region":{"code":"44","nom":"Grand Est"}},{"nom":"Étrepy","code":"51240","codesPostaux":["51340"],"centre":{"type":"Point","coordinates":[4.81,48.7635]},"surface":767.18,"population":117,"departement":{"code":"51","nom":"Marne"},"region":{"code":"44","nom":"Grand Est"}},{"nom":"Euvy","code":"51241","codesPostaux":["51230"],"centre":{"type":"Point","coordinates":[4.0237,48.7176]},"surface":1437.45,"population":79,"departement":{"code":"51","nom":"Marne"},"region":{"code":"44","nom":"Grand Est"}},{"nom":"Fagnières","code":"51242","codesPostaux":["51510"],"centre":{"type":"Point","coordinates":[4.3061,48.9478]},"surface":1951.81,"population":4877,"departement":{"code":"51","nom":"Marne"},"region":{"code":"44","nom":"Grand Est"}},{"nom":"Faux-Fresnay","code":"51243","codesPostaux":["51230"],"centre":{"type":"Point","coordinates":[3.9508,48.6558]},"surface":2724,"population":317,"departement":{"code":"51","nom":"Marne"},"region":{"code":"44","nom":"Grand Est"}},{"nom":"Faux-Vésigneul","code":"51244","codesPostaux":["51320"],"centre":{"type":"Point","coordinates":[4.3847,48.7854]},"surface":3921.61,"population":241,"departement":{"code":"51","nom":"Marne"},"region":{"code":"44","nom":"Grand Est"}},{"nom":"Faverolles-et-Coëmy","code":"51245","codesPostaux":["51170"],"centre":{"type":"Point","coordinates":[3.7873,49.2329]},"surface":550.25,"population":583,"departement":{"code":"51","nom":"Marne"},"region":{"code":"44","nom":"Grand Est"}},{"nom":"Favresse","code":"51246","codesPostaux":["51300"],"centre":{"type":"Point","coordinates":[4.7159,48.7196]},"surface":1030.36,"population":222,"departement":{"code":"51","nom":"Marne"},"region":{"code":"44","nom":"Grand Est"}},{"nom":"Fèrebrianges","code":"51247","codesPostaux":["51270"],"centre":{"type":"Point","coordinates":[3.8409,48.8708]},"surface":702.62,"population":145,"departement":{"code":"51","nom":"Marne"},"region":{"code":"44","nom":"Grand Est"}},{"nom":"Fère-Champenoise","code":"51248","codesPostaux":["51230"],"centre":{"type":"Point","coordinates":[4.0259,48.7693]},"surface":6578.5,"population":2170,"departement":{"code":"51","nom":"Marne"},"region":{"code":"44","nom":"Grand Est"}},{"nom":"Festigny","code":"51249","codesPostaux":["51700"],"centre":{"type":"Point","coordinates":[3.7673,49.0274]},"surface":2566.74,"population":389,"departement":{"code":"51","nom":"Marne"},"region":{"code":"44","nom":"Grand Est"}},{"nom":"Fismes","code":"51250","codesPostaux":["51170"],"centre":{"type":"Point","coordinates":[3.6794,49.308]},"surface":1672.28,"population":5803,"departement":{"code":"51","nom":"Marne"},"region":{"code":"44","nom":"Grand Est"}},{"nom":"Flavigny","code":"51251","codesPostaux":["51190"],"centre":{"type":"Point","coordinates":[4.0621,48.9738]},"surface":796.16,"population":175,"departement":{"code":"51","nom":"Marne"},"region":{"code":"44","nom":"Grand Est"}},{"nom":"Fleury-la-Rivière","code":"51252","codesPostaux":["51480"],"centre":{"type":"Point","coordinates":[3.8839,49.0994]},"surface":794.37,"population":519,"departement":{"code":"51","nom":"Marne"},"region":{"code":"44","nom":"Grand Est"}},{"nom":"Florent-en-Argonne","code":"51253","codesPostaux":["51800"],"centre":{"type":"Point","coordinates":[4.9525,49.1422]},"surface":1228.62,"population":221,"departement":{"code":"51","nom":"Marne"},"region":{"code":"44","nom":"Grand Est"}},{"nom":"Fontaine-Denis-Nuisy","code":"51254","codesPostaux":["51120"],"centre":{"type":"Point","coordinates":[3.6792,48.635]},"surface":1321.09,"population":232,"departement":{"code":"51","nom":"Marne"},"region":{"code":"44","nom":"Grand Est"}},{"nom":"Fontaine-en-Dormois","code":"51255","codesPostaux":["51800"],"centre":{"type":"Point","coordinates":[4.7202,49.242]},"surface":527.78,"population":13,"departement":{"code":"51","nom":"Marne"},"region":{"code":"44","nom":"Grand Est"}},{"nom":"Fontaine-sur-Ay","code":"51256","codesPostaux":["51160"],"centre":{"type":"Point","coordinates":[4.065,49.0915]},"surface":769.98,"population":323,"departement":{"code":"51","nom":"Marne"},"region":{"code":"44","nom":"Grand Est"}},{"nom":"La Forestière","code":"51258","codesPostaux":["51120"],"centre":{"type":"Point","coordinates":[3.6066,48.6593]},"surface":2266.29,"population":205,"departement":{"code":"51","nom":"Marne"},"region":{"code":"44","nom":"Grand Est"}},{"nom":"Francheville","code":"51259","codesPostaux":["51240"],"centre":{"type":"Point","coordinates":[4.54,48.8797]},"surface":939.06,"population":194,"departement":{"code":"51","nom":"Marne"},"region":{"code":"44","nom":"Grand Est"}},{"nom":"Le Fresne","code":"51260","codesPostaux":["51240"],"centre":{"type":"Point","coordinates":[4.6663,48.913]},"surface":1786.63,"population":75,"departement":{"code":"51","nom":"Marne"},"region":{"code":"44","nom":"Grand Est"}},{"nom":"Frignicourt","code":"51262","codesPostaux":["51300"],"centre":{"type":"Point","coordinates":[4.5941,48.7004]},"surface":971.06,"population":1769,"departement":{"code":"51","nom":"Marne"},"region":{"code":"44","nom":"Grand Est"}},{"nom":"Fromentières","code":"51263","codesPostaux":["51210"],"centre":{"type":"Point","coordinates":[3.7063,48.8863]},"surface":882.76,"population":377,"departement":{"code":"51","nom":"Marne"},"region":{"code":"44","nom":"Grand Est"}},{"nom":"Le Gault-Soigny","code":"51264","codesPostaux":["51210"],"centre":{"type":"Point","coordinates":[3.6011,48.8093]},"surface":2628.47,"population":503,"departement":{"code":"51","nom":"Marne"},"region":{"code":"44","nom":"Grand Est"}},{"nom":"Gaye","code":"51265","codesPostaux":["51120"],"centre":{"type":"Point","coordinates":[3.8069,48.6788]},"surface":2125.69,"population":598,"departement":{"code":"51","nom":"Marne"},"region":{"code":"44","nom":"Grand Est"}},{"nom":"Germaine","code":"51266","codesPostaux":["51160"],"centre":{"type":"Point","coordinates":[4.0284,49.1162]},"surface":1477.48,"population":531,"departement":{"code":"51","nom":"Marne"},"region":{"code":"44","nom":"Grand Est"}},{"nom":"Germigny","code":"51267","codesPostaux":["51390"],"centre":{"type":"Point","coordinates":[3.8612,49.2448]},"surface":240.67,"population":180,"departement":{"code":"51","nom":"Marne"},"region":{"code":"44","nom":"Grand Est"}},{"nom":"Germinon","code":"51268","codesPostaux":["51130"],"centre":{"type":"Point","coordinates":[4.1833,48.8873]},"surface":1954.28,"population":186,"departement":{"code":"51","nom":"Marne"},"region":{"code":"44","nom":"Grand Est"}},{"nom":"Giffaumont-Champaubert","code":"51269","codesPostaux":["51290"],"centre":{"type":"Point","coordinates":[4.7496,48.5645]},"surface":2817.19,"population":284,"departement":{"code":"51","nom":"Marne"},"region":{"code":"44","nom":"Grand Est"}},{"nom":"Gigny-Bussy","code":"51270","codesPostaux":["51290"],"centre":{"type":"Point","coordinates":[4.5807,48.6103]},"surface":2245.74,"population":233,"departement":{"code":"51","nom":"Marne"},"region":{"code":"44","nom":"Grand Est"}},{"nom":"Givry-en-Argonne","code":"51272","codesPostaux":["51330"],"centre":{"type":"Point","coordinates":[4.9113,48.9482]},"surface":748.51,"population":454,"departement":{"code":"51","nom":"Marne"},"region":{"code":"44","nom":"Grand Est"}},{"nom":"Givry-lès-Loisy","code":"51273","codesPostaux":["51130"],"centre":{"type":"Point","coordinates":[3.9188,48.8907]},"surface":504.49,"population":72,"departement":{"code":"51","nom":"Marne"},"region":{"code":"44","nom":"Grand Est"}},{"nom":"Gizaucourt","code":"51274","codesPostaux":["51800"],"centre":{"type":"Point","coordinates":[4.7809,49.0536]},"surface":782.76,"population":117,"departement":{"code":"51","nom":"Marne"},"region":{"code":"44","nom":"Grand Est"}},{"nom":"Glannes","code":"51275","codesPostaux":["51300"],"centre":{"type":"Point","coordinates":[4.5005,48.7018]},"surface":1318.74,"population":186,"departement":{"code":"51","nom":"Marne"},"region":{"code":"44","nom":"Grand Est"}},{"nom":"Gourgançon","code":"51276","codesPostaux":["51230"],"centre":{"type":"Point","coordinates":[4.0254,48.6869]},"surface":2907.52,"population":145,"departement":{"code":"51","nom":"Marne"},"region":{"code":"44","nom":"Grand Est"}},{"nom":"Sainte-Marie-du-Lac-Nuisement","code":"51277","codesPostaux":["51290"],"centre":{"type":"Point","coordinates":[4.7656,48.6004]},"surface":1753.55,"population":273,"departement":{"code":"51","nom":"Marne"},"region":{"code":"44","nom":"Grand Est"}},{"nom":"Les Grandes-Loges","code":"51278","codesPostaux":["51400"],"centre":{"type":"Point","coordinates":[4.2909,49.0635]},"surface":1289.22,"population":282,"departement":{"code":"51","nom":"Marne"},"region":{"code":"44","nom":"Grand Est"}},{"nom":"Granges-sur-Aube","code":"51279","codesPostaux":["51260"],"centre":{"type":"Point","coordinates":[3.8602,48.5877]},"surface":809.02,"population":182,"departement":{"code":"51","nom":"Marne"},"region":{"code":"44","nom":"Grand Est"}},{"nom":"Gratreuil","code":"51280","codesPostaux":["51800"],"centre":{"type":"Point","coordinates":[4.6939,49.246]},"surface":474.19,"population":23,"departement":{"code":"51","nom":"Marne"},"region":{"code":"44","nom":"Grand Est"}},{"nom":"Grauves","code":"51281","codesPostaux":["51190"],"centre":{"type":"Point","coordinates":[3.9604,48.9702]},"surface":782.66,"population":617,"departement":{"code":"51","nom":"Marne"},"region":{"code":"44","nom":"Grand Est"}},{"nom":"Gueux","code":"51282","codesPostaux":["51390"],"centre":{"type":"Point","coordinates":[3.9097,49.2534]},"surface":886.43,"population":1871,"departement":{"code":"51","nom":"Marne"},"region":{"code":"44","nom":"Grand Est"}},{"nom":"Hans","code":"51283","codesPostaux":["51800"],"centre":{"type":"Point","coordinates":[4.7446,49.1146]},"surface":1936.53,"population":130,"departement":{"code":"51","nom":"Marne"},"region":{"code":"44","nom":"Grand Est"}},{"nom":"Haussignémont","code":"51284","codesPostaux":["51300"],"centre":{"type":"Point","coordinates":[4.7532,48.7165]},"surface":281.95,"population":302,"departement":{"code":"51","nom":"Marne"},"region":{"code":"44","nom":"Grand Est"}},{"nom":"Haussimont","code":"51285","codesPostaux":["51320"],"centre":{"type":"Point","coordinates":[4.1752,48.7472]},"surface":1747.46,"population":138,"departement":{"code":"51","nom":"Marne"},"region":{"code":"44","nom":"Grand Est"}},{"nom":"Hauteville","code":"51286","codesPostaux":["51290"],"centre":{"type":"Point","coordinates":[4.7703,48.6357]},"surface":1084.69,"population":237,"departement":{"code":"51","nom":"Marne"},"region":{"code":"44","nom":"Grand Est"}},{"nom":"Hautvillers","code":"51287","codesPostaux":["51160"],"centre":{"type":"Point","coordinates":[3.942,49.0839]},"surface":1174.22,"population":649,"departement":{"code":"51","nom":"Marne"},"region":{"code":"44","nom":"Grand Est"}},{"nom":"Heiltz-le-Hutier","code":"51288","codesPostaux":["51300"],"centre":{"type":"Point","coordinates":[4.7741,48.6899]},"surface":1089.08,"population":236,"departement":{"code":"51","nom":"Marne"},"region":{"code":"44","nom":"Grand Est"}},{"nom":"Heiltz-le-Maurupt","code":"51289","codesPostaux":["51340"],"centre":{"type":"Point","coordinates":[4.8289,48.8051]},"surface":1633.33,"population":437,"departement":{"code":"51","nom":"Marne"},"region":{"code":"44","nom":"Grand Est"}},{"nom":"Heiltz-l'Évêque","code":"51290","codesPostaux":["51340"],"centre":{"type":"Point","coordinates":[4.7361,48.7809]},"surface":949.76,"population":279,"departement":{"code":"51","nom":"Marne"},"region":{"code":"44","nom":"Grand Est"}},{"nom":"Hermonville","code":"51291","codesPostaux":["51220"],"centre":{"type":"Point","coordinates":[3.9171,49.3324]},"surface":1331.09,"population":1398,"departement":{"code":"51","nom":"Marne"},"region":{"code":"44","nom":"Grand Est"}},{"nom":"Herpont","code":"51292","codesPostaux":["51460"],"centre":{"type":"Point","coordinates":[4.7275,48.9871]},"surface":2300.49,"population":121,"departement":{"code":"51","nom":"Marne"},"region":{"code":"44","nom":"Grand Est"}},{"nom":"Heutrégiville","code":"51293","codesPostaux":["51110"],"centre":{"type":"Point","coordinates":[4.2596,49.3312]},"surface":1178.77,"population":490,"departement":{"code":"51","nom":"Marne"},"region":{"code":"44","nom":"Grand Est"}},{"nom":"Hourges","code":"51294","codesPostaux":["51140"],"centre":{"type":"Point","coordinates":[3.7693,49.2801]},"surface":430.55,"population":82,"departement":{"code":"51","nom":"Marne"},"region":{"code":"44","nom":"Grand Est"}},{"nom":"Huiron","code":"51295","codesPostaux":["51300"],"centre":{"type":"Point","coordinates":[4.5049,48.6904]},"surface":1332.77,"population":303,"departement":{"code":"51","nom":"Marne"},"region":{"code":"44","nom":"Grand Est"}},{"nom":"Humbauville","code":"51296","codesPostaux":["51320"],"centre":{"type":"Point","coordinates":[4.3889,48.6578]},"surface":1691.53,"population":76,"departement":{"code":"51","nom":"Marne"},"region":{"code":"44","nom":"Grand Est"}},{"nom":"Igny-Comblizy","code":"51298","codesPostaux":["51700"],"centre":{"type":"Point","coordinates":[3.7224,49.0112]},"surface":4081.14,"population":441,"departement":{"code":"51","nom":"Marne"},"region":{"code":"44","nom":"Grand Est"}},{"nom":"Isles-sur-Suippe","code":"51299","codesPostaux":["51110"],"centre":{"type":"Point","coordinates":[4.2095,49.3609]},"surface":1235.93,"population":963,"departement":{"code":"51","nom":"Marne"},"region":{"code":"44","nom":"Grand Est"}},{"nom":"Isle-sur-Marne","code":"51300","codesPostaux":["51290"],"centre":{"type":"Point","coordinates":[4.686,48.6471]},"surface":541.86,"population":93,"departement":{"code":"51","nom":"Marne"},"region":{"code":"44","nom":"Grand Est"}},{"nom":"Isse","code":"51301","codesPostaux":["51150"],"centre":{"type":"Point","coordinates":[4.2151,49.0689]},"surface":1093.84,"population":106,"departement":{"code":"51","nom":"Marne"},"region":{"code":"44","nom":"Grand Est"}},{"nom":"Les Istres-et-Bury","code":"51302","codesPostaux":["51190"],"centre":{"type":"Point","coordinates":[4.0873,48.9874]},"surface":504.47,"population":91,"departement":{"code":"51","nom":"Marne"},"region":{"code":"44","nom":"Grand Est"}},{"nom":"Jâlons","code":"51303","codesPostaux":["51150"],"centre":{"type":"Point","coordinates":[4.1752,49.0066]},"surface":1025.7,"population":550,"departement":{"code":"51","nom":"Marne"},"region":{"code":"44","nom":"Grand Est"}},{"nom":"Janvilliers","code":"51304","codesPostaux":["51210"],"centre":{"type":"Point","coordinates":[3.6563,48.8957]},"surface":888.63,"population":166,"departement":{"code":"51","nom":"Marne"},"region":{"code":"44","nom":"Grand Est"}},{"nom":"Janvry","code":"51305","codesPostaux":["51390"],"centre":{"type":"Point","coordinates":[3.875,49.2461]},"surface":195.8,"population":136,"departement":{"code":"51","nom":"Marne"},"region":{"code":"44","nom":"Grand Est"}},{"nom":"Joiselle","code":"51306","codesPostaux":["51310"],"centre":{"type":"Point","coordinates":[3.5001,48.762]},"surface":968.75,"population":104,"departement":{"code":"51","nom":"Marne"},"region":{"code":"44","nom":"Grand Est"}},{"nom":"Jonchery-sur-Suippe","code":"51307","codesPostaux":["51600"],"centre":{"type":"Point","coordinates":[4.4773,49.1361]},"surface":2458.3,"population":234,"departement":{"code":"51","nom":"Marne"},"region":{"code":"44","nom":"Grand Est"}},{"nom":"Jonchery-sur-Vesle","code":"51308","codesPostaux":["51140"],"centre":{"type":"Point","coordinates":[3.8222,49.2875]},"surface":322.45,"population":1831,"departement":{"code":"51","nom":"Marne"},"region":{"code":"44","nom":"Grand Est"}},{"nom":"Jonquery","code":"51309","codesPostaux":["51700"],"centre":{"type":"Point","coordinates":[3.7904,49.1461]},"surface":426.67,"population":114,"departement":{"code":"51","nom":"Marne"},"region":{"code":"44","nom":"Grand Est"}},{"nom":"Jouy-lès-Reims","code":"51310","codesPostaux":["51390"],"centre":{"type":"Point","coordinates":[3.9261,49.2127]},"surface":188.27,"population":214,"departement":{"code":"51","nom":"Marne"},"region":{"code":"44","nom":"Grand Est"}},{"nom":"Jussecourt-Minecourt","code":"51311","codesPostaux":["51340"],"centre":{"type":"Point","coordinates":[4.7822,48.7928]},"surface":904.64,"population":206,"departement":{"code":"51","nom":"Marne"},"region":{"code":"44","nom":"Grand Est"}},{"nom":"Juvigny","code":"51312","codesPostaux":["51150"],"centre":{"type":"Point","coordinates":[4.2692,49.0206]},"surface":2157.29,"population":938,"departement":{"code":"51","nom":"Marne"},"region":{"code":"44","nom":"Grand Est"}},{"nom":"Lachy","code":"51313","codesPostaux":["51120"],"centre":{"type":"Point","coordinates":[3.6989,48.771]},"surface":1698.1,"population":339,"departement":{"code":"51","nom":"Marne"},"region":{"code":"44","nom":"Grand Est"}},{"nom":"Lagery","code":"51314","codesPostaux":["51170"],"centre":{"type":"Point","coordinates":[3.7279,49.2084]},"surface":938.76,"population":234,"departement":{"code":"51","nom":"Marne"},"region":{"code":"44","nom":"Grand Est"}},{"nom":"Landricourt","code":"51315","codesPostaux":["51290"],"centre":{"type":"Point","coordinates":[4.8053,48.6129]},"surface":583.7,"population":140,"departement":{"code":"51","nom":"Marne"},"region":{"code":"44","nom":"Grand Est"}},{"nom":"Larzicourt","code":"51316","codesPostaux":["51290"],"centre":{"type":"Point","coordinates":[4.7351,48.6247]},"surface":1683.6,"population":271,"departement":{"code":"51","nom":"Marne"},"region":{"code":"44","nom":"Grand Est"}},{"nom":"Laval-sur-Tourbe","code":"51317","codesPostaux":["51600"],"centre":{"type":"Point","coordinates":[4.679,49.142]},"surface":1469.75,"population":51,"departement":{"code":"51","nom":"Marne"},"region":{"code":"44","nom":"Grand Est"}},{"nom":"Lavannes","code":"51318","codesPostaux":["51110"],"centre":{"type":"Point","coordinates":[4.1849,49.3091]},"surface":1778.35,"population":563,"departement":{"code":"51","nom":"Marne"},"region":{"code":"44","nom":"Grand Est"}},{"nom":"Lenharrée","code":"51319","codesPostaux":["51230"],"centre":{"type":"Point","coordinates":[4.1159,48.7786]},"surface":1769.28,"population":104,"departement":{"code":"51","nom":"Marne"},"region":{"code":"44","nom":"Grand Est"}},{"nom":"Leuvrigny","code":"51320","codesPostaux":["51700"],"centre":{"type":"Point","coordinates":[3.7763,49.0525]},"surface":798.64,"population":305,"departement":{"code":"51","nom":"Marne"},"region":{"code":"44","nom":"Grand Est"}},{"nom":"Lhéry","code":"51321","codesPostaux":["51170"],"centre":{"type":"Point","coordinates":[3.7695,49.2078]},"surface":601.72,"population":86,"departement":{"code":"51","nom":"Marne"},"region":{"code":"44","nom":"Grand Est"}},{"nom":"Lignon","code":"51322","codesPostaux":["51290"],"centre":{"type":"Point","coordinates":[4.5322,48.5898]},"surface":748.99,"population":121,"departement":{"code":"51","nom":"Marne"},"region":{"code":"44","nom":"Grand Est"}},{"nom":"Linthelles","code":"51323","codesPostaux":["51230"],"centre":{"type":"Point","coordinates":[3.8156,48.7136]},"surface":1107.87,"population":106,"departement":{"code":"51","nom":"Marne"},"region":{"code":"44","nom":"Grand Est"}},{"nom":"Linthes","code":"51324","codesPostaux":["51230"],"centre":{"type":"Point","coordinates":[3.8547,48.7335]},"surface":902.52,"population":111,"departement":{"code":"51","nom":"Marne"},"region":{"code":"44","nom":"Grand Est"}},{"nom":"Lisse-en-Champagne","code":"51325","codesPostaux":["51300"],"centre":{"type":"Point","coordinates":[4.6469,48.8188]},"surface":852.65,"population":109,"departement":{"code":"51","nom":"Marne"},"region":{"code":"44","nom":"Grand Est"}},{"nom":"Livry-Louvercy","code":"51326","codesPostaux":["51400"],"centre":{"type":"Point","coordinates":[4.3207,49.1025]},"surface":3079.51,"population":1092,"departement":{"code":"51","nom":"Marne"},"region":{"code":"44","nom":"Grand Est"}},{"nom":"Loisy-en-Brie","code":"51327","codesPostaux":["51130"],"centre":{"type":"Point","coordinates":[3.8951,48.8953]},"surface":1498.98,"population":174,"departement":{"code":"51","nom":"Marne"},"region":{"code":"44","nom":"Grand Est"}},{"nom":"Loisy-sur-Marne","code":"51328","codesPostaux":["51300"],"centre":{"type":"Point","coordinates":[4.5427,48.7518]},"surface":1417.71,"population":1119,"departement":{"code":"51","nom":"Marne"},"region":{"code":"44","nom":"Grand Est"}},{"nom":"Loivre","code":"51329","codesPostaux":["51220"],"centre":{"type":"Point","coordinates":[3.9761,49.3482]},"surface":1022.82,"population":1409,"departement":{"code":"51","nom":"Marne"},"region":{"code":"44","nom":"Grand Est"}},{"nom":"Ludes","code":"51333","codesPostaux":["51500"],"centre":{"type":"Point","coordinates":[4.0841,49.1595]},"surface":1227.31,"population":685,"departement":{"code":"51","nom":"Marne"},"region":{"code":"44","nom":"Grand Est"}},{"nom":"Luxémont-et-Villotte","code":"51334","codesPostaux":["51300"],"centre":{"type":"Point","coordinates":[4.6369,48.7018]},"surface":921.65,"population":453,"departement":{"code":"51","nom":"Marne"},"region":{"code":"44","nom":"Grand Est"}},{"nom":"Maffrécourt","code":"51336","codesPostaux":["51800"],"centre":{"type":"Point","coordinates":[4.8208,49.1165]},"surface":673.66,"population":57,"departement":{"code":"51","nom":"Marne"},"region":{"code":"44","nom":"Grand Est"}},{"nom":"Magneux","code":"51337","codesPostaux":["51170"],"centre":{"type":"Point","coordinates":[3.7261,49.3009]},"surface":323.07,"population":268,"departement":{"code":"51","nom":"Marne"},"region":{"code":"44","nom":"Grand Est"}},{"nom":"Mailly-Champagne","code":"51338","codesPostaux":["51500"],"centre":{"type":"Point","coordinates":[4.1123,49.1528]},"surface":1015.73,"population":622,"departement":{"code":"51","nom":"Marne"},"region":{"code":"44","nom":"Grand Est"}},{"nom":"Mairy-sur-Marne","code":"51339","codesPostaux":["51240"],"centre":{"type":"Point","coordinates":[4.3946,48.866]},"surface":2084.11,"population":564,"departement":{"code":"51","nom":"Marne"},"region":{"code":"44","nom":"Grand Est"}},{"nom":"Maisons-en-Champagne","code":"51340","codesPostaux":["51300"],"centre":{"type":"Point","coordinates":[4.4633,48.7372]},"surface":2912.5,"population":543,"departement":{"code":"51","nom":"Marne"},"region":{"code":"44","nom":"Grand Est"}},{"nom":"Malmy","code":"51341","codesPostaux":["51800"],"centre":{"type":"Point","coordinates":[4.8111,49.1833]},"surface":483.5,"population":35,"departement":{"code":"51","nom":"Marne"},"region":{"code":"44","nom":"Grand Est"}},{"nom":"Mancy","code":"51342","codesPostaux":["51530"],"centre":{"type":"Point","coordinates":[3.937,48.9827]},"surface":355.73,"population":238,"departement":{"code":"51","nom":"Marne"},"region":{"code":"44","nom":"Grand Est"}},{"nom":"Marcilly-sur-Seine","code":"51343","codesPostaux":["51260"],"centre":{"type":"Point","coordinates":[3.7116,48.5575]},"surface":999.11,"population":620,"departement":{"code":"51","nom":"Marne"},"region":{"code":"44","nom":"Grand Est"}},{"nom":"Mardeuil","code":"51344","codesPostaux":["51530"],"centre":{"type":"Point","coordinates":[3.9222,49.0552]},"surface":924.76,"population":1469,"departement":{"code":"51","nom":"Marne"},"region":{"code":"44","nom":"Grand Est"}},{"nom":"Mareuil-en-Brie","code":"51345","codesPostaux":["51270"],"centre":{"type":"Point","coordinates":[3.7563,48.9589]},"surface":895.37,"population":290,"departement":{"code":"51","nom":"Marne"},"region":{"code":"44","nom":"Grand Est"}},{"nom":"Mareuil-le-Port","code":"51346","codesPostaux":["51700"],"centre":{"type":"Point","coordinates":[3.7504,49.074]},"surface":894.63,"population":1151,"departement":{"code":"51","nom":"Marne"},"region":{"code":"44","nom":"Grand Est"}},{"nom":"Marfaux","code":"51348","codesPostaux":["51170"],"centre":{"type":"Point","coordinates":[3.9038,49.1681]},"surface":668.58,"population":107,"departement":{"code":"51","nom":"Marne"},"region":{"code":"44","nom":"Grand Est"}},{"nom":"Margerie-Hancourt","code":"51349","codesPostaux":["51290"],"centre":{"type":"Point","coordinates":[4.5508,48.5504]},"surface":2212.73,"population":175,"departement":{"code":"51","nom":"Marne"},"region":{"code":"44","nom":"Grand Est"}},{"nom":"Margny","code":"51350","codesPostaux":["51210"],"centre":{"type":"Point","coordinates":[3.6565,48.9224]},"surface":1065.95,"population":128,"departement":{"code":"51","nom":"Marne"},"region":{"code":"44","nom":"Grand Est"}},{"nom":"Marigny","code":"51351","codesPostaux":["51230"],"centre":{"type":"Point","coordinates":[3.8463,48.659]},"surface":1162.2,"population":113,"departement":{"code":"51","nom":"Marne"},"region":{"code":"44","nom":"Grand Est"}},{"nom":"Marolles","code":"51352","codesPostaux":["51300"],"centre":{"type":"Point","coordinates":[4.6215,48.7199]},"surface":442.66,"population":827,"departement":{"code":"51","nom":"Marne"},"region":{"code":"44","nom":"Grand Est"}},{"nom":"Marsangis","code":"51353","codesPostaux":["51260"],"centre":{"type":"Point","coordinates":[3.8498,48.6131]},"surface":673.49,"population":46,"departement":{"code":"51","nom":"Marne"},"region":{"code":"44","nom":"Grand Est"}},{"nom":"Marson","code":"51354","codesPostaux":["51240"],"centre":{"type":"Point","coordinates":[4.5458,48.922]},"surface":3087.71,"population":278,"departement":{"code":"51","nom":"Marne"},"region":{"code":"44","nom":"Grand Est"}},{"nom":"Massiges","code":"51355","codesPostaux":["51800"],"centre":{"type":"Point","coordinates":[4.7329,49.1937]},"surface":805.09,"population":46,"departement":{"code":"51","nom":"Marne"},"region":{"code":"44","nom":"Grand Est"}},{"nom":"Matignicourt-Goncourt","code":"51356","codesPostaux":["51300"],"centre":{"type":"Point","coordinates":[4.6764,48.675]},"surface":933.77,"population":153,"departement":{"code":"51","nom":"Marne"},"region":{"code":"44","nom":"Grand Est"}},{"nom":"Matougues","code":"51357","codesPostaux":["51510"],"centre":{"type":"Point","coordinates":[4.251,48.9842]},"surface":1369.36,"population":628,"departement":{"code":"51","nom":"Marne"},"region":{"code":"44","nom":"Grand Est"}},{"nom":"Maurupt-le-Montois","code":"51358","codesPostaux":["51340"],"centre":{"type":"Point","coordinates":[4.8559,48.7319]},"surface":1790.64,"population":557,"departement":{"code":"51","nom":"Marne"},"region":{"code":"44","nom":"Grand Est"}},{"nom":"Mécringes","code":"51359","codesPostaux":["51210"],"centre":{"type":"Point","coordinates":[3.525,48.8435]},"surface":1085.76,"population":209,"departement":{"code":"51","nom":"Marne"},"region":{"code":"44","nom":"Grand Est"}},{"nom":"Le Meix-Saint-Epoing","code":"51360","codesPostaux":["51120"],"centre":{"type":"Point","coordinates":[3.6544,48.6908]},"surface":1135.84,"population":303,"departement":{"code":"51","nom":"Marne"},"region":{"code":"44","nom":"Grand Est"}},{"nom":"Le Meix-Tiercelin","code":"51361","codesPostaux":["51320"],"centre":{"type":"Point","coordinates":[4.4402,48.6395]},"surface":1923.13,"population":166,"departement":{"code":"51","nom":"Marne"},"region":{"code":"44","nom":"Grand Est"}},{"nom":"Merfy","code":"51362","codesPostaux":["51220"],"centre":{"type":"Point","coordinates":[3.9552,49.293]},"surface":664.23,"population":598,"departement":{"code":"51","nom":"Marne"},"region":{"code":"44","nom":"Grand Est"}},{"nom":"Merlaut","code":"51363","codesPostaux":["51300"],"centre":{"type":"Point","coordinates":[4.6592,48.7615]},"surface":519.67,"population":267,"departement":{"code":"51","nom":"Marne"},"region":{"code":"44","nom":"Grand Est"}},{"nom":"Méry-Prémecy","code":"51364","codesPostaux":["51390"],"centre":{"type":"Point","coordinates":[3.8743,49.2286]},"surface":511.95,"population":67,"departement":{"code":"51","nom":"Marne"},"region":{"code":"44","nom":"Grand Est"}},{"nom":"Les Mesneux","code":"51365","codesPostaux":["51370"],"centre":{"type":"Point","coordinates":[3.9605,49.2232]},"surface":423.37,"population":934,"departement":{"code":"51","nom":"Marne"},"region":{"code":"44","nom":"Grand Est"}},{"nom":"Le Mesnil-sur-Oger","code":"51367","codesPostaux":["51190"],"centre":{"type":"Point","coordinates":[4.0183,48.9404]},"surface":797.13,"population":1007,"departement":{"code":"51","nom":"Marne"},"region":{"code":"44","nom":"Grand Est"}},{"nom":"Minaucourt-le-Mesnil-lès-Hurlus","code":"51368","codesPostaux":["51800"],"centre":{"type":"Point","coordinates":[4.6919,49.178]},"surface":2305.84,"population":46,"departement":{"code":"51","nom":"Marne"},"region":{"code":"44","nom":"Grand Est"}},{"nom":"Mœurs-Verdey","code":"51369","codesPostaux":["51120"],"centre":{"type":"Point","coordinates":[3.671,48.7354]},"surface":1327.38,"population":315,"departement":{"code":"51","nom":"Marne"},"region":{"code":"44","nom":"Grand Est"}},{"nom":"Moiremont","code":"51370","codesPostaux":["51800"],"centre":{"type":"Point","coordinates":[4.8961,49.138]},"surface":1711.39,"population":190,"departement":{"code":"51","nom":"Marne"},"region":{"code":"44","nom":"Grand Est"}},{"nom":"Moivre","code":"51371","codesPostaux":["51240"],"centre":{"type":"Point","coordinates":[4.6743,48.9426]},"surface":2215.78,"population":57,"departement":{"code":"51","nom":"Marne"},"region":{"code":"44","nom":"Grand Est"}},{"nom":"Moncetz-Longevas","code":"51372","codesPostaux":["51470"],"centre":{"type":"Point","coordinates":[4.4471,48.9189]},"surface":723.68,"population":555,"departement":{"code":"51","nom":"Marne"},"region":{"code":"44","nom":"Grand Est"}},{"nom":"Moncetz-l'Abbaye","code":"51373","codesPostaux":["51290"],"centre":{"type":"Point","coordinates":[4.6619,48.6489]},"surface":696.2,"population":88,"departement":{"code":"51","nom":"Marne"},"region":{"code":"44","nom":"Grand Est"}},{"nom":"Mondement-Montgivroux","code":"51374","codesPostaux":["51120"],"centre":{"type":"Point","coordinates":[3.7621,48.7903]},"surface":737.42,"population":27,"departement":{"code":"51","nom":"Marne"},"region":{"code":"44","nom":"Grand Est"}},{"nom":"Montbré","code":"51375","codesPostaux":["51500"],"centre":{"type":"Point","coordinates":[4.0451,49.1928]},"surface":307.5,"population":367,"departement":{"code":"51","nom":"Marne"},"region":{"code":"44","nom":"Grand Est"}},{"nom":"Montgenost","code":"51376","codesPostaux":["51260"],"centre":{"type":"Point","coordinates":[3.5926,48.598]},"surface":841.15,"population":156,"departement":{"code":"51","nom":"Marne"},"region":{"code":"44","nom":"Grand Est"}},{"nom":"Montépreux","code":"51377","codesPostaux":["51320"],"centre":{"type":"Point","coordinates":[4.125,48.7109]},"surface":1533.36,"population":47,"departement":{"code":"51","nom":"Marne"},"region":{"code":"44","nom":"Grand Est"}},{"nom":"Monthelon","code":"51378","codesPostaux":["51530"],"centre":{"type":"Point","coordinates":[3.9347,48.999]},"surface":265.85,"population":346,"departement":{"code":"51","nom":"Marne"},"region":{"code":"44","nom":"Grand Est"}},{"nom":"Montigny-sur-Vesle","code":"51379","codesPostaux":["51140"],"centre":{"type":"Point","coordinates":[3.7999,49.3118]},"surface":956.62,"population":506,"departement":{"code":"51","nom":"Marne"},"region":{"code":"44","nom":"Grand Est"}},{"nom":"Montmirail","code":"51380","codesPostaux":["51210"],"centre":{"type":"Point","coordinates":[3.5639,48.8713]},"surface":4828.68,"population":3557,"departement":{"code":"51","nom":"Marne"},"region":{"code":"44","nom":"Grand Est"}},{"nom":"Montmort-Lucy","code":"51381","codesPostaux":["51270"],"centre":{"type":"Point","coordinates":[3.8227,48.9342]},"surface":2950.46,"population":637,"departement":{"code":"51","nom":"Marne"},"region":{"code":"44","nom":"Grand Est"}},{"nom":"Mont-sur-Courville","code":"51382","codesPostaux":["51170"],"centre":{"type":"Point","coordinates":[3.6751,49.255]},"surface":605.51,"population":115,"departement":{"code":"51","nom":"Marne"},"region":{"code":"44","nom":"Grand Est"}},{"nom":"Morangis","code":"51384","codesPostaux":["51530"],"centre":{"type":"Point","coordinates":[3.8892,48.9747]},"surface":861.3,"population":381,"departement":{"code":"51","nom":"Marne"},"region":{"code":"44","nom":"Grand Est"}},{"nom":"Morsains","code":"51386","codesPostaux":["51210"],"centre":{"type":"Point","coordinates":[3.5601,48.8037]},"surface":1440.38,"population":145,"departement":{"code":"51","nom":"Marne"},"region":{"code":"44","nom":"Grand Est"}},{"nom":"Moslins","code":"51387","codesPostaux":["51530"],"centre":{"type":"Point","coordinates":[3.9022,48.9588]},"surface":1177.22,"population":285,"departement":{"code":"51","nom":"Marne"},"region":{"code":"44","nom":"Grand Est"}},{"nom":"Mourmelon-le-Grand","code":"51388","codesPostaux":["51400"],"centre":{"type":"Point","coordinates":[4.3874,49.1317]},"surface":2349.15,"population":5074,"departement":{"code":"51","nom":"Marne"},"region":{"code":"44","nom":"Grand Est"}},{"nom":"Mourmelon-le-Petit","code":"51389","codesPostaux":["51400"],"centre":{"type":"Point","coordinates":[4.31,49.1342]},"surface":1225.98,"population":808,"departement":{"code":"51","nom":"Marne"},"region":{"code":"44","nom":"Grand Est"}},{"nom":"Moussy","code":"51390","codesPostaux":["51530"],"centre":{"type":"Point","coordinates":[3.9271,49.0151]},"surface":279.11,"population":763,"departement":{"code":"51","nom":"Marne"},"region":{"code":"44","nom":"Grand Est"}},{"nom":"Muizon","code":"51391","codesPostaux":["51140"],"centre":{"type":"Point","coordinates":[3.8851,49.2724]},"surface":712.4,"population":2086,"departement":{"code":"51","nom":"Marne"},"region":{"code":"44","nom":"Grand Est"}},{"nom":"Mutigny","code":"51392","codesPostaux":["51160"],"centre":{"type":"Point","coordinates":[4.018,49.0772]},"surface":378.2,"population":199,"departement":{"code":"51","nom":"Marne"},"region":{"code":"44","nom":"Grand Est"}},{"nom":"Nanteuil-la-Forêt","code":"51393","codesPostaux":["51480"],"centre":{"type":"Point","coordinates":[3.9229,49.1307]},"surface":1455.07,"population":299,"departement":{"code":"51","nom":"Marne"},"region":{"code":"44","nom":"Grand Est"}},{"nom":"Nesle-la-Reposte","code":"51395","codesPostaux":["51120"],"centre":{"type":"Point","coordinates":[3.5492,48.627]},"surface":1063.22,"population":93,"departement":{"code":"51","nom":"Marne"},"region":{"code":"44","nom":"Grand Est"}},{"nom":"Nesle-le-Repons","code":"51396","codesPostaux":["51700"],"centre":{"type":"Point","coordinates":[3.7155,49.0444]},"surface":511.4,"population":136,"departement":{"code":"51","nom":"Marne"},"region":{"code":"44","nom":"Grand Est"}},{"nom":"La Neuville-aux-Bois","code":"51397","codesPostaux":["51330"],"centre":{"type":"Point","coordinates":[4.8937,48.9681]},"surface":1458.53,"population":137,"departement":{"code":"51","nom":"Marne"},"region":{"code":"44","nom":"Grand Est"}},{"nom":"La Neuville-aux-Larris","code":"51398","codesPostaux":["51480"],"centre":{"type":"Point","coordinates":[3.8309,49.1434]},"surface":168.03,"population":189,"departement":{"code":"51","nom":"Marne"},"region":{"code":"44","nom":"Grand Est"}},{"nom":"La Neuville-au-Pont","code":"51399","codesPostaux":["51800"],"centre":{"type":"Point","coordinates":[4.8551,49.1302]},"surface":1517.36,"population":516,"departement":{"code":"51","nom":"Marne"},"region":{"code":"44","nom":"Grand Est"}},{"nom":"Neuvy","code":"51402","codesPostaux":["51310"],"centre":{"type":"Point","coordinates":[3.5128,48.741]},"surface":1699.77,"population":271,"departement":{"code":"51","nom":"Marne"},"region":{"code":"44","nom":"Grand Est"}},{"nom":"Nogent-l'Abbesse","code":"51403","codesPostaux":["51420"],"centre":{"type":"Point","coordinates":[4.1613,49.2439]},"surface":1020.84,"population":535,"departement":{"code":"51","nom":"Marne"},"region":{"code":"44","nom":"Grand Est"}},{"nom":"Noirlieu","code":"51404","codesPostaux":["51330"],"centre":{"type":"Point","coordinates":[4.8038,48.9397]},"surface":1368.42,"population":109,"departement":{"code":"51","nom":"Marne"},"region":{"code":"44","nom":"Grand Est"}},{"nom":"Norrois","code":"51406","codesPostaux":["51300"],"centre":{"type":"Point","coordinates":[4.6247,48.6708]},"surface":415.26,"population":154,"departement":{"code":"51","nom":"Marne"},"region":{"code":"44","nom":"Grand Est"}},{"nom":"La Noue","code":"51407","codesPostaux":["51310"],"centre":{"type":"Point","coordinates":[3.6255,48.7399]},"surface":1334.1,"population":393,"departement":{"code":"51","nom":"Marne"},"region":{"code":"44","nom":"Grand Est"}},{"nom":"Nuisement-sur-Coole","code":"51409","codesPostaux":["51240"],"centre":{"type":"Point","coordinates":[4.2889,48.8703]},"surface":1522.55,"population":386,"departement":{"code":"51","nom":"Marne"},"region":{"code":"44","nom":"Grand Est"}},{"nom":"Œuilly","code":"51410","codesPostaux":["51480"],"centre":{"type":"Point","coordinates":[3.7936,49.0599]},"surface":917.15,"population":626,"departement":{"code":"51","nom":"Marne"},"region":{"code":"44","nom":"Grand Est"}},{"nom":"Ognes","code":"51412","codesPostaux":["51230"],"centre":{"type":"Point","coordinates":[3.9064,48.6969]},"surface":774.96,"population":60,"departement":{"code":"51","nom":"Marne"},"region":{"code":"44","nom":"Grand Est"}},{"nom":"Oiry","code":"51413","codesPostaux":["51530"],"centre":{"type":"Point","coordinates":[4.0415,49.0075]},"surface":1075.92,"population":888,"departement":{"code":"51","nom":"Marne"},"region":{"code":"44","nom":"Grand Est"}},{"nom":"Olizy","code":"51414","codesPostaux":["51700"],"centre":{"type":"Point","coordinates":[3.7585,49.1468]},"surface":452.63,"population":144,"departement":{"code":"51","nom":"Marne"},"region":{"code":"44","nom":"Grand Est"}},{"nom":"Omey","code":"51415","codesPostaux":["51240"],"centre":{"type":"Point","coordinates":[4.5068,48.8538]},"surface":395.18,"population":200,"departement":{"code":"51","nom":"Marne"},"region":{"code":"44","nom":"Grand Est"}},{"nom":"Orbais-l'Abbaye","code":"51416","codesPostaux":["51270"],"centre":{"type":"Point","coordinates":[3.6992,48.9484]},"surface":1609.92,"population":541,"departement":{"code":"51","nom":"Marne"},"region":{"code":"44","nom":"Grand Est"}},{"nom":"Orconte","code":"51417","codesPostaux":["51300"],"centre":{"type":"Point","coordinates":[4.738,48.6701]},"surface":1373.39,"population":368,"departement":{"code":"51","nom":"Marne"},"region":{"code":"44","nom":"Grand Est"}},{"nom":"Ormes","code":"51418","codesPostaux":["51370"],"centre":{"type":"Point","coordinates":[3.9611,49.2367]},"surface":632.54,"population":499,"departement":{"code":"51","nom":"Marne"},"region":{"code":"44","nom":"Grand Est"}},{"nom":"Outines","code":"51419","codesPostaux":["51290"],"centre":{"type":"Point","coordinates":[4.6647,48.5582]},"surface":1544.43,"population":126,"departement":{"code":"51","nom":"Marne"},"region":{"code":"44","nom":"Grand Est"}},{"nom":"Outrepont","code":"51420","codesPostaux":["51300"],"centre":{"type":"Point","coordinates":[4.691,48.764]},"surface":379.66,"population":79,"departement":{"code":"51","nom":"Marne"},"region":{"code":"44","nom":"Grand Est"}},{"nom":"Oyes","code":"51421","codesPostaux":["51120"],"centre":{"type":"Point","coordinates":[3.7631,48.8095]},"surface":766.45,"population":107,"departement":{"code":"51","nom":"Marne"},"region":{"code":"44","nom":"Grand Est"}},{"nom":"Pargny-lès-Reims","code":"51422","codesPostaux":["51390"],"centre":{"type":"Point","coordinates":[3.9236,49.2183]},"surface":362.08,"population":485,"departement":{"code":"51","nom":"Marne"},"region":{"code":"44","nom":"Grand Est"}},{"nom":"Pargny-sur-Saulx","code":"51423","codesPostaux":["51340"],"centre":{"type":"Point","coordinates":[4.8548,48.7663]},"surface":1234.81,"population":1714,"departement":{"code":"51","nom":"Marne"},"region":{"code":"44","nom":"Grand Est"}},{"nom":"Passavant-en-Argonne","code":"51424","codesPostaux":["51800"],"centre":{"type":"Point","coordinates":[5.0017,49.0231]},"surface":745.82,"population":192,"departement":{"code":"51","nom":"Marne"},"region":{"code":"44","nom":"Grand Est"}},{"nom":"Passy-Grigny","code":"51425","codesPostaux":["51700"],"centre":{"type":"Point","coordinates":[3.6805,49.1271]},"surface":1199.28,"population":373,"departement":{"code":"51","nom":"Marne"},"region":{"code":"44","nom":"Grand Est"}},{"nom":"Péas","code":"51426","codesPostaux":["51120"],"centre":{"type":"Point","coordinates":[3.777,48.7366]},"surface":771.53,"population":65,"departement":{"code":"51","nom":"Marne"},"region":{"code":"44","nom":"Grand Est"}},{"nom":"Les Petites-Loges","code":"51428","codesPostaux":["51400"],"centre":{"type":"Point","coordinates":[4.2331,49.1351]},"surface":488.72,"population":487,"departement":{"code":"51","nom":"Marne"},"region":{"code":"44","nom":"Grand Est"}},{"nom":"Pévy","code":"51429","codesPostaux":["51140"],"centre":{"type":"Point","coordinates":[3.8531,49.3186]},"surface":729.64,"population":217,"departement":{"code":"51","nom":"Marne"},"region":{"code":"44","nom":"Grand Est"}},{"nom":"Pierre-Morains","code":"51430","codesPostaux":["51130"],"centre":{"type":"Point","coordinates":[4.019,48.8398]},"surface":1350.86,"population":84,"departement":{"code":"51","nom":"Marne"},"region":{"code":"44","nom":"Grand Est"}},{"nom":"Pierry","code":"51431","codesPostaux":["51530"],"centre":{"type":"Point","coordinates":[3.9527,49.0195]},"surface":512.08,"population":1237,"departement":{"code":"51","nom":"Marne"},"region":{"code":"44","nom":"Grand Est"}},{"nom":"Pleurs","code":"51432","codesPostaux":["51230"],"centre":{"type":"Point","coordinates":[3.8698,48.699]},"surface":1675.02,"population":827,"departement":{"code":"51","nom":"Marne"},"region":{"code":"44","nom":"Grand Est"}},{"nom":"Plichancourt","code":"51433","codesPostaux":["51300"],"centre":{"type":"Point","coordinates":[4.6689,48.7397]},"surface":595.81,"population":248,"departement":{"code":"51","nom":"Marne"},"region":{"code":"44","nom":"Grand Est"}},{"nom":"Plivot","code":"51434","codesPostaux":["51150"],"centre":{"type":"Point","coordinates":[4.0767,49.0114]},"surface":1269.02,"population":746,"departement":{"code":"51","nom":"Marne"},"region":{"code":"44","nom":"Grand Est"}},{"nom":"Pocancy","code":"51435","codesPostaux":["51130"],"centre":{"type":"Point","coordinates":[4.1413,48.9436]},"surface":2701.98,"population":179,"departement":{"code":"51","nom":"Marne"},"region":{"code":"44","nom":"Grand Est"}},{"nom":"Pogny","code":"51436","codesPostaux":["51240"],"centre":{"type":"Point","coordinates":[4.4917,48.8632]},"surface":1407.42,"population":917,"departement":{"code":"51","nom":"Marne"},"region":{"code":"44","nom":"Grand Est"}},{"nom":"Poilly","code":"51437","codesPostaux":["51170"],"centre":{"type":"Point","coordinates":[3.8115,49.2191]},"surface":440.32,"population":93,"departement":{"code":"51","nom":"Marne"},"region":{"code":"44","nom":"Grand Est"}},{"nom":"Poix","code":"51438","codesPostaux":["51460"],"centre":{"type":"Point","coordinates":[4.6409,48.9635]},"surface":1466.22,"population":71,"departement":{"code":"51","nom":"Marne"},"region":{"code":"44","nom":"Grand Est"}},{"nom":"Pomacle","code":"51439","codesPostaux":["51110"],"centre":{"type":"Point","coordinates":[4.1488,49.3361]},"surface":1119.81,"population":508,"departement":{"code":"51","nom":"Marne"},"region":{"code":"44","nom":"Grand Est"}},{"nom":"Pontfaverger-Moronvilliers","code":"51440","codesPostaux":["51490"],"centre":{"type":"Point","coordinates":[4.3181,49.2789]},"surface":3161.13,"population":1740,"departement":{"code":"51","nom":"Marne"},"region":{"code":"44","nom":"Grand Est"}},{"nom":"Ponthion","code":"51441","codesPostaux":["51300"],"centre":{"type":"Point","coordinates":[4.7162,48.7518]},"surface":721.77,"population":104,"departement":{"code":"51","nom":"Marne"},"region":{"code":"44","nom":"Grand Est"}},{"nom":"Possesse","code":"51442","codesPostaux":["51330"],"centre":{"type":"Point","coordinates":[4.8564,48.8951]},"surface":3613.79,"population":127,"departement":{"code":"51","nom":"Marne"},"region":{"code":"44","nom":"Grand Est"}},{"nom":"Potangis","code":"51443","codesPostaux":["51260"],"centre":{"type":"Point","coordinates":[3.6457,48.5846]},"surface":887.9,"population":118,"departement":{"code":"51","nom":"Marne"},"region":{"code":"44","nom":"Grand Est"}},{"nom":"Pouillon","code":"51444","codesPostaux":["51220"],"centre":{"type":"Point","coordinates":[3.9447,49.3134]},"surface":284.61,"population":513,"departement":{"code":"51","nom":"Marne"},"region":{"code":"44","nom":"Grand Est"}},{"nom":"Pourcy","code":"51445","codesPostaux":["51480"],"centre":{"type":"Point","coordinates":[3.9103,49.1473]},"surface":835.71,"population":195,"departement":{"code":"51","nom":"Marne"},"region":{"code":"44","nom":"Grand Est"}},{"nom":"Pringy","code":"51446","codesPostaux":["51300"],"centre":{"type":"Point","coordinates":[4.4796,48.7723]},"surface":1535.63,"population":431,"departement":{"code":"51","nom":"Marne"},"region":{"code":"44","nom":"Grand Est"}},{"nom":"Prosnes","code":"51447","codesPostaux":["51400"],"centre":{"type":"Point","coordinates":[4.3024,49.2002]},"surface":3274.11,"population":481,"departement":{"code":"51","nom":"Marne"},"region":{"code":"44","nom":"Grand Est"}},{"nom":"Prouilly","code":"51448","codesPostaux":["51140"],"centre":{"type":"Point","coordinates":[3.8446,49.2958]},"surface":1038.52,"population":549,"departement":{"code":"51","nom":"Marne"},"region":{"code":"44","nom":"Grand Est"}},{"nom":"Prunay","code":"51449","codesPostaux":["51360"],"centre":{"type":"Point","coordinates":[4.1734,49.2114]},"surface":1842.38,"population":1027,"departement":{"code":"51","nom":"Marne"},"region":{"code":"44","nom":"Grand Est"}},{"nom":"Puisieulx","code":"51450","codesPostaux":["51500"],"centre":{"type":"Point","coordinates":[4.1154,49.204]},"surface":908.04,"population":439,"departement":{"code":"51","nom":"Marne"},"region":{"code":"44","nom":"Grand Est"}},{"nom":"Queudes","code":"51451","codesPostaux":["51120"],"centre":{"type":"Point","coordinates":[3.7598,48.6582]},"surface":1008.56,"population":83,"departement":{"code":"51","nom":"Marne"},"region":{"code":"44","nom":"Grand Est"}},{"nom":"Rapsécourt","code":"51452","codesPostaux":["51330"],"centre":{"type":"Point","coordinates":[4.7861,49.0227]},"surface":730.54,"population":33,"departement":{"code":"51","nom":"Marne"},"region":{"code":"44","nom":"Grand Est"}},{"nom":"Recy","code":"51453","codesPostaux":["51520"],"centre":{"type":"Point","coordinates":[4.3185,48.9988]},"surface":1435.17,"population":1060,"departement":{"code":"51","nom":"Marne"},"region":{"code":"44","nom":"Grand Est"}},{"nom":"Reims","code":"51454","codesPostaux":["51100"],"centre":{"type":"Point","coordinates":[4.0551,49.2535]},"surface":4681.76,"population":179380,"departement":{"code":"51","nom":"Marne"},"region":{"code":"44","nom":"Grand Est"}},{"nom":"Reims-la-Brûlée","code":"51455","codesPostaux":["51300"],"centre":{"type":"Point","coordinates":[4.672,48.7212]},"surface":648.07,"population":219,"departement":{"code":"51","nom":"Marne"},"region":{"code":"44","nom":"Grand Est"}},{"nom":"Remicourt","code":"51456","codesPostaux":["51330"],"centre":{"type":"Point","coordinates":[4.8547,48.9494]},"surface":944.57,"population":58,"departement":{"code":"51","nom":"Marne"},"region":{"code":"44","nom":"Grand Est"}},{"nom":"Cœur-de-la-Vallée","code":"51457","codesPostaux":["51480","51700"],"centre":{"type":"Point","coordinates":[3.8089,49.0945]},"surface":1351.11,"population":648,"departement":{"code":"51","nom":"Marne"},"region":{"code":"44","nom":"Grand Est"}},{"nom":"Reuves","code":"51458","codesPostaux":["51120"],"centre":{"type":"Point","coordinates":[3.8015,48.7978]},"surface":640.94,"population":61,"departement":{"code":"51","nom":"Marne"},"region":{"code":"44","nom":"Grand Est"}},{"nom":"Réveillon","code":"51459","codesPostaux":["51310"],"centre":{"type":"Point","coordinates":[3.4563,48.749]},