[{"nom":"Adon","code":"45001","codesPostaux":["45230"],"centre":{"type":"Point","coordinates":[2.7925,47.7587]},"surface":2472.48,"population":192,"departement":{"code":"45","nom":"Loiret"},"region":{"code":"24","nom":"Centre-Val de Loire"}},{"nom":"Aillant-sur-Milleron","code":"45002","codesPostaux":["45230"],"centre":{"type":"Point","coordinates":[2.9346,47.7958]},"surface":2722,"population":374,"departement":{"code":"45","nom":"Loiret"},"region":{"code":"24","nom":"Centre-Val de Loire"}},{"nom":"Amilly","code":"45004","codesPostaux":["45200"],"centre":{"type":"Point","coordinates":[2.7813,47.9911]},"surface":4024.76,"population":13432,"departement":{"code":"45","nom":"Loiret"},"region":{"code":"24","nom":"Centre-Val de Loire"}},{"nom":"Andonville","code":"45005","codesPostaux":["45480"],"centre":{"type":"Point","coordinates":[2.0233,48.274]},"surface":1199.91,"population":252,"departement":{"code":"45","nom":"Loiret"},"region":{"code":"24","nom":"Centre-Val de Loire"}},{"nom":"Ardon","code":"45006","codesPostaux":["45160"],"centre":{"type":"Point","coordinates":[1.8745,47.7825]},"surface":5461.61,"population":1201,"departement":{"code":"45","nom":"Loiret"},"region":{"code":"24","nom":"Centre-Val de Loire"}},{"nom":"Artenay","code":"45008","codesPostaux":["45410"],"centre":{"type":"Point","coordinates":[1.8792,48.0773]},"surface":2040.83,"population":2009,"departement":{"code":"45","nom":"Loiret"},"region":{"code":"24","nom":"Centre-Val de Loire"}},{"nom":"Aschères-le-Marché","code":"45009","codesPostaux":["45170"],"centre":{"type":"Point","coordinates":[2.0043,48.1103]},"surface":2100.12,"population":1140,"departement":{"code":"45","nom":"Loiret"},"region":{"code":"24","nom":"Centre-Val de Loire"}},{"nom":"Ascoux","code":"45010","codesPostaux":["45300"],"centre":{"type":"Point","coordinates":[2.2514,48.1294]},"surface":663.73,"population":1070,"departement":{"code":"45","nom":"Loiret"},"region":{"code":"24","nom":"Centre-Val de Loire"}},{"nom":"Attray","code":"45011","codesPostaux":["45170"],"centre":{"type":"Point","coordinates":[2.1234,48.1158]},"surface":1687.52,"population":209,"departement":{"code":"45","nom":"Loiret"},"region":{"code":"24","nom":"Centre-Val de Loire"}},{"nom":"Audeville","code":"45012","codesPostaux":["45300"],"centre":{"type":"Point","coordinates":[2.2427,48.2808]},"surface":1269.39,"population":180,"departement":{"code":"45","nom":"Loiret"},"region":{"code":"24","nom":"Centre-Val de Loire"}},{"nom":"Augerville-la-Rivière","code":"45013","codesPostaux":["45330"],"centre":{"type":"Point","coordinates":[2.4193,48.2542]},"surface":402.16,"population":216,"departement":{"code":"45","nom":"Loiret"},"region":{"code":"24","nom":"Centre-Val de Loire"}},{"nom":"Aulnay-la-Rivière","code":"45014","codesPostaux":["45390"],"centre":{"type":"Point","coordinates":[2.3753,48.2078]},"surface":1613.43,"population":505,"departement":{"code":"45","nom":"Loiret"},"region":{"code":"24","nom":"Centre-Val de Loire"}},{"nom":"Autruy-sur-Juine","code":"45015","codesPostaux":["45480"],"centre":{"type":"Point","coordinates":[2.0961,48.2786]},"surface":2713.53,"population":729,"departement":{"code":"45","nom":"Loiret"},"region":{"code":"24","nom":"Centre-Val de Loire"}},{"nom":"Autry-le-Châtel","code":"45016","codesPostaux":["45500"],"centre":{"type":"Point","coordinates":[2.6042,47.5951]},"surface":5095.95,"population":858,"departement":{"code":"45","nom":"Loiret"},"region":{"code":"24","nom":"Centre-Val de Loire"}},{"nom":"Auvilliers-en-Gâtinais","code":"45017","codesPostaux":["45270"],"centre":{"type":"Point","coordinates":[2.4726,47.9687]},"surface":2056.87,"population":335,"departement":{"code":"45","nom":"Loiret"},"region":{"code":"24","nom":"Centre-Val de Loire"}},{"nom":"Auxy","code":"45018","codesPostaux":["45340"],"centre":{"type":"Point","coordinates":[2.4943,48.1065]},"surface":2024.97,"population":954,"departement":{"code":"45","nom":"Loiret"},"region":{"code":"24","nom":"Centre-Val de Loire"}},{"nom":"Baccon","code":"45019","codesPostaux":["45130"],"centre":{"type":"Point","coordinates":[1.624,47.8822]},"surface":3306.6,"population":643,"departement":{"code":"45","nom":"Loiret"},"region":{"code":"24","nom":"Centre-Val de Loire"}},{"nom":"Le Bardon","code":"45020","codesPostaux":["45130"],"centre":{"type":"Point","coordinates":[1.6488,47.8437]},"surface":1233.11,"population":970,"departement":{"code":"45","nom":"Loiret"},"region":{"code":"24","nom":"Centre-Val de Loire"}},{"nom":"Barville-en-Gâtinais","code":"45021","codesPostaux":["45340"],"centre":{"type":"Point","coordinates":[2.401,48.1116]},"surface":1030.48,"population":299,"departement":{"code":"45","nom":"Loiret"},"region":{"code":"24","nom":"Centre-Val de Loire"}},{"nom":"Batilly-en-Gâtinais","code":"45022","codesPostaux":["45340"],"centre":{"type":"Point","coordinates":[2.3706,48.0841]},"surface":1033.67,"population":447,"departement":{"code":"45","nom":"Loiret"},"region":{"code":"24","nom":"Centre-Val de Loire"}},{"nom":"Batilly-en-Puisaye","code":"45023","codesPostaux":["45420"],"centre":{"type":"Point","coordinates":[2.8871,47.6127]},"surface":1739.9,"population":106,"departement":{"code":"45","nom":"Loiret"},"region":{"code":"24","nom":"Centre-Val de Loire"}},{"nom":"Baule","code":"45024","codesPostaux":["45130"],"centre":{"type":"Point","coordinates":[1.669,47.8089]},"surface":1191.8,"population":2005,"departement":{"code":"45","nom":"Loiret"},"region":{"code":"24","nom":"Centre-Val de Loire"}},{"nom":"Bazoches-les-Gallerandes","code":"45025","codesPostaux":["45480"],"centre":{"type":"Point","coordinates":[2.0663,48.1653]},"surface":3696.86,"population":1482,"departement":{"code":"45","nom":"Loiret"},"region":{"code":"24","nom":"Centre-Val de Loire"}},{"nom":"Bazoches-sur-le-Betz","code":"45026","codesPostaux":["45210"],"centre":{"type":"Point","coordinates":[2.9918,48.1329]},"surface":1542.72,"population":968,"departement":{"code":"45","nom":"Loiret"},"region":{"code":"24","nom":"Centre-Val de Loire"}},{"nom":"Beauchamps-sur-Huillard","code":"45027","codesPostaux":["45270"],"centre":{"type":"Point","coordinates":[2.4656,47.9445]},"surface":1808.02,"population":402,"departement":{"code":"45","nom":"Loiret"},"region":{"code":"24","nom":"Centre-Val de Loire"}},{"nom":"Beaugency","code":"45028","codesPostaux":["45190"],"centre":{"type":"Point","coordinates":[1.6376,47.777]},"surface":1656.86,"population":7811,"departement":{"code":"45","nom":"Loiret"},"region":{"code":"24","nom":"Centre-Val de Loire"}},{"nom":"Beaulieu-sur-Loire","code":"45029","codesPostaux":["45630"],"centre":{"type":"Point","coordinates":[2.8031,47.5376]},"surface":4947.29,"population":1750,"departement":{"code":"45","nom":"Loiret"},"region":{"code":"24","nom":"Centre-Val de Loire"}},{"nom":"Beaune-la-Rolande","code":"45030","codesPostaux":["45340"],"centre":{"type":"Point","coordinates":[2.4347,48.0762]},"surface":2058.48,"population":1991,"departement":{"code":"45","nom":"Loiret"},"region":{"code":"24","nom":"Centre-Val de Loire"}},{"nom":"Bellegarde","code":"45031","codesPostaux":["45270"],"centre":{"type":"Point","coordinates":[2.4137,47.9806]},"surface":492.98,"population":1416,"departement":{"code":"45","nom":"Loiret"},"region":{"code":"24","nom":"Centre-Val de Loire"}},{"nom":"Le Bignon-Mirabeau","code":"45032","codesPostaux":["45210"],"centre":{"type":"Point","coordinates":[2.9319,48.1473]},"surface":1285.72,"population":307,"departement":{"code":"45","nom":"Loiret"},"region":{"code":"24","nom":"Centre-Val de Loire"}},{"nom":"Boësses","code":"45033","codesPostaux":["45390"],"centre":{"type":"Point","coordinates":[2.4331,48.1503]},"surface":1309.64,"population":379,"departement":{"code":"45","nom":"Loiret"},"region":{"code":"24","nom":"Centre-Val de Loire"}},{"nom":"Boigny-sur-Bionne","code":"45034","codesPostaux":["45760"],"centre":{"type":"Point","coordinates":[2.0189,47.9336]},"surface":752.53,"population":2106,"departement":{"code":"45","nom":"Loiret"},"region":{"code":"24","nom":"Centre-Val de Loire"}},{"nom":"Boiscommun","code":"45035","codesPostaux":["45340"],"centre":{"type":"Point","coordinates":[2.3576,48.039]},"surface":1594.42,"population":1142,"departement":{"code":"45","nom":"Loiret"},"region":{"code":"24","nom":"Centre-Val de Loire"}},{"nom":"Boismorand","code":"45036","codesPostaux":["45290"],"centre":{"type":"Point","coordinates":[2.7196,47.7828]},"surface":2537.58,"population":863,"departement":{"code":"45","nom":"Loiret"},"region":{"code":"24","nom":"Centre-Val de Loire"}},{"nom":"Boisseaux","code":"45037","codesPostaux":["45480"],"centre":{"type":"Point","coordinates":[1.9861,48.2521]},"surface":726.25,"population":502,"departement":{"code":"45","nom":"Loiret"},"region":{"code":"24","nom":"Centre-Val de Loire"}},{"nom":"Bondaroy","code":"45038","codesPostaux":["45300"],"centre":{"type":"Point","coordinates":[2.28,48.1853]},"surface":700.49,"population":414,"departement":{"code":"45","nom":"Loiret"},"region":{"code":"24","nom":"Centre-Val de Loire"}},{"nom":"Bonnée","code":"45039","codesPostaux":["45460"],"centre":{"type":"Point","coordinates":[2.3897,47.7937]},"surface":1165.28,"population":698,"departement":{"code":"45","nom":"Loiret"},"region":{"code":"24","nom":"Centre-Val de Loire"}},{"nom":"Bonny-sur-Loire","code":"45040","codesPostaux":["45420"],"centre":{"type":"Point","coordinates":[2.8407,47.581]},"surface":2668.77,"population":1851,"departement":{"code":"45","nom":"Loiret"},"region":{"code":"24","nom":"Centre-Val de Loire"}},{"nom":"Bordeaux-en-Gâtinais","code":"45041","codesPostaux":["45340"],"centre":{"type":"Point","coordinates":[2.5427,48.1006]},"surface":948.09,"population":107,"departement":{"code":"45","nom":"Loiret"},"region":{"code":"24","nom":"Centre-Val de Loire"}},{"nom":"Les Bordes","code":"45042","codesPostaux":["45460"],"centre":{"type":"Point","coordinates":[2.4358,47.8162]},"surface":2411.67,"population":1846,"departement":{"code":"45","nom":"Loiret"},"region":{"code":"24","nom":"Centre-Val de Loire"}},{"nom":"Bou","code":"45043","codesPostaux":["45430"],"centre":{"type":"Point","coordinates":[2.0528,47.8695]},"surface":631.14,"population":1019,"departement":{"code":"45","nom":"Loiret"},"region":{"code":"24","nom":"Centre-Val de Loire"}},{"nom":"Bougy-lez-Neuville","code":"45044","codesPostaux":["45170"],"centre":{"type":"Point","coordinates":[2.0233,48.0455]},"surface":1686.8,"population":156,"departement":{"code":"45","nom":"Loiret"},"region":{"code":"24","nom":"Centre-Val de Loire"}},{"nom":"Bouilly-en-Gâtinais","code":"45045","codesPostaux":["45300"],"centre":{"type":"Point","coordinates":[2.2895,48.0952]},"surface":1594.19,"population":307,"departement":{"code":"45","nom":"Loiret"},"region":{"code":"24","nom":"Centre-Val de Loire"}},{"nom":"Boulay-les-Barres","code":"45046","codesPostaux":["45140"],"centre":{"type":"Point","coordinates":[1.7738,47.9749]},"surface":1237.69,"population":1061,"departement":{"code":"45","nom":"Loiret"},"region":{"code":"24","nom":"Centre-Val de Loire"}},{"nom":"Bouzonville-aux-Bois","code":"45047","codesPostaux":["45300"],"centre":{"type":"Point","coordinates":[2.2451,48.1037]},"surface":753.86,"population":419,"departement":{"code":"45","nom":"Loiret"},"region":{"code":"24","nom":"Centre-Val de Loire"}},{"nom":"Bouzy-la-Forêt","code":"45049","codesPostaux":["45460"],"centre":{"type":"Point","coordinates":[2.3672,47.8706]},"surface":3737.63,"population":1231,"departement":{"code":"45","nom":"Loiret"},"region":{"code":"24","nom":"Centre-Val de Loire"}},{"nom":"Boynes","code":"45050","codesPostaux":["45300"],"centre":{"type":"Point","coordinates":[2.3603,48.1169]},"surface":1540.91,"population":1323,"departement":{"code":"45","nom":"Loiret"},"region":{"code":"24","nom":"Centre-Val de Loire"}},{"nom":"Bray-Saint-Aignan","code":"45051","codesPostaux":["45460"],"centre":{"type":"Point","coordinates":[2.3771,47.83]},"surface":2615.62,"population":1774,"departement":{"code":"45","nom":"Loiret"},"region":{"code":"24","nom":"Centre-Val de Loire"}},{"nom":"Breteau","code":"45052","codesPostaux":["45250"],"centre":{"type":"Point","coordinates":[2.8902,47.6774]},"surface":1637.93,"population":95,"departement":{"code":"45","nom":"Loiret"},"region":{"code":"24","nom":"Centre-Val de Loire"}},{"nom":"Briare","code":"45053","codesPostaux":["45250"],"centre":{"type":"Point","coordinates":[2.7417,47.6418]},"surface":4540.07,"population":5012,"departement":{"code":"45","nom":"Loiret"},"region":{"code":"24","nom":"Centre-Val de Loire"}},{"nom":"Briarres-sur-Essonne","code":"45054","codesPostaux":["45390"],"centre":{"type":"Point","coordinates":[2.4167,48.2241]},"surface":825.61,"population":526,"departement":{"code":"45","nom":"Loiret"},"region":{"code":"24","nom":"Centre-Val de Loire"}},{"nom":"Bricy","code":"45055","codesPostaux":["45310"],"centre":{"type":"Point","coordinates":[1.7751,48.0077]},"surface":1269.04,"population":542,"departement":{"code":"45","nom":"Loiret"},"region":{"code":"24","nom":"Centre-Val de Loire"}},{"nom":"Bromeilles","code":"45056","codesPostaux":["45390"],"centre":{"type":"Point","coordinates":[2.4906,48.1855]},"surface":1474.23,"population":321,"departement":{"code":"45","nom":"Loiret"},"region":{"code":"24","nom":"Centre-Val de Loire"}},{"nom":"Bucy-le-Roi","code":"45058","codesPostaux":["45410"],"centre":{"type":"Point","coordinates":[1.921,48.062]},"surface":468.52,"population":177,"departement":{"code":"45","nom":"Loiret"},"region":{"code":"24","nom":"Centre-Val de Loire"}},{"nom":"Bucy-Saint-Liphard","code":"45059","codesPostaux":["45140"],"centre":{"type":"Point","coordinates":[1.7503,47.942]},"surface":1783.4,"population":208,"departement":{"code":"45","nom":"Loiret"},"region":{"code":"24","nom":"Centre-Val de Loire"}},{"nom":"La Bussière","code":"45060","codesPostaux":["45230"],"centre":{"type":"Point","coordinates":[2.7481,47.7371]},"surface":3498.77,"population":761,"departement":{"code":"45","nom":"Loiret"},"region":{"code":"24","nom":"Centre-Val de Loire"}},{"nom":"Cepoy","code":"45061","codesPostaux":["45120"],"centre":{"type":"Point","coordinates":[2.7394,48.0515]},"surface":846.33,"population":2346,"departement":{"code":"45","nom":"Loiret"},"region":{"code":"24","nom":"Centre-Val de Loire"}},{"nom":"Cercottes","code":"45062","codesPostaux":["45520"],"centre":{"type":"Point","coordinates":[1.9021,47.9892]},"surface":2420.94,"population":1477,"departement":{"code":"45","nom":"Loiret"},"region":{"code":"24","nom":"Centre-Val de Loire"}},{"nom":"Cerdon","code":"45063","codesPostaux":["45620"],"centre":{"type":"Point","coordinates":[2.3714,47.6284]},"surface":6715.05,"population":895,"departement":{"code":"45","nom":"Loiret"},"region":{"code":"24","nom":"Centre-Val de Loire"}},{"nom":"Cernoy-en-Berry","code":"45064","codesPostaux":["45360"],"centre":{"type":"Point","coordinates":[2.6531,47.5449]},"surface":2897.69,"population":427,"departement":{"code":"45","nom":"Loiret"},"region":{"code":"24","nom":"Centre-Val de Loire"}},{"nom":"Césarville-Dossainville","code":"45065","codesPostaux":["45300"],"centre":{"type":"Point","coordinates":[2.2866,48.2633]},"surface":1919.73,"population":222,"departement":{"code":"45","nom":"Loiret"},"region":{"code":"24","nom":"Centre-Val de Loire"}},{"nom":"Chailly-en-Gâtinais","code":"45066","codesPostaux":["45260"],"centre":{"type":"Point","coordinates":[2.527,47.9394]},"surface":1834.41,"population":688,"departement":{"code":"45","nom":"Loiret"},"region":{"code":"24","nom":"Centre-Val de Loire"}},{"nom":"Chaingy","code":"45067","codesPostaux":["45380"],"centre":{"type":"Point","coordinates":[1.7763,47.8926]},"surface":2168.84,"population":4081,"departement":{"code":"45","nom":"Loiret"},"region":{"code":"24","nom":"Centre-Val de Loire"}},{"nom":"Châlette-sur-Loing","code":"45068","codesPostaux":["45120"],"centre":{"type":"Point","coordinates":[2.7375,48.0214]},"surface":1309.98,"population":12958,"departement":{"code":"45","nom":"Loiret"},"region":{"code":"24","nom":"Centre-Val de Loire"}},{"nom":"Chambon-la-Forêt","code":"45069","codesPostaux":["45340"],"centre":{"type":"Point","coordinates":[2.2827,48.0535]},"surface":1715.94,"population":961,"departement":{"code":"45","nom":"Loiret"},"region":{"code":"24","nom":"Centre-Val de Loire"}},{"nom":"Champoulet","code":"45070","codesPostaux":["45420"],"centre":{"type":"Point","coordinates":[2.9266,47.6544]},"surface":938.75,"population":52,"departement":{"code":"45","nom":"Loiret"},"region":{"code":"24","nom":"Centre-Val de Loire"}},{"nom":"Chanteau","code":"45072","codesPostaux":["45400"],"centre":{"type":"Point","coordinates":[1.9628,47.9798]},"surface":2895.91,"population":1611,"departement":{"code":"45","nom":"Loiret"},"region":{"code":"24","nom":"Centre-Val de Loire"}},{"nom":"Chantecoq","code":"45073","codesPostaux":["45320"],"centre":{"type":"Point","coordinates":[2.9666,48.0472]},"surface":1593.16,"population":516,"departement":{"code":"45","nom":"Loiret"},"region":{"code":"24","nom":"Centre-Val de Loire"}},{"nom":"La Chapelle-Onzerain","code":"45074","codesPostaux":["45310"],"centre":{"type":"Point","coordinates":[1.611,48.0335]},"surface":725.71,"population":110,"departement":{"code":"45","nom":"Loiret"},"region":{"code":"24","nom":"Centre-Val de Loire"}},{"nom":"La Chapelle-Saint-Mesmin","code":"45075","codesPostaux":["45380"],"centre":{"type":"Point","coordinates":[1.8324,47.8861]},"surface":895.34,"population":10492,"departement":{"code":"45","nom":"Loiret"},"region":{"code":"24","nom":"Centre-Val de Loire"}},{"nom":"La Chapelle-Saint-Sépulcre","code":"45076","codesPostaux":["45210"],"centre":{"type":"Point","coordinates":[2.8392,48.017]},"surface":622.68,"population":223,"departement":{"code":"45","nom":"Loiret"},"region":{"code":"24","nom":"Centre-Val de Loire"}},{"nom":"La Chapelle-sur-Aveyron","code":"45077","codesPostaux":["45230"],"centre":{"type":"Point","coordinates":[2.8741,47.8691]},"surface":1903.94,"population":623,"departement":{"code":"45","nom":"Loiret"},"region":{"code":"24","nom":"Centre-Val de Loire"}},{"nom":"Chapelon","code":"45078","codesPostaux":["45270"],"centre":{"type":"Point","coordinates":[2.5786,48.0355]},"surface":656.4,"population":250,"departement":{"code":"45","nom":"Loiret"},"region":{"code":"24","nom":"Centre-Val de Loire"}},{"nom":"Le Charme","code":"45079","codesPostaux":["45230"],"centre":{"type":"Point","coordinates":[2.9914,47.8032]},"surface":1374.83,"population":149,"departement":{"code":"45","nom":"Loiret"},"region":{"code":"24","nom":"Centre-Val de Loire"}},{"nom":"Charmont-en-Beauce","code":"45080","codesPostaux":["45480"],"centre":{"type":"Point","coordinates":[2.1167,48.2382]},"surface":1807.09,"population":340,"departement":{"code":"45","nom":"Loiret"},"region":{"code":"24","nom":"Centre-Val de Loire"}},{"nom":"Charsonville","code":"45081","codesPostaux":["45130"],"centre":{"type":"Point","coordinates":[1.5776,47.9244]},"surface":2462.31,"population":611,"departement":{"code":"45","nom":"Loiret"},"region":{"code":"24","nom":"Centre-Val de Loire"}},{"nom":"Châteauneuf-sur-Loire","code":"45082","codesPostaux":["45110"],"centre":{"type":"Point","coordinates":[2.2415,47.8829]},"surface":4009.42,"population":8470,"departement":{"code":"45","nom":"Loiret"},"region":{"code":"24","nom":"Centre-Val de Loire"}},{"nom":"Château-Renard","code":"45083","codesPostaux":["45220"],"centre":{"type":"Point","coordinates":[2.9166,47.9299]},"surface":4041.97,"population":2108,"departement":{"code":"45","nom":"Loiret"},"region":{"code":"24","nom":"Centre-Val de Loire"}},{"nom":"Châtenoy","code":"45084","codesPostaux":["45260"],"centre":{"type":"Point","coordinates":[2.4148,47.9162]},"surface":2579.65,"population":424,"departement":{"code":"45","nom":"Loiret"},"region":{"code":"24","nom":"Centre-Val de Loire"}},{"nom":"Châtillon-Coligny","code":"45085","codesPostaux":["45230"],"centre":{"type":"Point","coordinates":[2.8747,47.8229]},"surface":2560.63,"population":1858,"departement":{"code":"45","nom":"Loiret"},"region":{"code":"24","nom":"Centre-Val de Loire"}},{"nom":"Châtillon-le-Roi","code":"45086","codesPostaux":["45480"],"centre":{"type":"Point","coordinates":[2.1006,48.1635]},"surface":458.39,"population":275,"departement":{"code":"45","nom":"Loiret"},"region":{"code":"24","nom":"Centre-Val de Loire"}},{"nom":"Châtillon-sur-Loire","code":"45087","codesPostaux":["45360"],"centre":{"type":"Point","coordinates":[2.7435,47.5754]},"surface":3979.72,"population":3152,"departement":{"code":"45","nom":"Loiret"},"region":{"code":"24","nom":"Centre-Val de Loire"}},{"nom":"Chaussy","code":"45088","codesPostaux":["45480"],"centre":{"type":"Point","coordinates":[1.9917,48.1632]},"surface":1304.54,"population":274,"departement":{"code":"45","nom":"Loiret"},"region":{"code":"24","nom":"Centre-Val de Loire"}},{"nom":"Chécy","code":"45089","codesPostaux":["45430"],"centre":{"type":"Point","coordinates":[2.0223,47.9019]},"surface":1550.28,"population":8948,"departement":{"code":"45","nom":"Loiret"},"region":{"code":"24","nom":"Centre-Val de Loire"}},{"nom":"Chevannes","code":"45091","codesPostaux":["45210"],"centre":{"type":"Point","coordinates":[2.8532,48.1345]},"surface":1201.77,"population":319,"departement":{"code":"45","nom":"Loiret"},"region":{"code":"24","nom":"Centre-Val de Loire"}},{"nom":"Chevillon-sur-Huillard","code":"45092","codesPostaux":["45700"],"centre":{"type":"Point","coordinates":[2.6232,47.9679]},"surface":1944.44,"population":1504,"departement":{"code":"45","nom":"Loiret"},"region":{"code":"24","nom":"Centre-Val de Loire"}},{"nom":"Chevilly","code":"45093","codesPostaux":["45520"],"centre":{"type":"Point","coordinates":[1.8918,48.0318]},"surface":4220.93,"population":2653,"departement":{"code":"45","nom":"Loiret"},"region":{"code":"24","nom":"Centre-Val de Loire"}},{"nom":"Chevry-sous-le-Bignon","code":"45094","codesPostaux":["45210"],"centre":{"type":"Point","coordinates":[2.8929,48.1444]},"surface":739.79,"population":228,"departement":{"code":"45","nom":"Loiret"},"region":{"code":"24","nom":"Centre-Val de Loire"}},{"nom":"Chilleurs-aux-Bois","code":"45095","codesPostaux":["45170"],"centre":{"type":"Point","coordinates":[2.1412,48.0621]},"surface":5251.76,"population":2103,"departement":{"code":"45","nom":"Loiret"},"region":{"code":"24","nom":"Centre-Val de Loire"}},{"nom":"Les Choux","code":"45096","codesPostaux":["45290"],"centre":{"type":"Point","coordinates":[2.6549,47.7886]},"surface":3366.45,"population":530,"departement":{"code":"45","nom":"Loiret"},"region":{"code":"24","nom":"Centre-Val de Loire"}},{"nom":"Chuelles","code":"45097","codesPostaux":["45220"],"centre":{"type":"Point","coordinates":[2.9674,47.9962]},"surface":3084.61,"population":1230,"departement":{"code":"45","nom":"Loiret"},"region":{"code":"24","nom":"Centre-Val de Loire"}},{"nom":"Cléry-Saint-André","code":"45098","codesPostaux":["45370"],"centre":{"type":"Point","coordinates":[1.7613,47.8151]},"surface":1830.92,"population":3540,"departement":{"code":"45","nom":"Loiret"},"region":{"code":"24","nom":"Centre-Val de Loire"}},{"nom":"Coinces","code":"45099","codesPostaux":["45310"],"centre":{"type":"Point","coordinates":[1.7282,48.014]},"surface":2191.34,"population":498,"departement":{"code":"45","nom":"Loiret"},"region":{"code":"24","nom":"Centre-Val de Loire"}},{"nom":"Combleux","code":"45100","codesPostaux":["45800"],"centre":{"type":"Point","coordinates":[1.9847,47.8991]},"surface":109.91,"population":524,"departement":{"code":"45","nom":"Loiret"},"region":{"code":"24","nom":"Centre-Val de Loire"}},{"nom":"Combreux","code":"45101","codesPostaux":["45530"],"centre":{"type":"Point","coordinates":[2.3046,47.9585]},"surface":1269.54,"population":270,"departement":{"code":"45","nom":"Loiret"},"region":{"code":"24","nom":"Centre-Val de Loire"}},{"nom":"Conflans-sur-Loing","code":"45102","codesPostaux":["45700"],"centre":{"type":"Point","coordinates":[2.7787,47.945]},"surface":918.7,"population":362,"departement":{"code":"45","nom":"Loiret"},"region":{"code":"24","nom":"Centre-Val de Loire"}},{"nom":"Corbeilles","code":"45103","codesPostaux":["45490"],"centre":{"type":"Point","coordinates":[2.5523,48.0716]},"surface":3263.7,"population":1579,"departement":{"code":"45","nom":"Loiret"},"region":{"code":"24","nom":"Centre-Val de Loire"}},{"nom":"Corquilleroy","code":"45104","codesPostaux":["45120"],"centre":{"type":"Point","coordinates":[2.6943,48.0416]},"surface":1396.49,"population":2840,"departement":{"code":"45","nom":"Loiret"},"region":{"code":"24","nom":"Centre-Val de Loire"}},{"nom":"Cortrat","code":"45105","codesPostaux":["45700"],"centre":{"type":"Point","coordinates":[2.771,47.9094]},"surface":1097.91,"population":82,"departement":{"code":"45","nom":"Loiret"},"region":{"code":"24","nom":"Centre-Val de Loire"}},{"nom":"Coudroy","code":"45107","codesPostaux":["45260"],"centre":{"type":"Point","coordinates":[2.4648,47.9002]},"surface":1475.52,"population":299,"departement":{"code":"45","nom":"Loiret"},"region":{"code":"24","nom":"Centre-Val de Loire"}},{"nom":"Coullons","code":"45108","codesPostaux":["45720"],"centre":{"type":"Point","coordinates":[2.5064,47.6188]},"surface":8120.94,"population":2251,"departement":{"code":"45","nom":"Loiret"},"region":{"code":"24","nom":"Centre-Val de Loire"}},{"nom":"Coulmiers","code":"45109","codesPostaux":["45130"],"centre":{"type":"Point","coordinates":[1.6605,47.934]},"surface":1420.92,"population":565,"departement":{"code":"45","nom":"Loiret"},"region":{"code":"24","nom":"Centre-Val de Loire"}},{"nom":"Courcelles-le-Roi","code":"45110","codesPostaux":["45300"],"centre":{"type":"Point","coordinates":[2.3301,48.0984]},"surface":629.52,"population":318,"departement":{"code":"45","nom":"Loiret"},"region":{"code":"24","nom":"Centre-Val de Loire"}},{"nom":"Courcy-aux-Loges","code":"45111","codesPostaux":["45300"],"centre":{"type":"Point","coordinates":[2.2188,48.0548]},"surface":2090.09,"population":453,"departement":{"code":"45","nom":"Loiret"},"region":{"code":"24","nom":"Centre-Val de Loire"}},{"nom":"La Cour-Marigny","code":"45112","codesPostaux":["45260"],"centre":{"type":"Point","coordinates":[2.5851,47.8923]},"surface":1350.37,"population":367,"departement":{"code":"45","nom":"Loiret"},"region":{"code":"24","nom":"Centre-Val de Loire"}},{"nom":"Courtemaux","code":"45113","codesPostaux":["45320"],"centre":{"type":"Point","coordinates":[2.9342,48.0478]},"surface":1221.37,"population":263,"departement":{"code":"45","nom":"Loiret"},"region":{"code":"24","nom":"Centre-Val de Loire"}},{"nom":"Courtempierre","code":"45114","codesPostaux":["45490"],"centre":{"type":"Point","coordinates":[2.6396,48.093]},"surface":1331.92,"population":214,"departement":{"code":"45","nom":"Loiret"},"region":{"code":"24","nom":"Centre-Val de Loire"}},{"nom":"Courtenay","code":"45115","codesPostaux":["45320"],"centre":{"type":"Point","coordinates":[3.0646,48.0285]},"surface":5014.14,"population":3799,"departement":{"code":"45","nom":"Loiret"},"region":{"code":"24","nom":"Centre-Val de Loire"}},{"nom":"Cravant","code":"45116","codesPostaux":["45190"],"centre":{"type":"Point","coordinates":[1.5782,47.8333]},"surface":3385.07,"population":951,"departement":{"code":"45","nom":"Loiret"},"region":{"code":"24","nom":"Centre-Val de Loire"}},{"nom":"Crottes-en-Pithiverais","code":"45118","codesPostaux":["45170"],"centre":{"type":"Point","coordinates":[2.0634,48.1125]},"surface":1366.04,"population":319,"departement":{"code":"45","nom":"Loiret"},"region":{"code":"24","nom":"Centre-Val de Loire"}},{"nom":"Dadonville","code":"45119","codesPostaux":["45300"],"centre":{"type":"Point","coordinates":[2.2663,48.1483]},"surface":1830.72,"population":2363,"departement":{"code":"45","nom":"Loiret"},"region":{"code":"24","nom":"Centre-Val de Loire"}},{"nom":"Dammarie-en-Puisaye","code":"45120","codesPostaux":["45420"],"centre":{"type":"Point","coordinates":[2.8619,47.632]},"surface":2590.23,"population":173,"departement":{"code":"45","nom":"Loiret"},"region":{"code":"24","nom":"Centre-Val de Loire"}},{"nom":"Dammarie-sur-Loing","code":"45121","codesPostaux":["45230"],"centre":{"type":"Point","coordinates":[2.8736,47.7831]},"surface":2104.18,"population":460,"departement":{"code":"45","nom":"Loiret"},"region":{"code":"24","nom":"Centre-Val de Loire"}},{"nom":"Dampierre-en-Burly","code":"45122","codesPostaux":["45570"],"centre":{"type":"Point","coordinates":[2.5429,47.7626]},"surface":4842.49,"population":1454,"departement":{"code":"45","nom":"Loiret"},"region":{"code":"24","nom":"Centre-Val de Loire"}},{"nom":"Darvoy","code":"45123","codesPostaux":["45150"],"centre":{"type":"Point","coordinates":[2.0881,47.8523]},"surface":855.21,"population":1905,"departement":{"code":"45","nom":"Loiret"},"region":{"code":"24","nom":"Centre-Val de Loire"}},{"nom":"Desmonts","code":"45124","codesPostaux":["45390"],"centre":{"type":"Point","coordinates":[2.4986,48.2249]},"surface":475.92,"population":171,"departement":{"code":"45","nom":"Loiret"},"region":{"code":"24","nom":"Centre-Val de Loire"}},{"nom":"Dimancheville","code":"45125","codesPostaux":["45390"],"centre":{"type":"Point","coordinates":[2.4248,48.2393]},"surface":235.51,"population":107,"departement":{"code":"45","nom":"Loiret"},"region":{"code":"24","nom":"Centre-Val de Loire"}},{"nom":"Donnery","code":"45126","codesPostaux":["45450"],"centre":{"type":"Point","coordinates":[2.11,47.9144]},"surface":2170.83,"population":2833,"departement":{"code":"45","nom":"Loiret"},"region":{"code":"24","nom":"Centre-Val de Loire"}},{"nom":"Dordives","code":"45127","codesPostaux":["45680"],"centre":{"type":"Point","coordinates":[2.7741,48.1435]},"surface":1516.04,"population":3257,"departement":{"code":"45","nom":"Loiret"},"region":{"code":"24","nom":"Centre-Val de Loire"}},{"nom":"Douchy-Montcorbon","code":"45129","codesPostaux":["45220"],"centre":{"type":"Point","coordinates":[3.0713,47.9518]},"surface":5012.02,"population":1362,"departement":{"code":"45","nom":"Loiret"},"region":{"code":"24","nom":"Centre-Val de Loire"}},{"nom":"Dry","code":"45130","codesPostaux":["45370"],"centre":{"type":"Point","coordinates":[1.7266,47.7922]},"surface":2305.66,"population":1414,"departement":{"code":"45","nom":"Loiret"},"region":{"code":"24","nom":"Centre-Val de Loire"}},{"nom":"Échilleuses","code":"45131","codesPostaux":["45390"],"centre":{"type":"Point","coordinates":[2.4444,48.1702]},"surface":1250.3,"population":387,"departement":{"code":"45","nom":"Loiret"},"region":{"code":"24","nom":"Centre-Val de Loire"}},{"nom":"Égry","code":"45132","codesPostaux":["45340"],"centre":{"type":"Point","coordinates":[2.4403,48.1015]},"surface":737.92,"population":356,"departement":{"code":"45","nom":"Loiret"},"region":{"code":"24","nom":"Centre-Val de Loire"}},{"nom":"Engenville","code":"45133","codesPostaux":["45300"],"centre":{"type":"Point","coordinates":[2.237,48.2369]},"surface":1811.03,"population":539,"departement":{"code":"45","nom":"Loiret"},"region":{"code":"24","nom":"Centre-Val de Loire"}},{"nom":"Épieds-en-Beauce","code":"45134","codesPostaux":["45130"],"centre":{"type":"Point","coordinates":[1.6066,47.9633]},"surface":4019.03,"population":1446,"departement":{"code":"45","nom":"Loiret"},"region":{"code":"24","nom":"Centre-Val de Loire"}},{"nom":"Erceville","code":"45135","codesPostaux":["45480"],"centre":{"type":"Point","coordinates":[2.0289,48.2447]},"surface":1274.74,"population":293,"departement":{"code":"45","nom":"Loiret"},"region":{"code":"24","nom":"Centre-Val de Loire"}},{"nom":"Ervauville","code":"45136","codesPostaux":["45320"],"centre":{"type":"Point","coordinates":[2.9842,48.0931]},"surface":1256.8,"population":564,"departement":{"code":"45","nom":"Loiret"},"region":{"code":"24","nom":"Centre-Val de Loire"}},{"nom":"Escrennes","code":"45137","codesPostaux":["45300"],"centre":{"type":"Point","coordinates":[2.184,48.1364]},"surface":1148.23,"population":711,"departement":{"code":"45","nom":"Loiret"},"region":{"code":"24","nom":"Centre-Val de Loire"}},{"nom":"Escrignelles","code":"45138","codesPostaux":["45250"],"centre":{"type":"Point","coordinates":[2.8217,47.7111]},"surface":1402.51,"population":57,"departement":{"code":"45","nom":"Loiret"},"region":{"code":"24","nom":"Centre-Val de Loire"}},{"nom":"Estouy","code":"45139","codesPostaux":["45300"],"centre":{"type":"Point","coordinates":[2.3238,48.1912]},"surface":1870,"population":512,"departement":{"code":"45","nom":"Loiret"},"region":{"code":"24","nom":"Centre-Val de Loire"}},{"nom":"Faverelles","code":"45141","codesPostaux":["45420"],"centre":{"type":"Point","coordinates":[2.9439,47.5929]},"surface":1914.32,"population":175,"departement":{"code":"45","nom":"Loiret"},"region":{"code":"24","nom":"Centre-Val de Loire"}},{"nom":"Fay-aux-Loges","code":"45142","codesPostaux":["45450"],"centre":{"type":"Point","coordinates":[2.1589,47.9315]},"surface":2641.69,"population":3846,"departement":{"code":"45","nom":"Loiret"},"region":{"code":"24","nom":"Centre-Val de Loire"}},{"nom":"Feins-en-Gâtinais","code":"45143","codesPostaux":["45230"],"centre":{"type":"Point","coordinates":[2.8348,47.7495]},"surface":1186.44,"population":30,"departement":{"code":"45","nom":"Loiret"},"region":{"code":"24","nom":"Centre-Val de Loire"}},{"nom":"Férolles","code":"45144","codesPostaux":["45150"],"centre":{"type":"Point","coordinates":[2.1243,47.825]},"surface":1709.76,"population":1134,"departement":{"code":"45","nom":"Loiret"},"region":{"code":"24","nom":"Centre-Val de Loire"}},{"nom":"Ferrières-en-Gâtinais","code":"45145","codesPostaux":["45210"],"centre":{"type":"Point","coordinates":[2.8122,48.0992]},"surface":2740.88,"population":3794,"departement":{"code":"45","nom":"Loiret"},"region":{"code":"24","nom":"Centre-Val de Loire"}},{"nom":"La Ferté-Saint-Aubin","code":"45146","codesPostaux":["45240"],"centre":{"type":"Point","coordinates":[1.9129,47.7122]},"surface":8631.43,"population":7317,"departement":{"code":"45","nom":"Loiret"},"region":{"code":"24","nom":"Centre-Val de Loire"}},{"nom":"Fleury-les-Aubrais","code":"45147","codesPostaux":["45400"],"centre":{"type":"Point","coordinates":[1.9223,47.9449]},"surface":1011.46,"population":21664,"departement":{"code":"45","nom":"Loiret"},"region":{"code":"24","nom":"Centre-Val de Loire"}},{"nom":"Fontenay-sur-Loing","code":"45148","codesPostaux":["45210"],"centre":{"type":"Point","coordinates":[2.769,48.0863]},"surface":966.85,"population":1677,"departement":{"code":"45","nom":"Loiret"},"region":{"code":"24","nom":"Centre-Val de Loire"}},{"nom":"Foucherolles","code":"45149","codesPostaux":["45320"],"centre":{"type":"Point","coordinates":[3.0191,48.0935]},"surface":983.5,"population":303,"departement":{"code":"45","nom":"Loiret"},"region":{"code":"24","nom":"Centre-Val de Loire"}},{"nom":"Fréville-du-Gâtinais","code":"45150","codesPostaux":["45270"],"centre":{"type":"Point","coordinates":[2.4457,48.0215]},"surface":1002.06,"population":178,"departement":{"code":"45","nom":"Loiret"},"region":{"code":"24","nom":"Centre-Val de Loire"}},{"nom":"Gaubertin","code":"45151","codesPostaux":["45340"],"centre":{"type":"Point","coordinates":[2.4283,48.1256]},"surface":728.43,"population":251,"departement":{"code":"45","nom":"Loiret"},"region":{"code":"24","nom":"Centre-Val de Loire"}},{"nom":"Gémigny","code":"45152","codesPostaux":["45310"],"centre":{"type":"Point","coordinates":[1.7036,47.9631]},"surface":1446.8,"population":218,"departement":{"code":"45","nom":"Loiret"},"region":{"code":"24","nom":"Centre-Val de Loire"}},{"nom":"Germigny-des-Prés","code":"45153","codesPostaux":["45110"],"centre":{"type":"Point","coordinates":[2.2709,47.8406]},"surface":1002.18,"population":700,"departement":{"code":"45","nom":"Loiret"},"region":{"code":"24","nom":"Centre-Val de Loire"}},{"nom":"Gidy","code":"45154","codesPostaux":["45520"],"centre":{"type":"Point","coordinates":[1.8326,47.991]},"surface":2352.71,"population":2015,"departement":{"code":"45","nom":"Loiret"},"region":{"code":"24","nom":"Centre-Val de Loire"}},{"nom":"Gien","code":"45155","codesPostaux":["45500"],"centre":{"type":"Point","coordinates":[2.6687,47.7175]},"surface":6776.23,"population":13431,"departement":{"code":"45","nom":"Loiret"},"region":{"code":"24","nom":"Centre-Val de Loire"}},{"nom":"Girolles","code":"45156","codesPostaux":["45120"],"centre":{"type":"Point","coordinates":[2.7217,48.0705]},"surface":1385.72,"population":599,"departement":{"code":"45","nom":"Loiret"},"region":{"code":"24","nom":"Centre-Val de Loire"}},{"nom":"Givraines","code":"45157","codesPostaux":["45300"],"centre":{"type":"Point","coordinates":[2.3851,48.151]},"surface":1125.36,"population":420,"departement":{"code":"45","nom":"Loiret"},"region":{"code":"24","nom":"Centre-Val de Loire"}},{"nom":"Gondreville","code":"45158","codesPostaux":["45490"],"centre":{"type":"Point","coordinates":[2.6492,48.0516]},"surface":807.87,"population":329,"departement":{"code":"45","nom":"Loiret"},"region":{"code":"24","nom":"Centre-Val de Loire"}},{"nom":"Grangermont","code":"45159","codesPostaux":["45390"],"centre":{"type":"Point","coordinates":[2.4279,48.1878]},"surface":394.81,"population":177,"departement":{"code":"45","nom":"Loiret"},"region":{"code":"24","nom":"Centre-Val de Loire"}},{"nom":"Greneville-en-Beauce","code":"45160","codesPostaux":["45480"],"centre":{"type":"Point","coordinates":[2.1155,48.1936]},"surface":2256.35,"population":672,"departement":{"code":"45","nom":"Loiret"},"region":{"code":"24","nom":"Centre-Val de Loire"}},{"nom":"Griselles","code":"45161","codesPostaux":["45210"],"centre":{"type":"Point","coordinates":[2.8364,48.0755]},"surface":3014.85,"population":818,"departement":{"code":"45","nom":"Loiret"},"region":{"code":"24","nom":"Centre-Val de Loire"}},{"nom":"Guigneville","code":"45162","codesPostaux":["45300"],"centre":{"type":"Point","coordinates":[2.1769,48.2182]},"surface":3207.65,"population":541,"departement":{"code":"45","nom":"Loiret"},"region":{"code":"24","nom":"Centre-Val de Loire"}},{"nom":"Guilly","code":"45164","codesPostaux":["45600"],"centre":{"type":"Point","coordinates":[2.2679,47.7986]},"surface":1702.65,"population":667,"departement":{"code":"45","nom":"Loiret"},"region":{"code":"24","nom":"Centre-Val de Loire"}},{"nom":"Gy-les-Nonains","code":"45165","codesPostaux":["45220"],"centre":{"type":"Point","coordinates":[2.8458,47.9265]},"surface":2017.91,"population":603,"departement":{"code":"45","nom":"Loiret"},"region":{"code":"24","nom":"Centre-Val de Loire"}},{"nom":"Huêtre","code":"45166","codesPostaux":["45520"],"centre":{"type":"Point","coordinates":[1.8031,48.0272]},"surface":1318.51,"population":282,"departement":{"code":"45","nom":"Loiret"},"region":{"code":"24","nom":"Centre-Val de Loire"}},{"nom":"Huisseau-sur-Mauves","code":"45167","codesPostaux":["45130"],"centre":{"type":"Point","coordinates":[1.7,47.8931]},"surface":3713.24,"population":1754,"departement":{"code":"45","nom":"Loiret"},"region":{"code":"24","nom":"Centre-Val de Loire"}},{"nom":"Ingrannes","code":"45168","codesPostaux":["45450"],"centre":{"type":"Point","coordinates":[2.2201,47.9908]},"surface":3894.49,"population":543,"departement":{"code":"45","nom":"Loiret"},"region":{"code":"24","nom":"Centre-Val de Loire"}},{"nom":"Ingré","code":"45169","codesPostaux":["45140"],"centre":{"type":"Point","coordinates":[1.8161,47.9218]},"surface":2080.22,"population":9838,"departement":{"code":"45","nom":"Loiret"},"region":{"code":"24","nom":"Centre-Val de Loire"}},{"nom":"Intville-la-Guétard","code":"45170","codesPostaux":["45300"],"centre":{"type":"Point","coordinates":[2.2177,48.2541]},"surface":488.2,"population":175,"departement":{"code":"45","nom":"Loiret"},"region":{"code":"24","nom":"Centre-Val de Loire"}},{"nom":"Isdes","code":"45171","codesPostaux":["45620"],"centre":{"type":"Point","coordinates":[2.2583,47.6618]},"surface":4391.56,"population":531,"departement":{"code":"45","nom":"Loiret"},"region":{"code":"24","nom":"Centre-Val de Loire"}},{"nom":"Jargeau","code":"45173","codesPostaux":["45150"],"centre":{"type":"Point","coordinates":[2.1088,47.8517]},"surface":1465.54,"population":4636,"departement":{"code":"45","nom":"Loiret"},"region":{"code":"24","nom":"Centre-Val de Loire"}},{"nom":"Jouy-en-Pithiverais","code":"45174","codesPostaux":["45480"],"centre":{"type":"Point","coordinates":[2.1261,48.1508]},"surface":1589.66,"population":266,"departement":{"code":"45","nom":"Loiret"},"region":{"code":"24","nom":"Centre-Val de Loire"}},{"nom":"Jouy-le-Potier","code":"45175","codesPostaux":["45370"],"centre":{"type":"Point","coordinates":[1.8073,47.7456]},"surface":5077.09,"population":1631,"departement":{"code":"45","nom":"Loiret"},"region":{"code":"24","nom":"Centre-Val de Loire"}},{"nom":"Juranville","code":"45176","codesPostaux":["45340"],"centre":{"type":"Point","coordinates":[2.4794,48.0618]},"surface":1521.36,"population":435,"departement":{"code":"45","nom":"Loiret"},"region":{"code":"24","nom":"Centre-Val de Loire"}},{"nom":"Laas","code":"45177","codesPostaux":["45300"],"centre":{"type":"Point","coordinates":[2.2176,48.1206]},"surface":659.62,"population":241,"departement":{"code":"45","nom":"Loiret"},"region":{"code":"24","nom":"Centre-Val de Loire"}},{"nom":"Ladon","code":"45178","codesPostaux":["45270"],"centre":{"type":"Point","coordinates":[2.5327,48.0098]},"surface":1372.78,"population":1394,"departement":{"code":"45","nom":"Loiret"},"region":{"code":"24","nom":"Centre-Val de Loire"}},{"nom":"Lailly-en-Val","code":"45179","codesPostaux":["45740"],"centre":{"type":"Point","coordinates":[1.7185,47.747]},"surface":4614.31,"population":3100,"departement":{"code":"45","nom":"Loiret"},"region":{"code":"24","nom":"Centre-Val de Loire"}},{"nom":"Langesse","code":"45180","codesPostaux":["45290"],"centre":{"type":"Point","coordinates":[2.6468,47.8184]},"surface":898.73,"population":86,"departement":{"code":"45","nom":"Loiret"},"region":{"code":"24","nom":"Centre-Val de Loire"}},{"nom":"Léouville","code":"45181","codesPostaux":["45480"],"centre":{"type":"Point","coordinates":[2.0877,48.2238]},"surface":429.5,"population":88,"departement":{"code":"45","nom":"Loiret"},"region":{"code":"24","nom":"Centre-Val de Loire"}},{"nom":"Ligny-le-Ribault","code":"45182","codesPostaux":["45240"],"centre":{"type":"Point","coordinates":[1.7869,47.6803]},"surface":5903.88,"population":1255,"departement":{"code":"45","nom":"Loiret"},"region":{"code":"24","nom":"Centre-Val de Loire"}},{"nom":"Lion-en-Beauce","code":"45183","codesPostaux":["45410"],"centre":{"type":"Point","coordinates":[1.933,48.1326]},"surface":702.18,"population":122,"departement":{"code":"45","nom":"Loiret"},"region":{"code":"24","nom":"Centre-Val de Loire"}},{"nom":"Lion-en-Sullias","code":"45184","codesPostaux":["45600"],"centre":{"type":"Point","coordinates":[2.478,47.7276]},"surface":2444.03,"population":386,"departement":{"code":"45","nom":"Loiret"},"region":{"code":"24","nom":"Centre-Val de Loire"}},{"nom":"Lombreuil","code":"45185","codesPostaux":["45700"],"centre":{"type":"Point","coordinates":[2.6263,47.9415]},"surface":764.64,"population":304,"departement":{"code":"45","nom":"Loiret"},"region":{"code":"24","nom":"Centre-Val de Loire"}},{"nom":"Lorcy","code":"45186","codesPostaux":["45490"],"centre":{"type":"Point","coordinates":[2.5314,48.0459]},"surface":1717.08,"population":589,"departement":{"code":"45","nom":"Loiret"},"region":{"code":"24","nom":"Centre-Val de Loire"}},{"nom":"Lorris","code":"45187","codesPostaux":["45260"],"centre":{"type":"Point","coordinates":[2.502,47.863]},"surface":4504.1,"population":3002,"departement":{"code":"45","nom":"Loiret"},"region":{"code":"24","nom":"Centre-Val de Loire"}},{"nom":"Loury","code":"45188","codesPostaux":["45470"],"centre":{"type":"Point","coordinates":[2.0997,48.0047]},"surface":3433.87,"population":2582,"departement":{"code":"45","nom":"Loiret"},"region":{"code":"24","nom":"Centre-Val de Loire"}},{"nom":"Louzouer","code":"45189","codesPostaux":["45210"],"centre":{"type":"Point","coordinates":[2.8683,48.0344]},"surface":1127.81,"population":246,"departement":{"code":"45","nom":"Loiret"},"region":{"code":"24","nom":"Centre-Val de Loire"}},{"nom":"Le Malesherbois","code":"45191","codesPostaux":["45300","45330"],"centre":{"type":"Point","coordinates":[2.3392,48.2745]},"surface":8521.33,"population":8022,"departement":{"code":"45","nom":"Loiret"},"region":{"code":"24","nom":"Centre-Val de Loire"}},{"nom":"Marcilly-en-Villette","code":"45193","codesPostaux":["45240"],"centre":{"type":"Point","coordinates":[2.0323,47.7748]},"surface":6255.77,"population":2185,"departement":{"code":"45","nom":"Loiret"},"region":{"code":"24","nom":"Centre-Val de Loire"}},{"nom":"Mardié","code":"45194","codesPostaux":["45430"],"centre":{"type":"Point","coordinates":[2.0721,47.9028]},"surface":1728.97,"population":3083,"departement":{"code":"45","nom":"Loiret"},"region":{"code":"24","nom":"Centre-Val de Loire"}},{"nom":"Mareau-aux-Bois","code":"45195","codesPostaux":["45300"],"centre":{"type":"Point","coordinates":[2.1925,48.0968]},"surface":1158.09,"population":565,"departement":{"code":"45","nom":"Loiret"},"region":{"code":"24","nom":"Centre-Val de Loire"}},{"nom":"Mareau-aux-Prés","code":"45196","codesPostaux":["45370"],"centre":{"type":"Point","coordinates":[1.769,47.8426]},"surface":1541.87,"population":1669,"departement":{"code":"45","nom":"Loiret"},"region":{"code":"24","nom":"Centre-Val de Loire"}},{"nom":"Marigny-les-Usages","code":"45197","codesPostaux":["45760"],"centre":{"type":"Point","coordinates":[2.0152,47.9583]},"surface":963.96,"population":1861,"departement":{"code":"45","nom":"Loiret"},"region":{"code":"24","nom":"Centre-Val de Loire"}},{"nom":"Marsainvilliers","code":"45198","codesPostaux":["45300"],"centre":{"type":"Point","coordinates":[2.2737,48.2129]},"surface":1076.69,"population":313,"departement":{"code":"45","nom":"Loiret"},"region":{"code":"24","nom":"Centre-Val de Loire"}},{"nom":"Melleroy","code":"45199","codesPostaux":["45220"],"centre":{"type":"Point","coordinates":[2.9596,47.8904]},"surface":2421.59,"population":507,"departement":{"code":"45","nom":"Loiret"},"region":{"code":"24","nom":"Centre-Val de Loire"}},{"nom":"Ménestreau-en-Villette","code":"45200","codesPostaux":["45240"],"centre":{"type":"Point","coordinates":[2.0408,47.704]},"surface":5439.83,"population":1385,"departement":{"code":"45","nom":"Loiret"},"region":{"code":"24","nom":"Centre-Val de Loire"}},{"nom":"Mérinville","code":"45201","codesPostaux":["45210"],"centre":{"type":"Point","coordinates":[2.9406,48.09]},"surface":1187.33,"population":173,"departement":{"code":"45","nom":"Loiret"},"region":{"code":"24","nom":"Centre-Val de Loire"}},{"nom":"Messas","code":"45202","codesPostaux":["45190"],"centre":{"type":"Point","coordinates":[1.6353,47.8083]},"surface":529.88,"population":1029,"departement":{"code":"45","nom":"Loiret"},"region":{"code":"24","nom":"Centre-Val de Loire"}},{"nom":"Meung-sur-Loire","code":"45203","codesPostaux":["45130"],"centre":{"type":"Point","coordinates":[1.6918,47.8396]},"surface":2024.8,"population":6621,"departement":{"code":"45","nom":"Loiret"},"region":{"code":"24","nom":"Centre-Val de Loire"}},{"nom":"Mézières-lez-Cléry","code":"45204","codesPostaux":["45370"],"centre":{"type":"Point","coordinates":[1.8212,47.8115]},"surface":2707.39,"population":857,"departement":{"code":"45","nom":"Loiret"},"region":{"code":"24","nom":"Centre-Val de Loire"}},{"nom":"Mézières-en-Gâtinais","code":"45205","codesPostaux":["45270"],"centre":{"type":"Point","coordinates":[2.4795,48.023]},"surface":996.54,"population":259,"departement":{"code":"45","nom":"Loiret"},"region":{"code":"24","nom":"Centre-Val de Loire"}},{"nom":"Mignères","code":"45206","codesPostaux":["45490"],"centre":{"type":"Point","coordinates":[2.6199,48.052]},"surface":512.2,"population":314,"departement":{"code":"45","nom":"Loiret"},"region":{"code":"24","nom":"Centre-Val de Loire"}},{"nom":"Mignerette","code":"45207","codesPostaux":["45490"],"centre":{"type":"Point","coordinates":[2.6064,48.0596]},"surface":620.69,"population":357,"departement":{"code":"45","nom":"Loiret"},"region":{"code":"24","nom":"Centre-Val de Loire"}},{"nom":"Montargis","code":"45208","codesPostaux":["45200"],"centre":{"type":"Point","coordinates":[2.7388,47.9998]},"surface":445.56,"population":14819,"departement":{"code":"45","nom":"Loiret"},"region":{"code":"24","nom":"Centre-Val de Loire"}},{"nom":"Montbarrois","code":"45209","codesPostaux":["45340"],"centre":{"type":"Point","coordinates":[2.3956,48.0487]},"surface":610.02,"population":297,"departement":{"code":"45","nom":"Loiret"},"region":{"code":"24","nom":"Centre-Val de Loire"}},{"nom":"Montbouy","code":"45210","codesPostaux":["45230"],"centre":{"type":"Point","coordinates":[2.8251,47.868]},"surface":2678.52,"population":727,"departement":{"code":"45","nom":"Loiret"},"region":{"code":"24","nom":"Centre-Val de Loire"}},{"nom":"Montcresson","code":"45212","codesPostaux":["45700"],"centre":{"type":"Point","coordinates":[2.8082,47.9114]},"surface":2106.02,"population":1257,"departement":{"code":"45","nom":"Loiret"},"region":{"code":"24","nom":"Centre-Val de Loire"}},{"nom":"Montereau","code":"45213","codesPostaux":["45260"],"centre":{"type":"Point","coordinates":[2.5545,47.8342]},"surface":5019.79,"population":644,"departement":{"code":"45","nom":"Loiret"},"region":{"code":"24","nom":"Centre-Val de Loire"}},{"nom":"Montigny","code":"45214","codesPostaux":["45170"],"centre":{"type":"Point","coordinates":[2.1169,48.107]},"surface":534.66,"population":243,"departement":{"code":"45","nom":"Loiret"},"region":{"code":"24","nom":"Centre-Val de Loire"}},{"nom":"Montliard","code":"45215","codesPostaux":["45340"],"centre":{"type":"Point","coordinates":[2.4011,48.0172]},"surface":901.05,"population":230,"departement":{"code":"45","nom":"Loiret"},"region":{"code":"24","nom":"Centre-Val de Loire"}},{"nom":"Mormant-sur-Vernisson","code":"45216","codesPostaux":["45700"],"centre":{"type":"Point","coordinates":[2.7287,47.9427]},"surface":1100.82,"population":133,"departement":{"code":"45","nom":"Loiret"},"region":{"code":"24","nom":"Centre-Val de Loire"}},{"nom":"Morville-en-Beauce","code":"45217","codesPostaux":["45300"],"centre":{"type":"Point","coordinates":[2.1614,48.2567]},"surface":1102.6,"population":175,"departement":{"code":"45","nom":"Loiret"},"region":{"code":"24","nom":"Centre-Val de Loire"}},{"nom":"Le Moulinet-sur-Solin","code":"45218","codesPostaux":["45290"],"centre":{"type":"Point","coordinates":[2.613,47.8177]},"surface":1963.18,"population":128,"departement":{"code":"45","nom":"Loiret"},"region":{"code":"24","nom":"Centre-Val de Loire"}},{"nom":"Moulon","code":"45219","codesPostaux":["45270"],"centre":{"type":"Point","coordinates":[2.5967,48.0214]},"surface":961.34,"population":183,"departement":{"code":"45","nom":"Loiret"},"region":{"code":"24","nom":"Centre-Val de Loire"}},{"nom":"Nancray-sur-Rimarde","code":"45220","codesPostaux":["45340"],"centre":{"type":"Point","coordinates":[2.3239,48.0661]},"surface":1158.2,"population":571,"departement":{"code":"45","nom":"Loiret"},"region":{"code":"24","nom":"Centre-Val de Loire"}},{"nom":"Nargis","code":"45222","codesPostaux":["45210"],"centre":{"type":"Point","coordinates":[2.7397,48.1105]},"surface":2224.95,"population":1441,"departement":{"code":"45","nom":"Loiret"},"region":{"code":"24","nom":"Centre-Val de Loire"}},{"nom":"Nesploy","code":"45223","codesPostaux":["45270"],"centre":{"type":"Point","coordinates":[2.3673,47.9968]},"surface":1293.79,"population":368,"departement":{"code":"45","nom":"Loiret"},"region":{"code":"24","nom":"Centre-Val de Loire"}},{"nom":"Neuville-aux-Bois","code":"45224","codesPostaux":["45170"],"centre":{"type":"Point","coordinates":[2.0592,48.0682]},"surface":3179.74,"population":4984,"departement":{"code":"45","nom":"Loiret"},"region":{"code":"24","nom":"Centre-Val de Loire"}},{"nom":"La Neuville-sur-Essonne","code":"45225","codesPostaux":["45390"],"centre":{"type":"Point","coordinates":[2.3798,48.1805]},"surface":922.39,"population":345,"departement":{"code":"45","nom":"Loiret"},"region":{"code":"24","nom":"Centre-Val de Loire"}},{"nom":"Neuvy-en-Sullias","code":"45226","codesPostaux":["45510"],"centre":{"type":"Point","coordinates":[2.245,47.7767]},"surface":2523.9,"population":1365,"departement":{"code":"45","nom":"Loiret"},"region":{"code":"24","nom":"Centre-Val de Loire"}},{"nom":"Nevoy","code":"45227","codesPostaux":["45500"],"centre":{"type":"Point","coordinates":[2.5871,47.733]},"surface":3084.12,"population":1160,"departement":{"code":"45","nom":"Loiret"},"region":{"code":"24","nom":"Centre-Val de Loire"}},{"nom":"Nibelle","code":"45228","codesPostaux":["45340"],"centre":{"type":"Point","coordinates":[2.3121,48.0147]},"surface":2714.56,"population":1176,"departement":{"code":"45","nom":"Loiret"},"region":{"code":"24","nom":"Centre-Val de Loire"}},{"nom":"Nogent-sur-Vernisson","code":"45229","codesPostaux":["45290"],"centre":{"type":"Point","coordinates":[2.726,47.8338]},"surface":3341.55,"population":2571,"departement":{"code":"45","nom":"Loiret"},"region":{"code":"24","nom":"Centre-Val de Loire"}},{"nom":"Noyers","code":"45230","codesPostaux":["45260"],"centre":{"type":"Point","coordinates":[2.5355,47.9077]},"surface":1805.46,"population":743,"departement":{"code":"45","nom":"Loiret"},"region":{"code":"24","nom":"Centre-Val de Loire"}},{"nom":"Oison","code":"45231","codesPostaux":["45170"],"centre":{"type":"Point","coordinates":[1.9807,48.1338]},"surface":1213.49,"population":122,"departement":{"code":"45","nom":"Loiret"},"region":{"code":"24","nom":"Centre-Val de Loire"}},{"nom":"Olivet","code":"45232","codesPostaux":["45160"],"centre":{"type":"Point","coordinates":[1.8913,47.8559]},"surface":2328.21,"population":22988,"departement":{"code":"45","nom":"Loiret"},"region":{"code":"24","nom":"Centre-Val de Loire"}},{"nom":"Ondreville-sur-Essonne","code":"45233","codesPostaux":["45390"],"centre":{"type":"Point","coordinates":[2.4176,48.1985]},"surface":658.27,"population":403,"departement":{"code":"45","nom":"Loiret"},"region":{"code":"24","nom":"Centre-Val de Loire"}},{"nom":"Orléans","code":"45234","codesPostaux":["45000","45100"],"centre":{"type":"Point","coordinates":[1.9122,47.8734]},"surface":2764.07,"population":116344,"departement":{"code":"45","nom":"Loiret"},"region":{"code":"24","nom":"Centre-Val de Loire"}},{"nom":"Ormes","code":"45235","codesPostaux":["45140"],"centre":{"type":"Point","coordinates":[1.8085,47.946]},"surface":1822.43,"population":4341,"departement":{"code":"45","nom":"Loiret"},"region":{"code":"24","nom":"Centre-Val de Loire"}},{"nom":"Orville","code":"45237","codesPostaux":["45390"],"centre":{"type":"Point","coordinates":[2.4582,48.243]},"surface":720.76,"population":129,"departement":{"code":"45","nom":"Loiret"},"region":{"code":"24","nom":"Centre-Val de Loire"}},{"nom":"Ousson-sur-Loire","code":"45238","codesPostaux":["45250"],"centre":{"type":"Point","coordinates":[2.7943,47.6036]},"surface":543.16,"population":702,"departement":{"code":"45","nom":"Loiret"},"region":{"code":"24","nom":"Centre-Val de Loire"}},{"nom":"Oussoy-en-Gâtinais","code":"45239","codesPostaux":["45290"],"centre":{"type":"Point","coordinates":[2.6396,47.9002]},"surface":2327.86,"population":423,"departement":{"code":"45","nom":"Loiret"},"region":{"code":"24","nom":"Centre-Val de Loire"}},{"nom":"Outarville","code":"45240","codesPostaux":["45480"],"centre":{"type":"Point","coordinates":[2.0215,48.2151]},"surface":4668.05,"population":1343,"departement":{"code":"45","nom":"Loiret"},"region":{"code":"24","nom":"Centre-Val de Loire"}},{"nom":"Ouvrouer-les-Champs","code":"45241","codesPostaux":["45150"],"centre":{"type":"Point","coordinates":[2.1799,47.8367]},"surface":1054.41,"population":539,"departement":{"code":"45","nom":"Loiret"},"region":{"code":"24","nom":"Centre-Val de Loire"}},{"nom":"Ouzouer-des-Champs","code":"45242","codesPostaux":["45290"],"centre":{"type":"Point","coordinates":[2.7048,47.8771]},"surface":1140.96,"population":279,"departement":{"code":"45","nom":"Loiret"},"region":{"code":"24","nom":"Centre-Val de Loire"}},{"nom":"Ouzouer-sous-Bellegarde","code":"45243","codesPostaux":["45270"],"centre":{"type":"Point","coordinates":[2.4814,47.9893]},"surface":1156.02,"population":314,"departement":{"code":"45","nom":"Loiret"},"region":{"code":"24","nom":"Centre-Val de Loire"}},{"nom":"Ouzouer-sur-Loire","code":"45244","codesPostaux":["45570"],"centre":{"type":"Point","coordinates":[2.47,47.7862]},"surface":3576.11,"population":2560,"departement":{"code":"45","nom":"Loiret"},"region":{"code":"24","nom":"Centre-Val de Loire"}},{"nom":"Ouzouer-sur-Trézée","code":"45245","codesPostaux":["45250"],"centre":{"type":"Point","coordinates":[2.8138,47.6708]},"surface":6266.01,"population":1124,"departement":{"code":"45","nom":"Loiret"},"region":{"code":"24","nom":"Centre-Val de Loire"}},{"nom":"Pannecières","code":"45246","codesPostaux":["45300"],"centre":{"type":"Point","coordinates":[2.1388,48.296]},"surface":702.86,"population":116,"departement":{"code":"45","nom":"Loiret"},"region":{"code":"24","nom":"Centre-Val de Loire"}},{"nom":"Pannes","code":"45247","codesPostaux":["45700"],"centre":{"type":"Point","coordinates":[2.6708,48.0119]},"surface":2081.8,"population":3719,"departement":{"code":"45","nom":"Loiret"},"region":{"code":"24","nom":"Centre-Val de Loire"}},{"nom":"Patay","code":"45248","codesPostaux":["45310"],"centre":{"type":"Point","coordinates":[1.6936,48.0513]},"surface":1398.69,"population":2341,"departement":{"code":"45","nom":"Loiret"},"region":{"code":"24","nom":"Centre-Val de Loire"}},{"nom":"Paucourt","code":"45249","codesPostaux":["45200"],"centre":{"type":"Point","coordinates":[2.7888,48.0423]},"surface":2071.2,"population":920,"departement":{"code":"45","nom":"Loiret"},"region":{"code":"24","nom":"Centre-Val de Loire"}},{"nom":"Pers-en-Gâtinais","code":"45250","codesPostaux":["45210"],"centre":{"type":"Point","coordinates":[2.9026,48.116]},"surface":1070.48,"population":241,"departement":{"code":"45","nom":"Loiret"},"region":{"code":"24","nom":"Centre-Val de Loire"}},{"nom":"Pierrefitte-ès-Bois","code":"45251","codesPostaux":["45360"],"centre":{"type":"Point","coordinates":[2.6922,47.5121]},"surface":2769.86,"population":286,"departement":{"code":"45","nom":"Loiret"},"region":{"code":"24","nom":"Centre-Val de Loire"}},{"nom":"Pithiviers","code":"45252","codesPostaux":["45300"],"centre":{"type":"Point","coordinates":[2.2501,48.1805]},"surface":686.37,"population":8981,"departement":{"code":"45","nom":"Loiret"},"region":{"code":"24","nom":"Centre-Val de Loire"}},{"nom":"Pithiviers-le-Vieil","code":"45253","codesPostaux":["45300"],"centre":{"type":"Point","coordinates":[2.2038,48.1732]},"surface":3369.46,"population":1729,"departement":{"code":"45","nom":"Loiret"},"region":{"code":"24","nom":"Centre-Val de Loire"}},{"nom":"Poilly-lez-Gien","code":"45254","codesPostaux":["45500"],"centre":{"type":"Point","coordinates":[2.5906,47.6591]},"surface":3328.24,"population":2464,"departement":{"code":"45","nom":"Loiret"},"region":{"code":"24","nom":"Centre-Val de Loire"}},{"nom":"Préfontaines","code":"45255","codesPostaux":["45490"],"centre":{"type":"Point","coordinates":[2.6889,48.1063]},"surface":1168.02,"population":429,"departement":{"code":"45","nom":"Loiret"},"region":{"code":"24","nom":"Centre-Val de Loire"}},{"nom":"Presnoy","code":"45256","codesPostaux":["45260"],"centre":{"type":"Point","coordinates":[2.5592,47.9574]},"surface":785.55,"population":256,"departement":{"code":"45","nom":"Loiret"},"region":{"code":"24","nom":"Centre-Val de Loire"}},{"nom":"Pressigny-les-Pins","code":"45257","codesPostaux":["45290"],"centre":{"type":"Point","coordinates":[2.7656,47.8789]},"surface":1192.74,"population":530,"departement":{"code":"45","nom":"Loiret"},"region":{"code":"24","nom":"Centre-Val de Loire"}},{"nom":"Puiseaux","code":"45258","codesPostaux":["45390"],"centre":{"type":"Point","coordinates":[2.4679,48.2084]},"surface":2028.67,"population":3336,"departement":{"code":"45","nom":"Loiret"},"region":{"code":"24","nom":"Centre-Val de Loire"}},{"nom":"Quiers-sur-Bezonde","code":"45259","codesPostaux":["45270"],"centre":{"type":"Point","coordinates":[2.4223,47.9863]},"surface":1659.81,"population":1165,"departement":{"code":"45","nom":"Loiret"},"region":{"code":"24","nom":"Centre-Val de Loire"}},{"nom":"Ramoulu","code":"45260","codesPostaux":["45300"],"centre":{"type":"Point","coordinates":[2.3043,48.2306]},"surface":1202.18,"population":246,"departement":{"code":"45","nom":"Loiret"},"region":{"code":"24","nom":"Centre-Val de Loire"}},{"nom":"Rebréchien","code":"45261","codesPostaux":["45470"],"centre":{"type":"Point","coordinates":[2.023,47.9932]},"surface":1936.45,"population":1396,"departement":{"code":"45","nom":"Loiret"},"region":{"code":"24","nom":"Centre-Val de Loire"}},{"nom":"Rouvray-Sainte-Croix","code":"45262","codesPostaux":["45310"],"centre":{"type":"Point","coordinates":[1.7391,48.0544]},"surface":956.97,"population":136,"departement":{"code":"45","nom":"Loiret"},"region":{"code":"24","nom":"Centre-Val de Loire"}},{"nom":"Rouvres-Saint-Jean","code":"45263","codesPostaux":["45300"],"centre":{"type":"Point","coordinates":[2.214,48.327]},"surface":1012.97,"population":299,"departement":{"code":"45","nom":"Loiret"},"region":{"code":"24","nom":"Centre-Val de Loire"}},{"nom":"Rozières-en-Beauce","code":"45264","codesPostaux":["45130"],"centre":{"type":"Point","coordinates":[1.7085,47.9376]},"surface":916.54,"population":181,"departement":{"code":"45","nom":"Loiret"},"region":{"code":"24","nom":"Centre-Val de Loire"}},{"nom":"Rozoy-le-Vieil","code":"45265","codesPostaux":["45210"],"centre":{"type":"Point","coordinates":[2.9552,48.1184]},"surface":822.33,"population":398,"departement":{"code":"45","nom":"Loiret"},"region":{"code":"24","nom":"Centre-Val de Loire"}},{"nom":"Ruan","code":"45266","codesPostaux":["45410"],"centre":{"type":"Point","coordinates":[1.9277,48.1088]},"surface":1637.52,"population":205,"departement":{"code":"45","nom":"Loiret"},"region":{"code":"24","nom":"Centre-Val de Loire"}},{"nom":"Saint-Aignan-le-Jaillard","code":"45268","codesPostaux":["45600"],"centre":{"type":"Point","coordinates":[2.426,47.7312]},"surface":2403.69,"population":602,"departement":{"code":"45","nom":"Loiret"},"region":{"code":"24","nom":"Centre-Val de Loire"}},{"nom":"Saint-Ay","code":"45269","codesPostaux":["45130"],"centre":{"type":"Point","coordinates":[1.7495,47.8663]},"surface":1031.21,"population":3691,"departement":{"code":"45","nom":"Loiret"},"region":{"code":"24","nom":"Centre-Val de Loire"}},{"nom":"Saint-Benoît-sur-Loire","code":"45270","codesPostaux":["45730"],"centre":{"type":"Point","coordinates":[2.3195,47.81]},"surface":2045.94,"population":1993,"departement":{"code":"45","nom":"Loiret"},"region":{"code":"24","nom":"Centre-Val de Loire"}},{"nom":"Saint-Brisson-sur-Loire","code":"45271","codesPostaux":["45500"],"centre":{"type":"Point","coordinates":[2.6759,47.6306]},"surface":2207.49,"population":961,"departement":{"code":"45","nom":"Loiret"},"region":{"code":"24","nom":"Centre-Val de Loire"}},{"nom":"Saint-Cyr-en-Val","code":"45272","codesPostaux":["45590"],"centre":{"type":"Point","coordinates":[1.9551,47.814]},"surface":4439.23,"population":3430,"departement":{"code":"45","nom":"Loiret"},"region":{"code":"24","nom":"Centre-Val de Loire"}},{"nom":"Saint-Denis-de-l'Hôtel","code":"45273","codesPostaux":["45550"],"centre":{"type":"Point","coordinates":[2.1496,47.8839]},"surface":2542.39,"population":3057,"departement":{"code":"45","nom":"Loiret"},"region":{"code":"24","nom":"Centre-Val de Loire"}},{"nom":"Saint-Denis-en-Val","code":"45274","codesPostaux":["45560"],"centre":{"type":"Point","coordinates":[1.9714,47.8791]},"surface":1734.56,"population":7768,"departement":{"code":"45","nom":"Loiret"},"region":{"code":"24","nom":"Centre-Val de Loire"}},{"nom":"Saint-Firmin-des-Bois","code":"45275","codesPostaux":["45220"],"centre":{"type":"Point","coordinates":[2.9161,47.967]},"surface":1906.92,"population":498,"departement":{"code":"45","nom":"Loiret"},"region":{"code":"24","nom":"Centre-Val de Loire"}},{"nom":"Saint-Firmin-sur-Loire","code":"45276","codesPostaux":["45360"],"centre":{"type":"Point","coordinates":[2.6964,47.608]},"surface":2520.42,"population":509,"departement":{"code":"45","nom":"Loiret"},"region":{"code":"24","nom":"Centre-Val de Loire"}},{"nom":"Saint-Florent","code":"45277","codesPostaux":["45600"],"centre":{"type":"Point","coordinates":[2.458,47.6865]},"surface":3766.36,"population":445,"departement":{"code":"45","nom":"Loiret"},"region":{"code":"24","nom":"Centre-Val de Loire"}},{"nom":"Sainte-Geneviève-des-Bois","code":"45278","codesPostaux":["45230"],"centre":{"type":"Point","coordinates":[2.7932,47.8105]},"surface":4078.42,"population":1062,"departement":{"code":"45","nom":"Loiret"},"region":{"code":"24","nom":"Centre-Val de Loire"}},{"nom":"Saint-Germain-des-Prés","code":"45279","codesPostaux":["45220"],"centre":{"type":"Point","coordinates":[2.8421,47.9652]},"surface":2639.26,"population":1864,"departement":{"code":"45","nom":"Loiret"},"region":{"code":"24","nom":"Centre-Val de Loire"}},{"nom":"Saint-Gondon","code":"45280","codesPostaux":["45500"],"centre":{"type":"Point","coordinates":[2.5389,47.6912]},"surface":2424.08,"population":1046,"departement":{"code":"45","nom":"Loiret"},"region":{"code":"24","nom":"Centre-Val de Loire"}},{"nom":"Saint-Hilaire-les-Andrésis","code":"45281","codesPostaux":["45320"],"centre":{"type":"Point","coordinates":[3.0174,48.0527]},"surface":2574.13,"population":953,"departement":{"code":"45","nom":"Loiret"},"region":{"code":"24","nom":"Centre-Val de Loire"}},{"nom":"Saint-Hilaire-Saint-Mesmin","code":"45282","codesPostaux":["45160"],"centre":{"type":"Point","coordinates":[1.8313,47.8497]},"surface":1411.73,"population":3156,"departement":{"code":"45","nom":"Loiret"},"region":{"code":"24","nom":"Centre-Val de Loire"}},{"nom":"Saint-Hilaire-sur-Puiseaux","code":"45283","codesPostaux":["45700"],"centre":{"type":"Point","coordinates":[2.698,47.9076]},"surface":1139.38,"population":154,"departement":{"code":"45","nom":"Loiret"},"region":{"code":"24","nom":"Centre-Val de Loire"}},{"nom":"Saint-Jean-de-Braye","code":"45284","codesPostaux":["45800"],"centre":{"type":"Point","coordinates":[1.9695,47.9216]},"surface":1369.32,"population":22088,"departement":{"code":"45","nom":"Loiret"},"region":{"code":"24","nom":"Centre-Val de Loire"}},{"nom":"Saint-Jean-de-la-Ruelle","code":"45285","codesPostaux":["45140"],"centre":{"type":"Point","coordinates":[1.872,47.9101]},"surface":609.06,"population":16608,"departement":{"code":"45","nom":"Loiret"},"region":{"code":"24","nom":"Centre-Val de Loire"}},{"nom":"Saint-Jean-le-Blanc","code":"45286","codesPostaux":["45650"],"centre":{"type":"Point","coordinates":[1.9345,47.8825]},"surface":765.1,"population":9534,"departement":{"code":"45","nom":"Loiret"},"region":{"code":"24","nom":"Centre-Val de Loire"}},{"nom":"Saint-Loup-des-Vignes","code":"45288","codesPostaux":["45340"],"centre":{"type":"Point","coordinates":[2.4251,48.0421]},"surface":928.12,"population":391,"departement":{"code":"45","nom":"Loiret"},"region":{"code":"24","nom":"Centre-Val de Loire"}},{"nom":"Saint-Lyé-la-Forêt","code":"45289","codesPostaux":["45170"],"centre":{"type":"Point","coordinates":[1.9712,48.0343]},"surface":2733.86,"population":1235,"departement":{"code":"45","nom":"Loiret"},"region":{"code":"24","nom":"Centre-Val de Loire"}},{"nom":"Saint-Martin-d'Abbat","code":"45290","codesPostaux":["45110"],"centre":{"type":"Point","coordinates":[2.3097,47.8792]},"surface":3887.66,"population":1825,"departement":{"code":"45","nom":"Loiret"},"region":{"code":"24","nom":"Centre-Val de Loire"}},{"nom":"Saint-Martin-sur-Ocre","code":"45291","codesPostaux":["45500"],"centre":{"type":"Point","coordinates":[2.6477,47.6461]},"surface":1578.31,"population":1225,"departement":{"code":"45","nom":"Loiret"},"region":{"code":"24","nom":"Centre-Val de Loire"}},{"nom":"Saint-Maurice-sur-Aveyron","code":"45292","codesPostaux":["45230"],"centre":{"type":"Point","coordinates":[2.9548,47.8406]},"surface":5464.41,"population":842,"departement":{"code":"45","nom":"Loiret"},"region":{"code":"24","nom":"Centre-Val de Loire"}},{"nom":"Saint-Maurice-sur-Fessard","code":"45293","codesPostaux":["45700"],"centre":{"type":"Point","coordinates":[2.6157,47.9913]},"surface":1536.28,"population":1144,"departement":{"code":"45","nom":"Loiret"},"region":{"code":"24","nom":"Centre-Val de Loire"}},{"nom":"Saint-Michel","code":"45294","codesPostaux":["45340"],"centre":{"type":"Point","coordinates":[2.3693,48.0625]},"surface":513.4,"population":149,"departement":{"code":"45","nom":"Loiret"},"region":{"code":"24","nom":"Centre-Val de Loire"}},{"nom":"Saint-Péravy-la-Colombe","code":"45296","codesPostaux":["45310"],"centre":{"type":"Point","coordinates":[1.6937,48.0027]},"surface":1931.77,"population":768,"departement":{"code":"45","nom":"Loiret"},"region":{"code":"24","nom":"Centre-Val de Loire"}},{"nom":"Saint-Père-sur-Loire","code":"45297","codesPostaux":["45600"],"centre":{"type":"Point","coordinates":[2.379,47.7839]},"surface":1073.02,"population":1030,"departement":{"code":"45","nom":"Loiret"},"region":{"code":"24","nom":"Centre-Val de Loire"}},{"nom":"Saint-Pryvé-Saint-Mesmin","code":"45298","codesPostaux":["45750"],"centre":{"type":"Point","coordinates":[1.8448,47.8796]},"surface":897.76,"population":6200,"departement":{"code":"45","nom":"Loiret"},"region":{"code":"24","nom":"Centre-Val de Loire"}},{"nom":"Saint-Sigismond","code":"45299","codesPostaux":["45310"],"centre":{"type":"Point","coordinates":[1.6683,47.9834]},"surface":1456.74,"population":270,"departement":{"code":"45","nom":"Loiret"},"region":{"code":"24","nom":"Centre-Val de Loire"}},{"nom":"Sandillon","code":"45300","codesPostaux":["45640"],"centre":{"type":"Point","coordinates":[2.0304,47.8371]},"surface":4294.16,"population":4209,"departement":{"code":"45","nom":"Loiret"},"region":{"code":"24","nom":"Centre-Val de Loire"}},{"nom":"Santeau","code":"45301","codesPostaux":["45170"],"centre":{"type":"Point","coordinates":[2.1491,48.095]},"surface":868.73,"population":393,"departement":{"code":"45","nom":"Loiret"},"region":{"code":"24","nom":"Centre-Val de Loire"}},{"nom":"Saran","code":"45302","codesPostaux":["45770"],"centre":{"type":"Point","coordinates":[1.8806,47.9479]},"surface":2030.87,"population":16866,"departement":{"code":"45","nom":"Loiret"},"region":{"code":"24","nom":"Centre-Val de Loire"}},{"nom":"Sceaux-du-Gâtinais","code":"45303","codesPostaux":["45490"],"centre":{"type":"Point","coordinates":[2.592,48.1126]},"surface":3171.82,"population":613,"departement":{"code":"45","nom":"Loiret"},"region":{"code":"24","nom":"Centre-Val de Loire"}},{"nom":"Seichebrières","code":"45305","codesPostaux":["45530"],"centre":{"type":"Point","coordinates":[2.2749,47.9854]},"surface":1485.99,"population":220,"departement":{"code":"45","nom":"Loiret"},"region":{"code":"24","nom":"Centre-Val de Loire"}},{"nom":"La Selle-en-Hermoy","code":"45306","codesPostaux":["45210"],"centre":{"type":"Point","coordinates":[2.8843,48.0065]},"surface":1962.36,"population":778,"departement":{"code":"45","nom":"Loiret"},"region":{"code":"24","nom":"Centre-Val de Loire"}},{"nom":"La Selle-sur-le-Bied","code":"45307","codesPostaux":["45210"],"centre":{"type":"Point","coordinates":[2.9028,48.0778]},"surface":3015.71,"population":1131,"departement":{"code":"45","nom":"Loiret"},"region":{"code":"24","nom":"Centre-Val de Loire"}},{"nom":"Semoy","code":"45308","codesPostaux":["45400"],"centre":{"type":"Point","coordinates":[1.9652,47.9363]},"surface":774.34,"population":3204,"departement":{"code":"45","nom":"Loiret"},"region":{"code":"24","nom":"Centre-Val de Loire"}},{"nom":"Sennely","code":"45309","codesPostaux":["45240"],"centre":{"type":"Point","coordinates":[2.1379,47.7066]},"surface":4999.57,"population":680,"departement":{"code":"45","nom":"Loiret"},"region":{"code":"24","nom":"Centre-Val de Loire"}},{"nom":"Sermaises","code":"45310","codesPostaux":["45300"],"centre":{"type":"Point","coordinates":[2.2055,48.2956]},"surface":2125.11,"population":1703,"departement":{"code":"45","nom":"Loiret"},"region":{"code":"24","nom":"Centre-Val de Loire"}},{"nom":"Sigloy","code":"45311","codesPostaux":["45110"],"centre":{"type":"Point","coordinates":[2.2231,47.8391]},"surface":1071.48,"population":660,"departement":{"code":"45","nom":"Loiret"},"region":{"code":"24","nom":"Centre-Val de Loire"}},{"nom":"Solterre","code":"45312","codesPostaux":["45700"],"centre":{"type":"Point","coordinates":[2.736,47.9101]},"surface":981.95,"population":476,"departement":{"code":"45","nom":"Loiret"},"region":{"code":"24","nom":"Centre-Val de Loire"}},{"nom":"Sougy","code":"45313","codesPostaux":["45410"],"centre":{"type":"Point","coordinates":[1.7974,48.0611]},"surface":2823.25,"population":835,"departement":{"code":"45","nom":"Loiret"},"region":{"code":"24","nom":"Centre-Val de Loire"}},{"nom":"Sully-la-Chapelle","code":"45314","codesPostaux":["45450"],"centre":{"type":"Point","coordinates":[2.1756,47.9865]},"surface":2629.28,"population":453,"departement":{"code":"45","nom":"Loiret"},"region":{"code":"24","nom":"Centre-Val de Loire"}},{"nom":"Sully-sur-Loire","code":"45315","codesPostaux":["45600"],"centre":{"type":"Point","coordinates":[2.3499,47.751]},"surface":4357.44,"population":5142,"departement":{"code":"45","nom":"Loiret"},"region":{"code":"24","nom":"Centre-Val de Loire"}},{"nom":"Sury-aux-Bois","code":"45316","codesPostaux":["45530"],"centre":{"type":"Point","coordinates":[2.3604,47.9535]},"surface":3795.77,"population":775,"departement":{"code":"45","nom":"Loiret"},"region":{"code":"24","nom":"Centre-Val de Loire"}},{"nom":"Tavers","code":"45317","codesPostaux":["45190"],"centre":{"type":"Point","coordinates":[1.5882,47.7576]},"surface":2197.83,"population":1338,"departement":{"code":"45","nom":"Loiret"},"region":{"code":"24","nom":"Centre-Val de Loire"}},{"nom":"Thignonville","code":"45320","codesPostaux":["45300"],"centre":{"type":"Point","coordinates":[2.1762,48.2712]},"surface":914.38,"population":388,"departement":{"code":"45","nom":"Loiret"},"region":{"code":"24","nom":"Centre-Val de Loire"}},{"nom":"Thimory","code":"45321","codesPostaux":["45260"],"centre":{"type":"Point","coordinates":[2.5959,47.9265]},"surface":1253.39,"population":691,"departement":{"code":"45","nom":"Loiret"},"region":{"code":"24","nom":"Centre-Val de Loire"}},{"nom":"Thorailles","code":"45322","codesPostaux":["45210"],"centre":{"type":"Point","coordinates":[2.8949,48.027]},"surface":346.87,"population":197,"departement":{"code":"45","nom":"Loiret"},"region":{"code":"24","nom":"Centre-Val de Loire"}},{"nom":"Thou","code":"45323","codesPostaux":["45420"],"centre":{"type":"Point","coordinates":[2.8919,47.5843]},"surface":1511.56,"population":213,"departement":{"code":"45","nom":"Loiret"},"region":{"code":"24","nom":"Centre-Val de Loire"}},{"nom":"Tigy","code":"45324","codesPostaux":["45510"],"centre":{"type":"Point","coordinates":[2.1812,47.7796]},"surface":4706.25,"population":2463,"departement":{"code":"45","nom":"Loiret"},"region":{"code":"24","nom":"Centre-Val de Loire"}},{"nom":"Tivernon","code":"45325","codesPostaux":["45170"],"centre":{"type":"Point","coordinates":[1.9365,48.1581]},"surface":1259.44,"population":282,"departement":{"code":"45","nom":"Loiret"},"region":{"code":"24","nom":"Centre-Val de Loire"}},{"nom":"Tournoisis","code":"45326","codesPostaux":["45310"],"centre":{"type":"Point","coordinates":[1.6181,48.0027]},"surface":1520.89,"population":383,"departement":{"code":"45","nom":"Loiret"},"region":{"code":"24","nom":"Centre-Val de Loire"}},{"nom":"Traînou","code":"45327","codesPostaux":["45470"],"centre":{"type":"Point","coordinates":[2.097,47.9643]},"surface":3355.36,"population":3419,"departement":{"code":"45","nom":"Loiret"},"region":{"code":"24","nom":"Centre-Val de Loire"}},{"nom":"Treilles-en-Gâtinais","code":"45328","codesPostaux":["45490"],"centre":{"type":"Point","coordinates":[2.6604,48.0823]},"surface":1399.86,"population":294,"departement":{"code":"45","nom":"Loiret"},"region":{"code":"24","nom":"Centre-Val de Loire"}},{"nom":"Triguères","code":"45329","codesPostaux":["45220"],"centre":{"type":"Point","coordinates":[2.9949,47.9418]},"surface":3585.94,"population":1267,"departement":{"code":"45","nom":"Loiret"},"region":{"code":"24","nom":"Centre-Val de Loire"}},{"nom":"Trinay","code":"45330","codesPostaux":["45410"],"centre":{"type":"Point","coordinates":[1.9535,48.0846]},"surface":1743.71,"population":210,"departement":{"code":"45","nom":"Loiret"},"region":{"code":"24","nom":"Centre-Val de Loire"}},{"nom":"Vannes-sur-Cosson","code":"45331","codesPostaux":["45510"],"centre":{"type":"Point","coordinates":[2.2021,47.7168]},"surface":3555.99,"population":602,"departement":{"code":"45","nom":"Loiret"},"region":{"code":"24","nom":"Centre-Val de Loire"}},{"nom":"Varennes-Changy","code":"45332","codesPostaux":["45290"],"centre":{"type":"Point","coordinates":[2.6632,47.8647]},"surface":2980.55,"population":1483,"departement":{"code":"45","nom":"Loiret"},"region":{"code":"24","nom":"Centre-Val de Loire"}},{"nom":"Vennecy","code":"45333","codesPostaux":["45760"],"centre":{"type":"Point","coordinates":[2.0531,47.9543]},"surface":1071.46,"population":2045,"departement":{"code":"45","nom":"Loiret"},"region":{"code":"24","nom":"Centre-Val de Loire"}},{"nom":"Vieilles-Maisons-sur-Joudry","code":"45334","codesPostaux":["45260"],"centre":{"type":"Point","coordinates":[2.4362,47.8806]},"surface":1647.96,"population":621,"departement":{"code":"45","nom":"Loiret"},"region":{"code":"24","nom":"Centre-Val de Loire"}},{"nom":"Vienne-en-Val","code":"45335","codesPostaux":["45510"],"centre":{"type":"Point","coordinates":[2.1197,47.7775]},"surface":3579.6,"population":1965,"departement":{"code":"45","nom":"Loiret"},"region":{"code":"24","nom":"Centre-Val de Loire"}},{"nom":"Viglain","code":"45336","codesPostaux":["45600"],"centre":{"type":"Point","coordinates":[2.2885,47.7329]},"surface":3996.34,"population":854,"departement":{"code":"45","nom":"Loiret"},"region":{"code":"24","nom":"Centre-Val de Loire"}},{"nom":"Villamblain","code":"45337","codesPostaux":["45310"],"centre":{"type":"Point","coordinates":[1.5582,48.013]},"surface":2655.83,"population":279,"departement":{"code":"45","nom":"Loiret"},"region":{"code":"24","nom":"Centre-Val de Loire"}},{"nom":"Villemandeur","code":"45338","codesPostaux":["45700"],"centre":{"type":"Point","coordinates":[2.7011,47.9811]},"surface":1150.14,"population":6931,"departement":{"code":"45","nom":"Loiret"},"region":{"code":"24","nom":"Centre-Val de Loire"}},{"nom":"Villemoutiers","code":"45339","codesPostaux":["45270"],"centre":{"type":"Point","coordinates":[2.5513,47.9916]},"surface":1614.86,"population":475,"departement":{"code":"45","nom":"Loiret"},"region":{"code":"24","nom":"Centre-Val de Loire"}},{"nom":"Villemurlin","code":"45340","codesPostaux":["45600"],"centre":{"type":"Point","coordinates":[2.3444,47.6771]},"surface":4891.8,"population":537,"departement":{"code":"45","nom":"Loiret"},"region":{"code":"24","nom":"Centre-Val de Loire"}},{"nom":"Villeneuve-sur-Conie","code":"45341","codesPostaux":["45310"],"centre":{"type":"Point","coordinates":[1.647,48.0484]},"surface":1807.24,"population":192,"departement":{"code":"45","nom":"Loiret"},"region":{"code":"24","nom":"Centre-Val de Loire"}},{"nom":"Villereau","code":"45342","codesPostaux":["45170"],"centre":{"type":"Point","coordinates":[1.9952,48.0723]},"surface":908.73,"population":401,"departement":{"code":"45","nom":"Loiret"},"region":{"code":"24","nom":"Centre-Val de Loire"}},{"nom":"Villevoques","code":"45343","codesPostaux":["45700"],"centre":{"type":"Point","coordinates":[2.6259,48.0279]},"surface":504.8,"population":196,"departement":{"code":"45","nom":"Loiret"},"region":{"code":"24","nom":"Centre-Val de Loire"}},{"nom":"Villorceau","code":"45344","codesPostaux":["45190"],"centre":{"type":"Point","coordinates":[1.5921,47.8024]},"surface":952.79,"population":1076,"departement":{"code":"45","nom":"Loiret"},"region":{"code":"24","nom":"Centre-Val de Loire"}},{"nom":"Vimory","code":"45345","codesPostaux":["45700"],"centre":{"type":"Point","coordinates":[2.6806,47.9495]},"surface":2621.75,"population":1101,"departement":{"code":"45","nom":"Loiret"},"region":{"code":"24","nom":"Centre-Val de Loire"}},{"nom":"Vitry-aux-Loges","code":"45346","codesPostaux":["45530"],"centre":{"type":"Point","coordinates":[2.2546,47.9328]},"surface":4396.6,"population":2212,"departement":{"code":"45","nom":"Loiret"},"region":{"code":"24","nom":"Centre-Val de Loire"}},{"nom":"Vrigny","code":"45347","codesPostaux":["45300"],"centre":{"type":"Point","coordinates":[2.2424,48.0673]},"surface":1612.31,"population":797,"departement":{"code":"45","nom":"Loiret"},"region":{"code":"24","nom":"Centre-Val de Loire"}},{"nom":"Yèvre-la-Ville","code":"45348","codesPostaux":["45300"],"centre":{"type":"Point","coordinates":[2.326,48.1404]},"surface":2667.11,"population":666,"departement":{"code":"45","nom":"Loiret"},"region":{"code":"24","nom":"Centre-Val de Loire"}}]