[{"nom":"Abilly","code":"37001","codesPostaux":["37160"],"centre":{"type":"Point","coordinates":[0.7406,46.939]},"surface":3060.91,"population":1125,"departement":{"code":"37","nom":"Indre-et-Loire"},"region":{"code":"24","nom":"Centre-Val de Loire"}},{"nom":"Ambillou","code":"37002","codesPostaux":["37340"],"centre":{"type":"Point","coordinates":[0.4513,47.454]},"surface":4963.75,"population":1748,"departement":{"code":"37","nom":"Indre-et-Loire"},"region":{"code":"24","nom":"Centre-Val de Loire"}},{"nom":"Amboise","code":"37003","codesPostaux":["37400"],"centre":{"type":"Point","coordinates":[0.9989,47.3967]},"surface":4099.07,"population":13132,"departement":{"code":"37","nom":"Indre-et-Loire"},"region":{"code":"24","nom":"Centre-Val de Loire"}},{"nom":"Anché","code":"37004","codesPostaux":["37500"],"centre":{"type":"Point","coordinates":[0.3091,47.1298]},"surface":801.17,"population":429,"departement":{"code":"37","nom":"Indre-et-Loire"},"region":{"code":"24","nom":"Centre-Val de Loire"}},{"nom":"Antogny-le-Tillac","code":"37005","codesPostaux":["37800"],"centre":{"type":"Point","coordinates":[0.5535,46.9697]},"surface":1731.69,"population":492,"departement":{"code":"37","nom":"Indre-et-Loire"},"region":{"code":"24","nom":"Centre-Val de Loire"}},{"nom":"Artannes-sur-Indre","code":"37006","codesPostaux":["37260"],"centre":{"type":"Point","coordinates":[0.5918,47.2735]},"surface":2117.53,"population":2782,"departement":{"code":"37","nom":"Indre-et-Loire"},"region":{"code":"24","nom":"Centre-Val de Loire"}},{"nom":"Assay","code":"37007","codesPostaux":["37120"],"centre":{"type":"Point","coordinates":[0.2722,47.0644]},"surface":1467.54,"population":173,"departement":{"code":"37","nom":"Indre-et-Loire"},"region":{"code":"24","nom":"Centre-Val de Loire"}},{"nom":"Athée-sur-Cher","code":"37008","codesPostaux":["37270"],"centre":{"type":"Point","coordinates":[0.8958,47.3143]},"surface":3450.24,"population":2848,"departement":{"code":"37","nom":"Indre-et-Loire"},"region":{"code":"24","nom":"Centre-Val de Loire"}},{"nom":"Autrèche","code":"37009","codesPostaux":["37110"],"centre":{"type":"Point","coordinates":[1.0028,47.5216]},"surface":2072.69,"population":419,"departement":{"code":"37","nom":"Indre-et-Loire"},"region":{"code":"24","nom":"Centre-Val de Loire"}},{"nom":"Auzouer-en-Touraine","code":"37010","codesPostaux":["37110"],"centre":{"type":"Point","coordinates":[0.9396,47.5563]},"surface":3399.58,"population":2172,"departement":{"code":"37","nom":"Indre-et-Loire"},"region":{"code":"24","nom":"Centre-Val de Loire"}},{"nom":"Avoine","code":"37011","codesPostaux":["37420"],"centre":{"type":"Point","coordinates":[0.189,47.22]},"surface":1248.86,"population":1994,"departement":{"code":"37","nom":"Indre-et-Loire"},"region":{"code":"24","nom":"Centre-Val de Loire"}},{"nom":"Avon-les-Roches","code":"37012","codesPostaux":["37220"],"centre":{"type":"Point","coordinates":[0.4626,47.1823]},"surface":3325.96,"population":539,"departement":{"code":"37","nom":"Indre-et-Loire"},"region":{"code":"24","nom":"Centre-Val de Loire"}},{"nom":"Avrillé-les-Ponceaux","code":"37013","codesPostaux":["37340"],"centre":{"type":"Point","coordinates":[0.3027,47.3843]},"surface":3281.8,"population":475,"departement":{"code":"37","nom":"Indre-et-Loire"},"region":{"code":"24","nom":"Centre-Val de Loire"}},{"nom":"Azay-le-Rideau","code":"37014","codesPostaux":["37190"],"centre":{"type":"Point","coordinates":[0.4616,47.2737]},"surface":2730.08,"population":3415,"departement":{"code":"37","nom":"Indre-et-Loire"},"region":{"code":"24","nom":"Centre-Val de Loire"}},{"nom":"Azay-sur-Cher","code":"37015","codesPostaux":["37270"],"centre":{"type":"Point","coordinates":[0.8427,47.3365]},"surface":2306.39,"population":3127,"departement":{"code":"37","nom":"Indre-et-Loire"},"region":{"code":"24","nom":"Centre-Val de Loire"}},{"nom":"Azay-sur-Indre","code":"37016","codesPostaux":["37310"],"centre":{"type":"Point","coordinates":[0.9413,47.2043]},"surface":1368.86,"population":363,"departement":{"code":"37","nom":"Indre-et-Loire"},"region":{"code":"24","nom":"Centre-Val de Loire"}},{"nom":"Ballan-Miré","code":"37018","codesPostaux":["37510"],"centre":{"type":"Point","coordinates":[0.5997,47.3393]},"surface":2633.76,"population":8347,"departement":{"code":"37","nom":"Indre-et-Loire"},"region":{"code":"24","nom":"Centre-Val de Loire"}},{"nom":"Barrou","code":"37019","codesPostaux":["37350"],"centre":{"type":"Point","coordinates":[0.7743,46.8812]},"surface":3102.67,"population":480,"departement":{"code":"37","nom":"Indre-et-Loire"},"region":{"code":"24","nom":"Centre-Val de Loire"}},{"nom":"Beaulieu-lès-Loches","code":"37020","codesPostaux":["37600"],"centre":{"type":"Point","coordinates":[1.0262,47.1277]},"surface":392.38,"population":1746,"departement":{"code":"37","nom":"Indre-et-Loire"},"region":{"code":"24","nom":"Centre-Val de Loire"}},{"nom":"Beaumont-Louestault","code":"37021","codesPostaux":["37360","37370"],"centre":{"type":"Point","coordinates":[0.6679,47.5838]},"surface":5567.8,"population":1788,"departement":{"code":"37","nom":"Indre-et-Loire"},"region":{"code":"24","nom":"Centre-Val de Loire"}},{"nom":"Beaumont-en-Véron","code":"37022","codesPostaux":["37420"],"centre":{"type":"Point","coordinates":[0.1797,47.1957]},"surface":1903.12,"population":2719,"departement":{"code":"37","nom":"Indre-et-Loire"},"region":{"code":"24","nom":"Centre-Val de Loire"}},{"nom":"Beaumont-Village","code":"37023","codesPostaux":["37460"],"centre":{"type":"Point","coordinates":[1.2065,47.1824]},"surface":1930.55,"population":240,"departement":{"code":"37","nom":"Indre-et-Loire"},"region":{"code":"24","nom":"Centre-Val de Loire"}},{"nom":"Benais","code":"37024","codesPostaux":["37140"],"centre":{"type":"Point","coordinates":[0.2222,47.3183]},"surface":2014.48,"population":948,"departement":{"code":"37","nom":"Indre-et-Loire"},"region":{"code":"24","nom":"Centre-Val de Loire"}},{"nom":"Berthenay","code":"37025","codesPostaux":["37510"],"centre":{"type":"Point","coordinates":[0.5231,47.3591]},"surface":735.93,"population":699,"departement":{"code":"37","nom":"Indre-et-Loire"},"region":{"code":"24","nom":"Centre-Val de Loire"}},{"nom":"Betz-le-Château","code":"37026","codesPostaux":["37600"],"centre":{"type":"Point","coordinates":[0.9553,47.0021]},"surface":4683.91,"population":508,"departement":{"code":"37","nom":"Indre-et-Loire"},"region":{"code":"24","nom":"Centre-Val de Loire"}},{"nom":"Bléré","code":"37027","codesPostaux":["37150"],"centre":{"type":"Point","coordinates":[0.9848,47.3011]},"surface":3112.1,"population":5340,"departement":{"code":"37","nom":"Indre-et-Loire"},"region":{"code":"24","nom":"Centre-Val de Loire"}},{"nom":"Bossay-sur-Claise","code":"37028","codesPostaux":["37290"],"centre":{"type":"Point","coordinates":[0.9716,46.8181]},"surface":6551.66,"population":729,"departement":{"code":"37","nom":"Indre-et-Loire"},"region":{"code":"24","nom":"Centre-Val de Loire"}},{"nom":"Bossée","code":"37029","codesPostaux":["37240"],"centre":{"type":"Point","coordinates":[0.7336,47.1091]},"surface":1906,"population":325,"departement":{"code":"37","nom":"Indre-et-Loire"},"region":{"code":"24","nom":"Centre-Val de Loire"}},{"nom":"Le Boulay","code":"37030","codesPostaux":["37110"],"centre":{"type":"Point","coordinates":[0.8519,47.5913]},"surface":1996.9,"population":813,"departement":{"code":"37","nom":"Indre-et-Loire"},"region":{"code":"24","nom":"Centre-Val de Loire"}},{"nom":"Bourgueil","code":"37031","codesPostaux":["37140"],"centre":{"type":"Point","coordinates":[0.1712,47.31]},"surface":3299.81,"population":3648,"departement":{"code":"37","nom":"Indre-et-Loire"},"region":{"code":"24","nom":"Centre-Val de Loire"}},{"nom":"Bournan","code":"37032","codesPostaux":["37240"],"centre":{"type":"Point","coordinates":[0.728,47.0726]},"surface":1476.58,"population":282,"departement":{"code":"37","nom":"Indre-et-Loire"},"region":{"code":"24","nom":"Centre-Val de Loire"}},{"nom":"Boussay","code":"37033","codesPostaux":["37290"],"centre":{"type":"Point","coordinates":[0.8852,46.8492]},"surface":2805.44,"population":226,"departement":{"code":"37","nom":"Indre-et-Loire"},"region":{"code":"24","nom":"Centre-Val de Loire"}},{"nom":"Braslou","code":"37034","codesPostaux":["37120"],"centre":{"type":"Point","coordinates":[0.4111,46.9999]},"surface":1592.53,"population":320,"departement":{"code":"37","nom":"Indre-et-Loire"},"region":{"code":"24","nom":"Centre-Val de Loire"}},{"nom":"Braye-sous-Faye","code":"37035","codesPostaux":["37120"],"centre":{"type":"Point","coordinates":[0.3328,46.9806]},"surface":1562.1,"population":281,"departement":{"code":"37","nom":"Indre-et-Loire"},"region":{"code":"24","nom":"Centre-Val de Loire"}},{"nom":"Braye-sur-Maulne","code":"37036","codesPostaux":["37330"],"centre":{"type":"Point","coordinates":[0.2602,47.5598]},"surface":1209.62,"population":201,"departement":{"code":"37","nom":"Indre-et-Loire"},"region":{"code":"24","nom":"Centre-Val de Loire"}},{"nom":"Brèches","code":"37037","codesPostaux":["37330"],"centre":{"type":"Point","coordinates":[0.409,47.5606]},"surface":1155.13,"population":222,"departement":{"code":"37","nom":"Indre-et-Loire"},"region":{"code":"24","nom":"Centre-Val de Loire"}},{"nom":"Bréhémont","code":"37038","codesPostaux":["37130"],"centre":{"type":"Point","coordinates":[0.359,47.2886]},"surface":1292.9,"population":728,"departement":{"code":"37","nom":"Indre-et-Loire"},"region":{"code":"24","nom":"Centre-Val de Loire"}},{"nom":"Bridoré","code":"37039","codesPostaux":["37600"],"centre":{"type":"Point","coordinates":[1.0805,47.0392]},"surface":1484.18,"population":489,"departement":{"code":"37","nom":"Indre-et-Loire"},"region":{"code":"24","nom":"Centre-Val de Loire"}},{"nom":"Brizay","code":"37040","codesPostaux":["37220"],"centre":{"type":"Point","coordinates":[0.3881,47.0942]},"surface":1439.99,"population":253,"departement":{"code":"37","nom":"Indre-et-Loire"},"region":{"code":"24","nom":"Centre-Val de Loire"}},{"nom":"Bueil-en-Touraine","code":"37041","codesPostaux":["37370"],"centre":{"type":"Point","coordinates":[0.5528,47.6298]},"surface":1791.29,"population":325,"departement":{"code":"37","nom":"Indre-et-Loire"},"region":{"code":"24","nom":"Centre-Val de Loire"}},{"nom":"Candes-Saint-Martin","code":"37042","codesPostaux":["37500"],"centre":{"type":"Point","coordinates":[0.0746,47.2021]},"surface":574.65,"population":182,"departement":{"code":"37","nom":"Indre-et-Loire"},"region":{"code":"24","nom":"Centre-Val de Loire"}},{"nom":"Cangey","code":"37043","codesPostaux":["37530"],"centre":{"type":"Point","coordinates":[1.0651,47.4901]},"surface":2278.81,"population":1030,"departement":{"code":"37","nom":"Indre-et-Loire"},"region":{"code":"24","nom":"Centre-Val de Loire"}},{"nom":"La Celle-Guenand","code":"37044","codesPostaux":["37350"],"centre":{"type":"Point","coordinates":[0.9103,46.943]},"surface":3714.96,"population":381,"departement":{"code":"37","nom":"Indre-et-Loire"},"region":{"code":"24","nom":"Centre-Val de Loire"}},{"nom":"La Celle-Saint-Avant","code":"37045","codesPostaux":["37160"],"centre":{"type":"Point","coordinates":[0.6158,47.0219]},"surface":1785.2,"population":1059,"departement":{"code":"37","nom":"Indre-et-Loire"},"region":{"code":"24","nom":"Centre-Val de Loire"}},{"nom":"Céré-la-Ronde","code":"37046","codesPostaux":["37460"],"centre":{"type":"Point","coordinates":[1.1775,47.2549]},"surface":4958.63,"population":424,"departement":{"code":"37","nom":"Indre-et-Loire"},"region":{"code":"24","nom":"Centre-Val de Loire"}},{"nom":"Cerelles","code":"37047","codesPostaux":["37390"],"centre":{"type":"Point","coordinates":[0.6869,47.5043]},"surface":1232.86,"population":1247,"departement":{"code":"37","nom":"Indre-et-Loire"},"region":{"code":"24","nom":"Centre-Val de Loire"}},{"nom":"Chambon","code":"37048","codesPostaux":["37290"],"centre":{"type":"Point","coordinates":[0.8236,46.8378]},"surface":1842.37,"population":317,"departement":{"code":"37","nom":"Indre-et-Loire"},"region":{"code":"24","nom":"Centre-Val de Loire"}},{"nom":"Chambourg-sur-Indre","code":"37049","codesPostaux":["37310"],"centre":{"type":"Point","coordinates":[0.9654,47.1736]},"surface":2846.57,"population":1235,"departement":{"code":"37","nom":"Indre-et-Loire"},"region":{"code":"24","nom":"Centre-Val de Loire"}},{"nom":"Chambray-lès-Tours","code":"37050","codesPostaux":["37170"],"centre":{"type":"Point","coordinates":[0.7205,47.3329]},"surface":1945.17,"population":11877,"departement":{"code":"37","nom":"Indre-et-Loire"},"region":{"code":"24","nom":"Centre-Val de Loire"}},{"nom":"Champigny-sur-Veude","code":"37051","codesPostaux":["37120"],"centre":{"type":"Point","coordinates":[0.3313,47.0538]},"surface":1615.01,"population":813,"departement":{"code":"37","nom":"Indre-et-Loire"},"region":{"code":"24","nom":"Centre-Val de Loire"}},{"nom":"Chançay","code":"37052","codesPostaux":["37210"],"centre":{"type":"Point","coordinates":[0.8827,47.4478]},"surface":1510.64,"population":1123,"departement":{"code":"37","nom":"Indre-et-Loire"},"region":{"code":"24","nom":"Centre-Val de Loire"}},{"nom":"Chanceaux-près-Loches","code":"37053","codesPostaux":["37600"],"centre":{"type":"Point","coordinates":[0.947,47.1392]},"surface":1466.77,"population":113,"departement":{"code":"37","nom":"Indre-et-Loire"},"region":{"code":"24","nom":"Centre-Val de Loire"}},{"nom":"Chanceaux-sur-Choisille","code":"37054","codesPostaux":["37390"],"centre":{"type":"Point","coordinates":[0.705,47.4758]},"surface":1849.35,"population":3509,"departement":{"code":"37","nom":"Indre-et-Loire"},"region":{"code":"24","nom":"Centre-Val de Loire"}},{"nom":"Channay-sur-Lathan","code":"37055","codesPostaux":["37330"],"centre":{"type":"Point","coordinates":[0.2483,47.4776]},"surface":2918.77,"population":809,"departement":{"code":"37","nom":"Indre-et-Loire"},"region":{"code":"24","nom":"Centre-Val de Loire"}},{"nom":"La Chapelle-aux-Naux","code":"37056","codesPostaux":["37130"],"centre":{"type":"Point","coordinates":[0.4186,47.3127]},"surface":533.85,"population":558,"departement":{"code":"37","nom":"Indre-et-Loire"},"region":{"code":"24","nom":"Centre-Val de Loire"}},{"nom":"La Chapelle-Blanche-Saint-Martin","code":"37057","codesPostaux":["37240"],"centre":{"type":"Point","coordinates":[0.7904,47.0856]},"surface":2857.49,"population":691,"departement":{"code":"37","nom":"Indre-et-Loire"},"region":{"code":"24","nom":"Centre-Val de Loire"}},{"nom":"La Chapelle-sur-Loire","code":"37058","codesPostaux":["37140"],"centre":{"type":"Point","coordinates":[0.2222,47.252]},"surface":1933.11,"population":1472,"departement":{"code":"37","nom":"Indre-et-Loire"},"region":{"code":"24","nom":"Centre-Val de Loire"}},{"nom":"Charentilly","code":"37059","codesPostaux":["37390"],"centre":{"type":"Point","coordinates":[0.5948,47.4694]},"surface":1411.92,"population":1385,"departement":{"code":"37","nom":"Indre-et-Loire"},"region":{"code":"24","nom":"Centre-Val de Loire"}},{"nom":"Chargé","code":"37060","codesPostaux":["37530"],"centre":{"type":"Point","coordinates":[1.0417,47.4319]},"surface":851.13,"population":1352,"departement":{"code":"37","nom":"Indre-et-Loire"},"region":{"code":"24","nom":"Centre-Val de Loire"}},{"nom":"Charnizay","code":"37061","codesPostaux":["37290"],"centre":{"type":"Point","coordinates":[0.9889,46.9205]},"surface":5330.84,"population":468,"departement":{"code":"37","nom":"Indre-et-Loire"},"region":{"code":"24","nom":"Centre-Val de Loire"}},{"nom":"Château-la-Vallière","code":"37062","codesPostaux":["37330"],"centre":{"type":"Point","coordinates":[0.3214,47.5293]},"surface":1961.57,"population":1734,"departement":{"code":"37","nom":"Indre-et-Loire"},"region":{"code":"24","nom":"Centre-Val de Loire"}},{"nom":"Château-Renault","code":"37063","codesPostaux":["37110"],"centre":{"type":"Point","coordinates":[0.9066,47.5927]},"surface":351.89,"population":4560,"departement":{"code":"37","nom":"Indre-et-Loire"},"region":{"code":"24","nom":"Centre-Val de Loire"}},{"nom":"Chaumussay","code":"37064","codesPostaux":["37350"],"centre":{"type":"Point","coordinates":[0.8512,46.8748]},"surface":1901.23,"population":204,"departement":{"code":"37","nom":"Indre-et-Loire"},"region":{"code":"24","nom":"Centre-Val de Loire"}},{"nom":"Chaveignes","code":"37065","codesPostaux":["37120"],"centre":{"type":"Point","coordinates":[0.3535,47.0277]},"surface":2131.03,"population":562,"departement":{"code":"37","nom":"Indre-et-Loire"},"region":{"code":"24","nom":"Centre-Val de Loire"}},{"nom":"Chédigny","code":"37066","codesPostaux":["37310"],"centre":{"type":"Point","coordinates":[0.9928,47.2179]},"surface":2316.8,"population":560,"departement":{"code":"37","nom":"Indre-et-Loire"},"region":{"code":"24","nom":"Centre-Val de Loire"}},{"nom":"Cheillé","code":"37067","codesPostaux":["37190"],"centre":{"type":"Point","coordinates":[0.4343,47.2388]},"surface":4698.23,"population":1859,"departement":{"code":"37","nom":"Indre-et-Loire"},"region":{"code":"24","nom":"Centre-Val de Loire"}},{"nom":"Chemillé-sur-Dême","code":"37068","codesPostaux":["37370"],"centre":{"type":"Point","coordinates":[0.6712,47.6623]},"surface":3366.54,"population":707,"departement":{"code":"37","nom":"Indre-et-Loire"},"region":{"code":"24","nom":"Centre-Val de Loire"}},{"nom":"Chemillé-sur-Indrois","code":"37069","codesPostaux":["37460"],"centre":{"type":"Point","coordinates":[1.1557,47.1572]},"surface":2501.29,"population":230,"departement":{"code":"37","nom":"Indre-et-Loire"},"region":{"code":"24","nom":"Centre-Val de Loire"}},{"nom":"Chenonceaux","code":"37070","codesPostaux":["37150"],"centre":{"type":"Point","coordinates":[1.0701,47.3436]},"surface":428.29,"population":334,"departement":{"code":"37","nom":"Indre-et-Loire"},"region":{"code":"24","nom":"Centre-Val de Loire"}},{"nom":"Chezelles","code":"37071","codesPostaux":["37220"],"centre":{"type":"Point","coordinates":[0.4429,47.0659]},"surface":1534.29,"population":130,"departement":{"code":"37","nom":"Indre-et-Loire"},"region":{"code":"24","nom":"Centre-Val de Loire"}},{"nom":"Chinon","code":"37072","codesPostaux":["37500"],"centre":{"type":"Point","coordinates":[0.2433,47.1692]},"surface":3911.44,"population":8121,"departement":{"code":"37","nom":"Indre-et-Loire"},"region":{"code":"24","nom":"Centre-Val de Loire"}},{"nom":"Chisseaux","code":"37073","codesPostaux":["37150"],"centre":{"type":"Point","coordinates":[1.0998,47.3501]},"surface":1173.56,"population":590,"departement":{"code":"37","nom":"Indre-et-Loire"},"region":{"code":"24","nom":"Centre-Val de Loire"}},{"nom":"Chouzé-sur-Loire","code":"37074","codesPostaux":["37140"],"centre":{"type":"Point","coordinates":[0.1164,47.245]},"surface":2837.86,"population":2150,"departement":{"code":"37","nom":"Indre-et-Loire"},"region":{"code":"24","nom":"Centre-Val de Loire"}},{"nom":"Cigogné","code":"37075","codesPostaux":["37310"],"centre":{"type":"Point","coordinates":[0.9462,47.2662]},"surface":2191.84,"population":462,"departement":{"code":"37","nom":"Indre-et-Loire"},"region":{"code":"24","nom":"Centre-Val de Loire"}},{"nom":"Cinais","code":"37076","codesPostaux":["37500"],"centre":{"type":"Point","coordinates":[0.1751,47.1576]},"surface":881.12,"population":378,"departement":{"code":"37","nom":"Indre-et-Loire"},"region":{"code":"24","nom":"Centre-Val de Loire"}},{"nom":"Cinq-Mars-la-Pile","code":"37077","codesPostaux":["37130"],"centre":{"type":"Point","coordinates":[0.4542,47.3483]},"surface":2045.92,"population":3943,"departement":{"code":"37","nom":"Indre-et-Loire"},"region":{"code":"24","nom":"Centre-Val de Loire"}},{"nom":"Ciran","code":"37078","codesPostaux":["37240"],"centre":{"type":"Point","coordinates":[0.875,47.0504]},"surface":1405.87,"population":428,"departement":{"code":"37","nom":"Indre-et-Loire"},"region":{"code":"24","nom":"Centre-Val de Loire"}},{"nom":"Civray-de-Touraine","code":"37079","codesPostaux":["37150"],"centre":{"type":"Point","coordinates":[1.0408,47.3325]},"surface":2316.08,"population":1828,"departement":{"code":"37","nom":"Indre-et-Loire"},"region":{"code":"24","nom":"Centre-Val de Loire"}},{"nom":"Civray-sur-Esves","code":"37080","codesPostaux":["37160"],"centre":{"type":"Point","coordinates":[0.7121,47.0346]},"surface":1330.11,"population":213,"departement":{"code":"37","nom":"Indre-et-Loire"},"region":{"code":"24","nom":"Centre-Val de Loire"}},{"nom":"Cléré-les-Pins","code":"37081","codesPostaux":["37340"],"centre":{"type":"Point","coordinates":[0.3764,47.4494]},"surface":3590.49,"population":1398,"departement":{"code":"37","nom":"Indre-et-Loire"},"region":{"code":"24","nom":"Centre-Val de Loire"}},{"nom":"Continvoir","code":"37082","codesPostaux":["37340"],"centre":{"type":"Point","coordinates":[0.2419,47.3758]},"surface":4143.29,"population":467,"departement":{"code":"37","nom":"Indre-et-Loire"},"region":{"code":"24","nom":"Centre-Val de Loire"}},{"nom":"Cormery","code":"37083","codesPostaux":["37320"],"centre":{"type":"Point","coordinates":[0.843,47.2585]},"surface":604.69,"population":1860,"departement":{"code":"37","nom":"Indre-et-Loire"},"region":{"code":"24","nom":"Centre-Val de Loire"}},{"nom":"Couesmes","code":"37084","codesPostaux":["37330"],"centre":{"type":"Point","coordinates":[0.3607,47.552]},"surface":2189.46,"population":556,"departement":{"code":"37","nom":"Indre-et-Loire"},"region":{"code":"24","nom":"Centre-Val de Loire"}},{"nom":"Courçay","code":"37085","codesPostaux":["37310"],"centre":{"type":"Point","coordinates":[0.8857,47.2504]},"surface":2505.81,"population":796,"departement":{"code":"37","nom":"Indre-et-Loire"},"region":{"code":"24","nom":"Centre-Val de Loire"}},{"nom":"Courcelles-de-Touraine","code":"37086","codesPostaux":["37330"],"centre":{"type":"Point","coordinates":[0.3374,47.4893]},"surface":2602.39,"population":480,"departement":{"code":"37","nom":"Indre-et-Loire"},"region":{"code":"24","nom":"Centre-Val de Loire"}},{"nom":"Courcoué","code":"37087","codesPostaux":["37120"],"centre":{"type":"Point","coordinates":[0.3996,47.0289]},"surface":1563.23,"population":237,"departement":{"code":"37","nom":"Indre-et-Loire"},"region":{"code":"24","nom":"Centre-Val de Loire"}},{"nom":"Couziers","code":"37088","codesPostaux":["37500"],"centre":{"type":"Point","coordinates":[0.0782,47.173]},"surface":1203.65,"population":117,"departement":{"code":"37","nom":"Indre-et-Loire"},"region":{"code":"24","nom":"Centre-Val de Loire"}},{"nom":"Cravant-les-Côteaux","code":"37089","codesPostaux":["37500"],"centre":{"type":"Point","coordinates":[0.3383,47.1698]},"surface":3830.07,"population":680,"departement":{"code":"37","nom":"Indre-et-Loire"},"region":{"code":"24","nom":"Centre-Val de Loire"}},{"nom":"Crissay-sur-Manse","code":"37090","codesPostaux":["37220"],"centre":{"type":"Point","coordinates":[0.4938,47.1708]},"surface":753.91,"population":113,"departement":{"code":"37","nom":"Indre-et-Loire"},"region":{"code":"24","nom":"Centre-Val de Loire"}},{"nom":"La Croix-en-Touraine","code":"37091","codesPostaux":["37150"],"centre":{"type":"Point","coordinates":[0.9935,47.35]},"surface":1524.08,"population":2484,"departement":{"code":"37","nom":"Indre-et-Loire"},"region":{"code":"24","nom":"Centre-Val de Loire"}},{"nom":"Crotelles","code":"37092","codesPostaux":["37380"],"centre":{"type":"Point","coordinates":[0.8218,47.5399]},"surface":1571.85,"population":651,"departement":{"code":"37","nom":"Indre-et-Loire"},"region":{"code":"24","nom":"Centre-Val de Loire"}},{"nom":"Crouzilles","code":"37093","codesPostaux":["37220"],"centre":{"type":"Point","coordinates":[0.4665,47.1301]},"surface":1453.11,"population":530,"departement":{"code":"37","nom":"Indre-et-Loire"},"region":{"code":"24","nom":"Centre-Val de Loire"}},{"nom":"Cussay","code":"37094","codesPostaux":["37240"],"centre":{"type":"Point","coordinates":[0.7696,47.019]},"surface":2611.92,"population":567,"departement":{"code":"37","nom":"Indre-et-Loire"},"region":{"code":"24","nom":"Centre-Val de Loire"}},{"nom":"Dame-Marie-les-Bois","code":"37095","codesPostaux":["37110"],"centre":{"type":"Point","coordinates":[1.0489,47.5502]},"surface":900.08,"population":338,"departement":{"code":"37","nom":"Indre-et-Loire"},"region":{"code":"24","nom":"Centre-Val de Loire"}},{"nom":"Dierre","code":"37096","codesPostaux":["37150"],"centre":{"type":"Point","coordinates":[0.958,47.3533]},"surface":1032.81,"population":637,"departement":{"code":"37","nom":"Indre-et-Loire"},"region":{"code":"24","nom":"Centre-Val de Loire"}},{"nom":"Dolus-le-Sec","code":"37097","codesPostaux":["37310"],"centre":{"type":"Point","coordinates":[0.89,47.1644]},"surface":2752.93,"population":657,"departement":{"code":"37","nom":"Indre-et-Loire"},"region":{"code":"24","nom":"Centre-Val de Loire"}},{"nom":"Draché","code":"37098","codesPostaux":["37800"],"centre":{"type":"Point","coordinates":[0.6317,47.0691]},"surface":1856.56,"population":700,"departement":{"code":"37","nom":"Indre-et-Loire"},"region":{"code":"24","nom":"Centre-Val de Loire"}},{"nom":"Druye","code":"37099","codesPostaux":["37190"],"centre":{"type":"Point","coordinates":[0.5354,47.2976]},"surface":2295.97,"population":999,"departement":{"code":"37","nom":"Indre-et-Loire"},"region":{"code":"24","nom":"Centre-Val de Loire"}},{"nom":"Épeigné-les-Bois","code":"37100","codesPostaux":["37150"],"centre":{"type":"Point","coordinates":[1.1287,47.2759]},"surface":1464.83,"population":400,"departement":{"code":"37","nom":"Indre-et-Loire"},"region":{"code":"24","nom":"Centre-Val de Loire"}},{"nom":"Épeigné-sur-Dême","code":"37101","codesPostaux":["37370"],"centre":{"type":"Point","coordinates":[0.6118,47.6785]},"surface":2109.4,"population":159,"departement":{"code":"37","nom":"Indre-et-Loire"},"region":{"code":"24","nom":"Centre-Val de Loire"}},{"nom":"Esves-le-Moutier","code":"37103","codesPostaux":["37240"],"centre":{"type":"Point","coordinates":[0.9041,47.0338]},"surface":1062.08,"population":154,"departement":{"code":"37","nom":"Indre-et-Loire"},"region":{"code":"24","nom":"Centre-Val de Loire"}},{"nom":"Esvres","code":"37104","codesPostaux":["37320"],"centre":{"type":"Point","coordinates":[0.7902,47.2905]},"surface":3580.68,"population":6264,"departement":{"code":"37","nom":"Indre-et-Loire"},"region":{"code":"24","nom":"Centre-Val de Loire"}},{"nom":"Faye-la-Vineuse","code":"37105","codesPostaux":["37120"],"centre":{"type":"Point","coordinates":[0.3454,46.9542]},"surface":1754.68,"population":272,"departement":{"code":"37","nom":"Indre-et-Loire"},"region":{"code":"24","nom":"Centre-Val de Loire"}},{"nom":"La Ferrière","code":"37106","codesPostaux":["37110"],"centre":{"type":"Point","coordinates":[0.7542,47.621]},"surface":1562.23,"population":312,"departement":{"code":"37","nom":"Indre-et-Loire"},"region":{"code":"24","nom":"Centre-Val de Loire"}},{"nom":"Ferrière-Larçon","code":"37107","codesPostaux":["37350"],"centre":{"type":"Point","coordinates":[0.8738,46.996]},"surface":2107.65,"population":239,"departement":{"code":"37","nom":"Indre-et-Loire"},"region":{"code":"24","nom":"Centre-Val de Loire"}},{"nom":"Ferrière-sur-Beaulieu","code":"37108","codesPostaux":["37600"],"centre":{"type":"Point","coordinates":[1.053,47.1506]},"surface":1961.46,"population":707,"departement":{"code":"37","nom":"Indre-et-Loire"},"region":{"code":"24","nom":"Centre-Val de Loire"}},{"nom":"Fondettes","code":"37109","codesPostaux":["37230"],"centre":{"type":"Point","coordinates":[0.6032,47.4127]},"surface":3180.32,"population":10917,"departement":{"code":"37","nom":"Indre-et-Loire"},"region":{"code":"24","nom":"Centre-Val de Loire"}},{"nom":"Francueil","code":"37110","codesPostaux":["37150"],"centre":{"type":"Point","coordinates":[1.0763,47.309]},"surface":1304.65,"population":1453,"departement":{"code":"37","nom":"Indre-et-Loire"},"region":{"code":"24","nom":"Centre-Val de Loire"}},{"nom":"Genillé","code":"37111","codesPostaux":["37460"],"centre":{"type":"Point","coordinates":[1.1134,47.1809]},"surface":6345.93,"population":1508,"departement":{"code":"37","nom":"Indre-et-Loire"},"region":{"code":"24","nom":"Centre-Val de Loire"}},{"nom":"Gizeux","code":"37112","codesPostaux":["37340"],"centre":{"type":"Point","coordinates":[0.1838,47.3883]},"surface":2108.58,"population":377,"departement":{"code":"37","nom":"Indre-et-Loire"},"region":{"code":"24","nom":"Centre-Val de Loire"}},{"nom":"Le Grand-Pressigny","code":"37113","codesPostaux":["37350"],"centre":{"type":"Point","coordinates":[0.8128,46.9173]},"surface":4039.57,"population":879,"departement":{"code":"37","nom":"Indre-et-Loire"},"region":{"code":"24","nom":"Centre-Val de Loire"}},{"nom":"La Guerche","code":"37114","codesPostaux":["37350"],"centre":{"type":"Point","coordinates":[0.7259,46.8924]},"surface":538.4,"population":175,"departement":{"code":"37","nom":"Indre-et-Loire"},"region":{"code":"24","nom":"Centre-Val de Loire"}},{"nom":"Descartes","code":"37115","codesPostaux":["37160"],"centre":{"type":"Point","coordinates":[0.6871,46.9958]},"surface":3818.15,"population":3289,"departement":{"code":"37","nom":"Indre-et-Loire"},"region":{"code":"24","nom":"Centre-Val de Loire"}},{"nom":"Les Hermites","code":"37116","codesPostaux":["37110"],"centre":{"type":"Point","coordinates":[0.7668,47.6675]},"surface":3273.86,"population":573,"departement":{"code":"37","nom":"Indre-et-Loire"},"region":{"code":"24","nom":"Centre-Val de Loire"}},{"nom":"Hommes","code":"37117","codesPostaux":["37340"],"centre":{"type":"Point","coordinates":[0.2805,47.4255]},"surface":3028.36,"population":867,"departement":{"code":"37","nom":"Indre-et-Loire"},"region":{"code":"24","nom":"Centre-Val de Loire"}},{"nom":"Huismes","code":"37118","codesPostaux":["37420"],"centre":{"type":"Point","coordinates":[0.2532,47.2311]},"surface":2375.23,"population":1446,"departement":{"code":"37","nom":"Indre-et-Loire"},"region":{"code":"24","nom":"Centre-Val de Loire"}},{"nom":"L'Île-Bouchard","code":"37119","codesPostaux":["37220"],"centre":{"type":"Point","coordinates":[0.4214,47.1238]},"surface":359.56,"population":1590,"departement":{"code":"37","nom":"Indre-et-Loire"},"region":{"code":"24","nom":"Centre-Val de Loire"}},{"nom":"Jaulnay","code":"37121","codesPostaux":["37120"],"centre":{"type":"Point","coordinates":[0.4215,46.9592]},"surface":1482.85,"population":244,"departement":{"code":"37","nom":"Indre-et-Loire"},"region":{"code":"24","nom":"Centre-Val de Loire"}},{"nom":"Joué-lès-Tours","code":"37122","codesPostaux":["37300"],"centre":{"type":"Point","coordinates":[0.6544,47.3374]},"surface":3248.78,"population":38432,"departement":{"code":"37","nom":"Indre-et-Loire"},"region":{"code":"24","nom":"Centre-Val de Loire"}},{"nom":"Langeais","code":"37123","codesPostaux":["37130"],"centre":{"type":"Point","coordinates":[0.3632,47.3477]},"surface":6468.23,"population":4370,"departement":{"code":"37","nom":"Indre-et-Loire"},"region":{"code":"24","nom":"Centre-Val de Loire"}},{"nom":"Larçay","code":"37124","codesPostaux":["37270"],"centre":{"type":"Point","coordinates":[0.7773,47.3515]},"surface":1135.98,"population":2577,"departement":{"code":"37","nom":"Indre-et-Loire"},"region":{"code":"24","nom":"Centre-Val de Loire"}},{"nom":"Lémeré","code":"37125","codesPostaux":["37120"],"centre":{"type":"Point","coordinates":[0.3388,47.0932]},"surface":1969.21,"population":414,"departement":{"code":"37","nom":"Indre-et-Loire"},"region":{"code":"24","nom":"Centre-Val de Loire"}},{"nom":"Lerné","code":"37126","codesPostaux":["37500"],"centre":{"type":"Point","coordinates":[0.11,47.1407]},"surface":1643.16,"population":347,"departement":{"code":"37","nom":"Indre-et-Loire"},"region":{"code":"24","nom":"Centre-Val de Loire"}},{"nom":"Le Liège","code":"37127","codesPostaux":["37460"],"centre":{"type":"Point","coordinates":[1.1084,47.2326]},"surface":1117.7,"population":326,"departement":{"code":"37","nom":"Indre-et-Loire"},"region":{"code":"24","nom":"Centre-Val de Loire"}},{"nom":"Lignières-de-Touraine","code":"37128","codesPostaux":["37130"],"centre":{"type":"Point","coordinates":[0.4147,47.2952]},"surface":1003.92,"population":1319,"departement":{"code":"37","nom":"Indre-et-Loire"},"region":{"code":"24","nom":"Centre-Val de Loire"}},{"nom":"Ligré","code":"37129","codesPostaux":["37500"],"centre":{"type":"Point","coordinates":[0.271,47.1114]},"surface":2777.72,"population":1070,"departement":{"code":"37","nom":"Indre-et-Loire"},"region":{"code":"24","nom":"Centre-Val de Loire"}},{"nom":"Ligueil","code":"37130","codesPostaux":["37240"],"centre":{"type":"Point","coordinates":[0.8069,47.0394]},"surface":2980.97,"population":2113,"departement":{"code":"37","nom":"Indre-et-Loire"},"region":{"code":"24","nom":"Centre-Val de Loire"}},{"nom":"Limeray","code":"37131","codesPostaux":["37530"],"centre":{"type":"Point","coordinates":[1.0342,47.4602]},"surface":1384.52,"population":1261,"departement":{"code":"37","nom":"Indre-et-Loire"},"region":{"code":"24","nom":"Centre-Val de Loire"}},{"nom":"Loches","code":"37132","codesPostaux":["37600"],"centre":{"type":"Point","coordinates":[0.9745,47.1223]},"surface":2731.91,"population":6233,"departement":{"code":"37","nom":"Indre-et-Loire"},"region":{"code":"24","nom":"Centre-Val de Loire"}},{"nom":"Loché-sur-Indrois","code":"37133","codesPostaux":["37460"],"centre":{"type":"Point","coordinates":[1.2046,47.0803]},"surface":7480.63,"population":472,"departement":{"code":"37","nom":"Indre-et-Loire"},"region":{"code":"24","nom":"Centre-Val de Loire"}},{"nom":"Louans","code":"37134","codesPostaux":["37320"],"centre":{"type":"Point","coordinates":[0.739,47.181]},"surface":1814.89,"population":713,"departement":{"code":"37","nom":"Indre-et-Loire"},"region":{"code":"24","nom":"Centre-Val de Loire"}},{"nom":"Le Louroux","code":"37136","codesPostaux":["37240"],"centre":{"type":"Point","coordinates":[0.7679,47.1569]},"surface":2887.52,"population":531,"departement":{"code":"37","nom":"Indre-et-Loire"},"region":{"code":"24","nom":"Centre-Val de Loire"}},{"nom":"Lublé","code":"37137","codesPostaux":["37330"],"centre":{"type":"Point","coordinates":[0.2607,47.5245]},"surface":1263.29,"population":140,"departement":{"code":"37","nom":"Indre-et-Loire"},"region":{"code":"24","nom":"Centre-Val de Loire"}},{"nom":"Lussault-sur-Loire","code":"37138","codesPostaux":["37400"],"centre":{"type":"Point","coordinates":[0.9209,47.391]},"surface":916.93,"population":890,"departement":{"code":"37","nom":"Indre-et-Loire"},"region":{"code":"24","nom":"Centre-Val de Loire"}},{"nom":"Luynes","code":"37139","codesPostaux":["37230"],"centre":{"type":"Point","coordinates":[0.5364,47.4123]},"surface":3411.97,"population":5081,"departement":{"code":"37","nom":"Indre-et-Loire"},"region":{"code":"24","nom":"Centre-Val de Loire"}},{"nom":"Luzé","code":"37140","codesPostaux":["37120"],"centre":{"type":"Point","coordinates":[0.4719,47.0131]},"surface":2034.99,"population":274,"departement":{"code":"37","nom":"Indre-et-Loire"},"region":{"code":"24","nom":"Centre-Val de Loire"}},{"nom":"Luzillé","code":"37141","codesPostaux":["37150"],"centre":{"type":"Point","coordinates":[1.0622,47.2657]},"surface":4112.71,"population":983,"departement":{"code":"37","nom":"Indre-et-Loire"},"region":{"code":"24","nom":"Centre-Val de Loire"}},{"nom":"Maillé","code":"37142","codesPostaux":["37800"],"centre":{"type":"Point","coordinates":[0.5875,47.0519]},"surface":1560.56,"population":559,"departement":{"code":"37","nom":"Indre-et-Loire"},"region":{"code":"24","nom":"Centre-Val de Loire"}},{"nom":"Manthelan","code":"37143","codesPostaux":["37240"],"centre":{"type":"Point","coordinates":[0.8201,47.1376]},"surface":3952.82,"population":1377,"departement":{"code":"37","nom":"Indre-et-Loire"},"region":{"code":"24","nom":"Centre-Val de Loire"}},{"nom":"Marçay","code":"37144","codesPostaux":["37500"],"centre":{"type":"Point","coordinates":[0.2089,47.0849]},"surface":2139.13,"population":487,"departement":{"code":"37","nom":"Indre-et-Loire"},"region":{"code":"24","nom":"Centre-Val de Loire"}},{"nom":"Marcé-sur-Esves","code":"37145","codesPostaux":["37160"],"centre":{"type":"Point","coordinates":[0.6596,47.0301]},"surface":1097.33,"population":251,"departement":{"code":"37","nom":"Indre-et-Loire"},"region":{"code":"24","nom":"Centre-Val de Loire"}},{"nom":"Marcilly-sur-Maulne","code":"37146","codesPostaux":["37330"],"centre":{"type":"Point","coordinates":[0.2256,47.551]},"surface":1459.56,"population":216,"departement":{"code":"37","nom":"Indre-et-Loire"},"region":{"code":"24","nom":"Centre-Val de Loire"}},{"nom":"Marcilly-sur-Vienne","code":"37147","codesPostaux":["37800"],"centre":{"type":"Point","coordinates":[0.525,47.0476]},"surface":1107.2,"population":556,"departement":{"code":"37","nom":"Indre-et-Loire"},"region":{"code":"24","nom":"Centre-Val de Loire"}},{"nom":"Marigny-Marmande","code":"37148","codesPostaux":["37120"],"centre":{"type":"Point","coordinates":[0.4811,46.977]},"surface":3079.03,"population":605,"departement":{"code":"37","nom":"Indre-et-Loire"},"region":{"code":"24","nom":"Centre-Val de Loire"}},{"nom":"Marray","code":"37149","codesPostaux":["37370"],"centre":{"type":"Point","coordinates":[0.7017,47.6258]},"surface":2383.65,"population":489,"departement":{"code":"37","nom":"Indre-et-Loire"},"region":{"code":"24","nom":"Centre-Val de Loire"}},{"nom":"Mazières-de-Touraine","code":"37150","codesPostaux":["37130"],"centre":{"type":"Point","coordinates":[0.4283,47.3921]},"surface":3426.99,"population":1463,"departement":{"code":"37","nom":"Indre-et-Loire"},"region":{"code":"24","nom":"Centre-Val de Loire"}},{"nom":"La Membrolle-sur-Choisille","code":"37151","codesPostaux":["37390"],"centre":{"type":"Point","coordinates":[0.6268,47.4452]},"surface":694.67,"population":3270,"departement":{"code":"37","nom":"Indre-et-Loire"},"region":{"code":"24","nom":"Centre-Val de Loire"}},{"nom":"Mettray","code":"37152","codesPostaux":["37390"],"centre":{"type":"Point","coordinates":[0.6565,47.4587]},"surface":1055.87,"population":2079,"departement":{"code":"37","nom":"Indre-et-Loire"},"region":{"code":"24","nom":"Centre-Val de Loire"}},{"nom":"Monnaie","code":"37153","codesPostaux":["37380"],"centre":{"type":"Point","coordinates":[0.7837,47.5031]},"surface":3942.49,"population":4785,"departement":{"code":"37","nom":"Indre-et-Loire"},"region":{"code":"24","nom":"Centre-Val de Loire"}},{"nom":"Montbazon","code":"37154","codesPostaux":["37250"],"centre":{"type":"Point","coordinates":[0.7046,47.2847]},"surface":652.32,"population":4839,"departement":{"code":"37","nom":"Indre-et-Loire"},"region":{"code":"24","nom":"Centre-Val de Loire"}},{"nom":"Monthodon","code":"37155","codesPostaux":["37110"],"centre":{"type":"Point","coordinates":[0.821,47.6502]},"surface":3394.89,"population":643,"departement":{"code":"37","nom":"Indre-et-Loire"},"region":{"code":"24","nom":"Centre-Val de Loire"}},{"nom":"Montlouis-sur-Loire","code":"37156","codesPostaux":["37270"],"centre":{"type":"Point","coordinates":[0.8432,47.383]},"surface":2454.72,"population":11261,"departement":{"code":"37","nom":"Indre-et-Loire"},"region":{"code":"24","nom":"Centre-Val de Loire"}},{"nom":"Montrésor","code":"37157","codesPostaux":["37460"],"centre":{"type":"Point","coordinates":[1.2019,47.1531]},"surface":99.71,"population":313,"departement":{"code":"37","nom":"Indre-et-Loire"},"region":{"code":"24","nom":"Centre-Val de Loire"}},{"nom":"Montreuil-en-Touraine","code":"37158","codesPostaux":["37530"],"centre":{"type":"Point","coordinates":[0.9572,47.4853]},"surface":2515.23,"population":750,"departement":{"code":"37","nom":"Indre-et-Loire"},"region":{"code":"24","nom":"Centre-Val de Loire"}},{"nom":"Monts","code":"37159","codesPostaux":["37260"],"centre":{"type":"Point","coordinates":[0.6429,47.2723]},"surface":2781.47,"population":8031,"departement":{"code":"37","nom":"Indre-et-Loire"},"region":{"code":"24","nom":"Centre-Val de Loire"}},{"nom":"Morand","code":"37160","codesPostaux":["37110"],"centre":{"type":"Point","coordinates":[1.0063,47.5584]},"surface":1474.15,"population":348,"departement":{"code":"37","nom":"Indre-et-Loire"},"region":{"code":"24","nom":"Centre-Val de Loire"}},{"nom":"Mosnes","code":"37161","codesPostaux":["37530"],"centre":{"type":"Point","coordinates":[1.0987,47.4469]},"surface":1439.33,"population":815,"departement":{"code":"37","nom":"Indre-et-Loire"},"region":{"code":"24","nom":"Centre-Val de Loire"}},{"nom":"Mouzay","code":"37162","codesPostaux":["37600"],"centre":{"type":"Point","coordinates":[0.9052,47.1027]},"surface":2361.27,"population":462,"departement":{"code":"37","nom":"Indre-et-Loire"},"region":{"code":"24","nom":"Centre-Val de Loire"}},{"nom":"Nazelles-Négron","code":"37163","codesPostaux":["37530"],"centre":{"type":"Point","coordinates":[0.9489,47.433]},"surface":2212.53,"population":3682,"departement":{"code":"37","nom":"Indre-et-Loire"},"region":{"code":"24","nom":"Centre-Val de Loire"}},{"nom":"Neuil","code":"37165","codesPostaux":["37190"],"centre":{"type":"Point","coordinates":[0.5287,47.1858]},"surface":1893.18,"population":424,"departement":{"code":"37","nom":"Indre-et-Loire"},"region":{"code":"24","nom":"Centre-Val de Loire"}},{"nom":"Neuillé-le-Lierre","code":"37166","codesPostaux":["37380"],"centre":{"type":"Point","coordinates":[0.9168,47.5081]},"surface":1680.1,"population":763,"departement":{"code":"37","nom":"Indre-et-Loire"},"region":{"code":"24","nom":"Centre-Val de Loire"}},{"nom":"Neuillé-Pont-Pierre","code":"37167","codesPostaux":["37360"],"centre":{"type":"Point","coordinates":[0.5537,47.5467]},"surface":3914.51,"population":2238,"departement":{"code":"37","nom":"Indre-et-Loire"},"region":{"code":"24","nom":"Centre-Val de Loire"}},{"nom":"Neuilly-le-Brignon","code":"37168","codesPostaux":["37160"],"centre":{"type":"Point","coordinates":[0.7827,46.9697]},"surface":2196.62,"population":287,"departement":{"code":"37","nom":"Indre-et-Loire"},"region":{"code":"24","nom":"Centre-Val de Loire"}},{"nom":"Neuville-sur-Brenne","code":"37169","codesPostaux":["37110"],"centre":{"type":"Point","coordinates":[0.9148,47.6139]},"surface":686.56,"population":890,"departement":{"code":"37","nom":"Indre-et-Loire"},"region":{"code":"24","nom":"Centre-Val de Loire"}},{"nom":"Neuvy-le-Roi","code":"37170","codesPostaux":["37370"],"centre":{"type":"Point","coordinates":[0.5819,47.6097]},"surface":4784.73,"population":1061,"departement":{"code":"37","nom":"Indre-et-Loire"},"region":{"code":"24","nom":"Centre-Val de Loire"}},{"nom":"Noizay","code":"37171","codesPostaux":["37210"],"centre":{"type":"Point","coordinates":[0.8987,47.4196]},"surface":1773.93,"population":1142,"departement":{"code":"37","nom":"Indre-et-Loire"},"region":{"code":"24","nom":"Centre-Val de Loire"}},{"nom":"Notre-Dame-d'Oé","code":"37172","codesPostaux":["37390"],"centre":{"type":"Point","coordinates":[0.7098,47.4546]},"surface":772.34,"population":4358,"departement":{"code":"37","nom":"Indre-et-Loire"},"region":{"code":"24","nom":"Centre-Val de Loire"}},{"nom":"Nouans-les-Fontaines","code":"37173","codesPostaux":["37460"],"centre":{"type":"Point","coordinates":[1.3149,47.1323]},"surface":6337.07,"population":669,"departement":{"code":"37","nom":"Indre-et-Loire"},"region":{"code":"24","nom":"Centre-Val de Loire"}},{"nom":"Nouâtre","code":"37174","codesPostaux":["37800"],"centre":{"type":"Point","coordinates":[0.5657,47.0351]},"surface":968.23,"population":798,"departement":{"code":"37","nom":"Indre-et-Loire"},"region":{"code":"24","nom":"Centre-Val de Loire"}},{"nom":"Nouzilly","code":"37175","codesPostaux":["37380"],"centre":{"type":"Point","coordinates":[0.7462,47.5378]},"surface":4038,"population":1236,"departement":{"code":"37","nom":"Indre-et-Loire"},"region":{"code":"24","nom":"Centre-Val de Loire"}},{"nom":"Noyant-de-Touraine","code":"37176","codesPostaux":["37800"],"centre":{"type":"Point","coordinates":[0.5666,47.1022]},"surface":1389.96,"population":1170,"departement":{"code":"37","nom":"Indre-et-Loire"},"region":{"code":"24","nom":"Centre-Val de Loire"}},{"nom":"Orbigny","code":"37177","codesPostaux":["37460"],"centre":{"type":"Point","coordinates":[1.2525,47.2208]},"surface":6601.4,"population":711,"departement":{"code":"37","nom":"Indre-et-Loire"},"region":{"code":"24","nom":"Centre-Val de Loire"}},{"nom":"Panzoult","code":"37178","codesPostaux":["37220"],"centre":{"type":"Point","coordinates":[0.4034,47.1694]},"surface":3485.19,"population":599,"departement":{"code":"37","nom":"Indre-et-Loire"},"region":{"code":"24","nom":"Centre-Val de Loire"}},{"nom":"Parçay-Meslay","code":"37179","codesPostaux":["37210"],"centre":{"type":"Point","coordinates":[0.7394,47.4547]},"surface":1419.4,"population":2574,"departement":{"code":"37","nom":"Indre-et-Loire"},"region":{"code":"24","nom":"Centre-Val de Loire"}},{"nom":"Parçay-sur-Vienne","code":"37180","codesPostaux":["37220"],"centre":{"type":"Point","coordinates":[0.4829,47.0933]},"surface":1878.57,"population":621,"departement":{"code":"37","nom":"Indre-et-Loire"},"region":{"code":"24","nom":"Centre-Val de Loire"}},{"nom":"Paulmy","code":"37181","codesPostaux":["37350"],"centre":{"type":"Point","coordinates":[0.8242,46.983]},"surface":2661.61,"population":238,"departement":{"code":"37","nom":"Indre-et-Loire"},"region":{"code":"24","nom":"Centre-Val de Loire"}},{"nom":"Pernay","code":"37182","codesPostaux":["37230"],"centre":{"type":"Point","coordinates":[0.5213,47.4522]},"surface":1777.81,"population":1556,"departement":{"code":"37","nom":"Indre-et-Loire"},"region":{"code":"24","nom":"Centre-Val de Loire"}},{"nom":"Perrusson","code":"37183","codesPostaux":["37600"],"centre":{"type":"Point","coordinates":[1.0144,47.0881]},"surface":2921.53,"population":1417,"departement":{"code":"37","nom":"Indre-et-Loire"},"region":{"code":"24","nom":"Centre-Val de Loire"}},{"nom":"Le Petit-Pressigny","code":"37184","codesPostaux":["37350"],"centre":{"type":"Point","coordinates":[0.9108,46.9119]},"surface":3260.74,"population":307,"departement":{"code":"37","nom":"Indre-et-Loire"},"region":{"code":"24","nom":"Centre-Val de Loire"}},{"nom":"Pocé-sur-Cisse","code":"37185","codesPostaux":["37530"],"centre":{"type":"Point","coordinates":[0.9833,47.442]},"surface":1082.51,"population":1760,"departement":{"code":"37","nom":"Indre-et-Loire"},"region":{"code":"24","nom":"Centre-Val de Loire"}},{"nom":"Pont-de-Ruan","code":"37186","codesPostaux":["37260"],"centre":{"type":"Point","coordinates":[0.564,47.2611]},"surface":572.48,"population":1214,"departement":{"code":"37","nom":"Indre-et-Loire"},"region":{"code":"24","nom":"Centre-Val de Loire"}},{"nom":"Ports-sur-Vienne","code":"37187","codesPostaux":["37800"],"centre":{"type":"Point","coordinates":[0.5332,47.0163]},"surface":1108.41,"population":353,"departement":{"code":"37","nom":"Indre-et-Loire"},"region":{"code":"24","nom":"Centre-Val de Loire"}},{"nom":"Pouzay","code":"37188","codesPostaux":["37800"],"centre":{"type":"Point","coordinates":[0.5502,47.0884]},"surface":1408.81,"population":881,"departement":{"code":"37","nom":"Indre-et-Loire"},"region":{"code":"24","nom":"Centre-Val de Loire"}},{"nom":"Preuilly-sur-Claise","code":"37189","codesPostaux":["37290"],"centre":{"type":"Point","coordinates":[0.9304,46.8504]},"surface":1220.12,"population":1027,"departement":{"code":"37","nom":"Indre-et-Loire"},"region":{"code":"24","nom":"Centre-Val de Loire"}},{"nom":"Pussigny","code":"37190","codesPostaux":["37800"],"centre":{"type":"Point","coordinates":[0.5447,46.9903]},"surface":856.05,"population":160,"departement":{"code":"37","nom":"Indre-et-Loire"},"region":{"code":"24","nom":"Centre-Val de Loire"}},{"nom":"Razines","code":"37191","codesPostaux":["37120"],"centre":{"type":"Point","coordinates":[0.3946,46.9715]},"surface":1471.79,"population":221,"departement":{"code":"37","nom":"Indre-et-Loire"},"region":{"code":"24","nom":"Centre-Val de Loire"}},{"nom":"Reignac-sur-Indre","code":"37192","codesPostaux":["37310"],"centre":{"type":"Point","coordinates":[0.9181,47.2213]},"surface":2211.84,"population":1309,"departement":{"code":"37","nom":"Indre-et-Loire"},"region":{"code":"24","nom":"Centre-Val de Loire"}},{"nom":"Restigné","code":"37193","codesPostaux":["37140"],"centre":{"type":"Point","coordinates":[0.2383,47.2951]},"surface":2028.9,"population":1121,"departement":{"code":"37","nom":"Indre-et-Loire"},"region":{"code":"24","nom":"Centre-Val de Loire"}},{"nom":"Reugny","code":"37194","codesPostaux":["37380"],"centre":{"type":"Point","coordinates":[0.8743,47.4857]},"surface":2973.05,"population":1764,"departement":{"code":"37","nom":"Indre-et-Loire"},"region":{"code":"24","nom":"Centre-Val de Loire"}},{"nom":"La Riche","code":"37195","codesPostaux":["37520"],"centre":{"type":"Point","coordinates":[0.6371,47.3815]},"surface":814.65,"population":10349,"departement":{"code":"37","nom":"Indre-et-Loire"},"region":{"code":"24","nom":"Centre-Val de Loire"}},{"nom":"Richelieu","code":"37196","codesPostaux":["37120"],"centre":{"type":"Point","coordinates":[0.3139,47.0144]},"surface":499.66,"population":1620,"departement":{"code":"37","nom":"Indre-et-Loire"},"region":{"code":"24","nom":"Centre-Val de Loire"}},{"nom":"Rigny-Ussé","code":"37197","codesPostaux":["37420"],"centre":{"type":"Point","coordinates":[0.3033,47.251]},"surface":1396.67,"population":526,"departement":{"code":"37","nom":"Indre-et-Loire"},"region":{"code":"24","nom":"Centre-Val de Loire"}},{"nom":"Rillé","code":"37198","codesPostaux":["37340"],"centre":{"type":"Point","coordinates":[0.225,47.4499]},"surface":2381.93,"population":314,"departement":{"code":"37","nom":"Indre-et-Loire"},"region":{"code":"24","nom":"Centre-Val de Loire"}},{"nom":"Rilly-sur-Vienne","code":"37199","codesPostaux":["37220"],"centre":{"type":"Point","coordinates":[0.5032,47.0527]},"surface":1317.64,"population":462,"departement":{"code":"37","nom":"Indre-et-Loire"},"region":{"code":"24","nom":"Centre-Val de Loire"}},{"nom":"Rivarennes","code":"37200","codesPostaux":["37190"],"centre":{"type":"Point","coordinates":[0.3621,47.2433]},"surface":1886.01,"population":988,"departement":{"code":"37","nom":"Indre-et-Loire"},"region":{"code":"24","nom":"Centre-Val de Loire"}},{"nom":"Rivière","code":"37201","codesPostaux":["37500"],"centre":{"type":"Point","coordinates":[0.2661,47.1431]},"surface":366.4,"population":700,"departement":{"code":"37","nom":"Indre-et-Loire"},"region":{"code":"24","nom":"Centre-Val de Loire"}},{"nom":"La Roche-Clermault","code":"37202","codesPostaux":["37500"],"centre":{"type":"Point","coordinates":[0.2128,47.1341]},"surface":1806.59,"population":546,"departement":{"code":"37","nom":"Indre-et-Loire"},"region":{"code":"24","nom":"Centre-Val de Loire"}},{"nom":"Rochecorbon","code":"37203","codesPostaux":["37210"],"centre":{"type":"Point","coordinates":[0.7605,47.4338]},"surface":1682.33,"population":3220,"departement":{"code":"37","nom":"Indre-et-Loire"},"region":{"code":"24","nom":"Centre-Val de Loire"}},{"nom":"Rouziers-de-Touraine","code":"37204","codesPostaux":["37360"],"centre":{"type":"Point","coordinates":[0.6439,47.528]},"surface":1803.69,"population":1355,"departement":{"code":"37","nom":"Indre-et-Loire"},"region":{"code":"24","nom":"Centre-Val de Loire"}},{"nom":"Saché","code":"37205","codesPostaux":["37190"],"centre":{"type":"Point","coordinates":[0.5323,47.2386]},"surface":2800.62,"population":1405,"departement":{"code":"37","nom":"Indre-et-Loire"},"region":{"code":"24","nom":"Centre-Val de Loire"}},{"nom":"Saint-Antoine-du-Rocher","code":"37206","codesPostaux":["37360"],"centre":{"type":"Point","coordinates":[0.6294,47.4981]},"surface":2415.65,"population":1786,"departement":{"code":"37","nom":"Indre-et-Loire"},"region":{"code":"24","nom":"Centre-Val de Loire"}},{"nom":"Saint-Aubin-le-Dépeint","code":"37207","codesPostaux":["37370"],"centre":{"type":"Point","coordinates":[0.3981,47.619]},"surface":1510.26,"population":351,"departement":{"code":"37","nom":"Indre-et-Loire"},"region":{"code":"24","nom":"Centre-Val de Loire"}},{"nom":"Saint-Avertin","code":"37208","codesPostaux":["37550"],"centre":{"type":"Point","coordinates":[0.7338,47.3545]},"surface":1320.91,"population":15075,"departement":{"code":"37","nom":"Indre-et-Loire"},"region":{"code":"24","nom":"Centre-Val de Loire"}},{"nom":"Saint-Benoît-la-Forêt","code":"37210","codesPostaux":["37500"],"centre":{"type":"Point","coordinates":[0.3215,47.209]},"surface":3568.32,"population":848,"departement":{"code":"37","nom":"Indre-et-Loire"},"region":{"code":"24","nom":"Centre-Val de Loire"}},{"nom":"Saint-Branchs","code":"37211","codesPostaux":["37320"],"centre":{"type":"Point","coordinates":[0.7571,47.2164]},"surface":5194.03,"population":2632,"departement":{"code":"37","nom":"Indre-et-Loire"},"region":{"code":"24","nom":"Centre-Val de Loire"}},{"nom":"Sainte-Catherine-de-Fierbois","code":"37212","codesPostaux":["37800"],"centre":{"type":"Point","coordinates":[0.6789,47.1589]},"surface":1564.73,"population":760,"departement":{"code":"37","nom":"Indre-et-Loire"},"region":{"code":"24","nom":"Centre-Val de Loire"}},{"nom":"Saint-Christophe-sur-le-Nais","code":"37213","codesPostaux":["37370"],"centre":{"type":"Point","coordinates":[0.4647,47.6243]},"surface":1822.12,"population":1077,"departement":{"code":"37","nom":"Indre-et-Loire"},"region":{"code":"24","nom":"Centre-Val de Loire"}},{"nom":"Saint-Cyr-sur-Loire","code":"37214","codesPostaux":["37540"],"centre":{"type":"Point","coordinates":[0.6554,47.4188]},"surface":1347.82,"population":16766,"departement":{"code":"37","nom":"Indre-et-Loire"},"region":{"code":"24","nom":"Centre-Val de Loire"}},{"nom":"Saint-Épain","code":"37216","codesPostaux":["37800"],"centre":{"type":"Point","coordinates":[0.5773,47.1505]},"surface":6330.54,"population":1486,"departement":{"code":"37","nom":"Indre-et-Loire"},"region":{"code":"24","nom":"Centre-Val de Loire"}},{"nom":"Saint-Étienne-de-Chigny","code":"37217","codesPostaux":["37230"],"centre":{"type":"Point","coordinates":[0.5002,47.3933]},"surface":2133.06,"population":1595,"departement":{"code":"37","nom":"Indre-et-Loire"},"region":{"code":"24","nom":"Centre-Val de Loire"}},{"nom":"Saint-Flovier","code":"37218","codesPostaux":["37600"],"centre":{"type":"Point","coordinates":[1.0099,46.9711]},"surface":2952.38,"population":577,"departement":{"code":"37","nom":"Indre-et-Loire"},"region":{"code":"24","nom":"Centre-Val de Loire"}},{"nom":"Saint-Genouph","code":"37219","codesPostaux":["37510"],"centre":{"type":"Point","coordinates":[0.5866,47.3733]},"surface":477.91,"population":1022,"departement":{"code":"37","nom":"Indre-et-Loire"},"region":{"code":"24","nom":"Centre-Val de Loire"}},{"nom":"Saint-Germain-sur-Vienne","code":"37220","codesPostaux":["37500"],"centre":{"type":"Point","coordinates":[0.1188,47.1825]},"surface":1340.27,"population":358,"departement":{"code":"37","nom":"Indre-et-Loire"},"region":{"code":"24","nom":"Centre-Val de Loire"}},{"nom":"Saint-Hippolyte","code":"37221","codesPostaux":["37600"],"centre":{"type":"Point","coordinates":[1.1307,47.055]},"surface":3291.09,"population":620,"departement":{"code":"37","nom":"Indre-et-Loire"},"region":{"code":"24","nom":"Centre-Val de Loire"}},{"nom":"Saint-Jean-Saint-Germain","code":"37222","codesPostaux":["37600"],"centre":{"type":"Point","coordinates":[1.0597,47.084]},"surface":2148.16,"population":746,"departement":{"code":"37","nom":"Indre-et-Loire"},"region":{"code":"24","nom":"Centre-Val de Loire"}},{"nom":"Saint-Laurent-de-Lin","code":"37223","codesPostaux":["37330"],"centre":{"type":"Point","coordinates":[0.2679,47.5133]},"surface":1386.76,"population":344,"departement":{"code":"37","nom":"Indre-et-Loire"},"region":{"code":"24","nom":"Centre-Val de Loire"}},{"nom":"Saint-Laurent-en-Gâtines","code":"37224","codesPostaux":["37380"],"centre":{"type":"Point","coordinates":[0.767,47.5875]},"surface":3176.32,"population":873,"departement":{"code":"37","nom":"Indre-et-Loire"},"region":{"code":"24","nom":"Centre-Val de Loire"}},{"nom":"Saint-Martin-le-Beau","code":"37225","codesPostaux":["37270"],"centre":{"type":"Point","coordinates":[0.9078,47.3586]},"surface":1913.47,"population":3193,"departement":{"code":"37","nom":"Indre-et-Loire"},"region":{"code":"24","nom":"Centre-Val de Loire"}},{"nom":"Sainte-Maure-de-Touraine","code":"37226","codesPostaux":["37800"],"centre":{"type":"Point","coordinates":[0.6488,47.1099]},"surface":4071.69,"population":4118,"departement":{"code":"37","nom":"Indre-et-Loire"},"region":{"code":"24","nom":"Centre-Val de Loire"}},{"nom":"Saint-Nicolas-de-Bourgueil","code":"37228","codesPostaux":["37140"],"centre":{"type":"Point","coordinates":[0.1216,47.3002]},"surface":3640.97,"population":1118,"departement":{"code":"37","nom":"Indre-et-Loire"},"region":{"code":"24","nom":"Centre-Val de Loire"}},{"nom":"Saint-Nicolas-des-Motets","code":"37229","codesPostaux":["37110"],"centre":{"type":"Point","coordinates":[1.0335,47.5836]},"surface":1274.62,"population":241,"departement":{"code":"37","nom":"Indre-et-Loire"},"region":{"code":"24","nom":"Centre-Val de Loire"}},{"nom":"Saint-Ouen-les-Vignes","code":"37230","codesPostaux":["37530"],"centre":{"type":"Point","coordinates":[0.9989,47.4821]},"surface":1892.21,"population":975,"departement":{"code":"37","nom":"Indre-et-Loire"},"region":{"code":"24","nom":"Centre-Val de Loire"}},{"nom":"Saint-Paterne-Racan","code":"37231","codesPostaux":["37370"],"centre":{"type":"Point","coordinates":[0.4644,47.5791]},"surface":4815.2,"population":1697,"departement":{"code":"37","nom":"Indre-et-Loire"},"region":{"code":"24","nom":"Centre-Val de Loire"}},{"nom":"Coteaux-sur-Loire","code":"37232","codesPostaux":["37130","37140"],"centre":{"type":"Point","coordinates":[0.3109,47.3035]},"surface":4430.36,"population":1872,"departement":{"code":"37","nom":"Indre-et-Loire"},"region":{"code":"24","nom":"Centre-Val de Loire"}},{"nom":"Saint-Pierre-des-Corps","code":"37233","codesPostaux":["37700"],"centre":{"type":"Point","coordinates":[0.7334,47.3876]},"surface":1130.63,"population":15698,"departement":{"code":"37","nom":"Indre-et-Loire"},"region":{"code":"24","nom":"Centre-Val de Loire"}},{"nom":"Saint-Quentin-sur-Indrois","code":"37234","codesPostaux":["37310"],"centre":{"type":"Point","coordinates":[1.0395,47.2108]},"surface":2727.28,"population":492,"departement":{"code":"37","nom":"Indre-et-Loire"},"region":{"code":"24","nom":"Centre-Val de Loire"}},{"nom":"Saint-Règle","code":"37236","codesPostaux":["37530"],"centre":{"type":"Point","coordinates":[1.0321,47.4102]},"surface":632.23,"population":626,"departement":{"code":"37","nom":"Indre-et-Loire"},"region":{"code":"24","nom":"Centre-Val de Loire"}},{"nom":"Saint-Roch","code":"37237","codesPostaux":["37390"],"centre":{"type":"Point","coordinates":[0.5744,47.447]},"surface":481.05,"population":1335,"departement":{"code":"37","nom":"Indre-et-Loire"},"region":{"code":"24","nom":"Centre-Val de Loire"}},{"nom":"Saint-Senoch","code":"37238","codesPostaux":["37600"],"centre":{"type":"Point","coordinates":[0.9571,47.0588]},"surface":2412.69,"population":520,"departement":{"code":"37","nom":"Indre-et-Loire"},"region":{"code":"24","nom":"Centre-Val de Loire"}},{"nom":"Saunay","code":"37240","codesPostaux":["37110"],"centre":{"type":"Point","coordinates":[0.9598,47.5977]},"surface":2596.48,"population":643,"departement":{"code":"37","nom":"Indre-et-Loire"},"region":{"code":"24","nom":"Centre-Val de Loire"}},{"nom":"Savigné-sur-Lathan","code":"37241","codesPostaux":["37340"],"centre":{"type":"Point","coordinates":[0.3202,47.4445]},"surface":1779.17,"population":1314,"departement":{"code":"37","nom":"Indre-et-Loire"},"region":{"code":"24","nom":"Centre-Val de Loire"}},{"nom":"Savigny-en-Véron","code":"37242","codesPostaux":["37420"],"centre":{"type":"Point","coordinates":[0.1189,47.2096]},"surface":2120.6,"population":1539,"departement":{"code":"37","nom":"Indre-et-Loire"},"region":{"code":"24","nom":"Centre-Val de Loire"}},{"nom":"Savonnières","code":"37243","codesPostaux":["37510"],"centre":{"type":"Point","coordinates":[0.5574,47.3452]},"surface":1706.62,"population":3346,"departement":{"code":"37","nom":"Indre-et-Loire"},"region":{"code":"24","nom":"Centre-Val de Loire"}},{"nom":"Sazilly","code":"37244","codesPostaux":["37220"],"centre":{"type":"Point","coordinates":[0.3509,47.1248]},"surface":1064.01,"population":269,"departement":{"code":"37","nom":"Indre-et-Loire"},"region":{"code":"24","nom":"Centre-Val de Loire"}},{"nom":"Semblançay","code":"37245","codesPostaux":["37360"],"centre":{"type":"Point","coordinates":[0.5659,47.5014]},"surface":3573.56,"population":2170,"departement":{"code":"37","nom":"Indre-et-Loire"},"region":{"code":"24","nom":"Centre-Val de Loire"}},{"nom":"Sennevières","code":"37246","codesPostaux":["37600"],"centre":{"type":"Point","coordinates":[1.1054,47.1134]},"surface":2342.71,"population":217,"departement":{"code":"37","nom":"Indre-et-Loire"},"region":{"code":"24","nom":"Centre-Val de Loire"}},{"nom":"Sepmes","code":"37247","codesPostaux":["37800"],"centre":{"type":"Point","coordinates":[0.6835,47.0837]},"surface":2878.83,"population":605,"departement":{"code":"37","nom":"Indre-et-Loire"},"region":{"code":"24","nom":"Centre-Val de Loire"}},{"nom":"Seuilly","code":"37248","codesPostaux":["37500"],"centre":{"type":"Point","coordinates":[0.1634,47.1276]},"surface":1572.81,"population":392,"departement":{"code":"37","nom":"Indre-et-Loire"},"region":{"code":"24","nom":"Centre-Val de Loire"}},{"nom":"Sonzay","code":"37249","codesPostaux":["37360"],"centre":{"type":"Point","coordinates":[0.4773,47.5128]},"surface":4822.25,"population":1414,"departement":{"code":"37","nom":"Indre-et-Loire"},"region":{"code":"24","nom":"Centre-Val de Loire"}},{"nom":"Sorigny","code":"37250","codesPostaux":["37250"],"centre":{"type":"Point","coordinates":[0.6871,47.2281]},"surface":4343.72,"population":2877,"departement":{"code":"37","nom":"Indre-et-Loire"},"region":{"code":"24","nom":"Centre-Val de Loire"}},{"nom":"Souvigné","code":"37251","codesPostaux":["37330"],"centre":{"type":"Point","coordinates":[0.3997,47.5195]},"surface":2485.05,"population":932,"departement":{"code":"37","nom":"Indre-et-Loire"},"region":{"code":"24","nom":"Centre-Val de Loire"}},{"nom":"Souvigny-de-Touraine","code":"37252","codesPostaux":["37530"],"centre":{"type":"Point","coordinates":[1.0825,47.3997]},"surface":2584.28,"population":391,"departement":{"code":"37","nom":"Indre-et-Loire"},"region":{"code":"24","nom":"Centre-Val de Loire"}},{"nom":"Sublaines","code":"37253","codesPostaux":["37310"],"centre":{"type":"Point","coordinates":[0.9881,47.2719]},"surface":1448.05,"population":176,"departement":{"code":"37","nom":"Indre-et-Loire"},"region":{"code":"24","nom":"Centre-Val de Loire"}},{"nom":"Tauxigny-Saint-Bauld","code":"37254","codesPostaux":["37310"],"centre":{"type":"Point","coordinates":[0.8266,47.2128]},"surface":4116.15,"population":1683,"departement":{"code":"37","nom":"Indre-et-Loire"},"region":{"code":"24","nom":"Centre-Val de Loire"}},{"nom":"Tavant","code":"37255","codesPostaux":["37220"],"centre":{"type":"Point","coordinates":[0.3857,47.1202]},"surface":521.39,"population":267,"departement":{"code":"37","nom":"Indre-et-Loire"},"region":{"code":"24","nom":"Centre-Val de Loire"}},{"nom":"Theneuil","code":"37256","codesPostaux":["37220"],"centre":{"type":"Point","coordinates":[0.4305,47.0991]},"surface":995.29,"population":289,"departement":{"code":"37","nom":"Indre-et-Loire"},"region":{"code":"24","nom":"Centre-Val de Loire"}},{"nom":"Thilouze","code":"37257","codesPostaux":["37260"],"centre":{"type":"Point","coordinates":[0.6039,47.2204]},"surface":3397.71,"population":1798,"departement":{"code":"37","nom":"Indre-et-Loire"},"region":{"code":"24","nom":"Centre-Val de Loire"}},{"nom":"Thizay","code":"37258","codesPostaux":["37500"],"centre":{"type":"Point","coordinates":[0.1409,47.165]},"surface":683.42,"population":302,"departement":{"code":"37","nom":"Indre-et-Loire"},"region":{"code":"24","nom":"Centre-Val de Loire"}},{"nom":"Tournon-Saint-Pierre","code":"37259","codesPostaux":["37290"],"centre":{"type":"Point","coordinates":[0.9452,46.7639]},"surface":1498.24,"population":437,"departement":{"code":"37","nom":"Indre-et-Loire"},"region":{"code":"24","nom":"Centre-Val de Loire"}},{"nom":"La Tour-Saint-Gelin","code":"37260","codesPostaux":["37120"],"centre":{"type":"Point","coordinates":[0.3933,47.0636]},"surface":1347.42,"population":502,"departement":{"code":"37","nom":"Indre-et-Loire"},"region":{"code":"24","nom":"Centre-Val de Loire"}},{"nom":"Tours","code":"37261","codesPostaux":["37000","37100","37200"],"centre":{"type":"Point","coordinates":[0.6949,47.3943]},"surface":3337.27,"population":138668,"departement":{"code":"37","nom":"Indre-et-Loire"},"region":{"code":"24","nom":"Centre-Val de Loire"}},{"nom":"Trogues","code":"37262","codesPostaux":["37220"],"centre":{"type":"Point","coordinates":[0.5129,47.1113]},"surface":945.28,"population":289,"departement":{"code":"37","nom":"Indre-et-Loire"},"region":{"code":"24","nom":"Centre-Val de Loire"}},{"nom":"Truyes","code":"37263","codesPostaux":["37320"],"centre":{"type":"Point","coordinates":[0.8535,47.2876]},"surface":1653.24,"population":2430,"departement":{"code":"37","nom":"Indre-et-Loire"},"region":{"code":"24","nom":"Centre-Val de Loire"}},{"nom":"Vallères","code":"37264","codesPostaux":["37190"],"centre":{"type":"Point","coordinates":[0.4722,47.3073]},"surface":1476.16,"population":1339,"departement":{"code":"37","nom":"Indre-et-Loire"},"region":{"code":"24","nom":"Centre-Val de Loire"}},{"nom":"Varennes","code":"37265","codesPostaux":["37600"],"centre":{"type":"Point","coordinates":[0.9151,47.074]},"surface":1107.29,"population":254,"departement":{"code":"37","nom":"Indre-et-Loire"},"region":{"code":"24","nom":"Centre-Val de Loire"}},{"nom":"Veigné","code":"37266","codesPostaux":["37250"],"centre":{"type":"Point","coordinates":[0.7243,47.286]},"surface":2699.97,"population":6734,"departement":{"code":"37","nom":"Indre-et-Loire"},"region":{"code":"24","nom":"Centre-Val de Loire"}},{"nom":"Véretz","code":"37267","codesPostaux":["37270"],"centre":{"type":"Point","coordinates":[0.8149,47.3497]},"surface":1332.01,"population":4682,"departement":{"code":"37","nom":"Indre-et-Loire"},"region":{"code":"24","nom":"Centre-Val de Loire"}},{"nom":"Verneuil-le-Château","code":"37268","codesPostaux":["37120"],"centre":{"type":"Point","coordinates":[0.4571,47.0427]},"surface":839.34,"population":125,"departement":{"code":"37","nom":"Indre-et-Loire"},"region":{"code":"24","nom":"Centre-Val de Loire"}},{"nom":"Verneuil-sur-Indre","code":"37269","codesPostaux":["37600"],"centre":{"type":"Point","coordinates":[1.0312,47.0394]},"surface":4063.59,"population":467,"departement":{"code":"37","nom":"Indre-et-Loire"},"region":{"code":"24","nom":"Centre-Val de Loire"}},{"nom":"Vernou-sur-Brenne","code":"37270","codesPostaux":["37210"],"centre":{"type":"Point","coordinates":[0.8407,47.4399]},"surface":2584.06,"population":2871,"departement":{"code":"37","nom":"Indre-et-Loire"},"region":{"code":"24","nom":"Centre-Val de Loire"}},{"nom":"Villaines-les-Rochers","code":"37271","codesPostaux":["37190"],"centre":{"type":"Point","coordinates":[0.4979,47.2229]},"surface":1266.44,"population":1043,"departement":{"code":"37","nom":"Indre-et-Loire"},"region":{"code":"24","nom":"Centre-Val de Loire"}},{"nom":"Villandry","code":"37272","codesPostaux":["37510"],"centre":{"type":"Point","coordinates":[0.4898,47.3321]},"surface":1775.58,"population":1138,"departement":{"code":"37","nom":"Indre-et-Loire"},"region":{"code":"24","nom":"Centre-Val de Loire"}},{"nom":"La Ville-aux-Dames","code":"37273","codesPostaux":["37700"],"centre":{"type":"Point","coordinates":[0.7739,47.3894]},"surface":797.47,"population":5575,"departement":{"code":"37","nom":"Indre-et-Loire"},"region":{"code":"24","nom":"Centre-Val de Loire"}},{"nom":"Villebourg","code":"37274","codesPostaux":["37370"],"centre":{"type":"Point","coordinates":[0.5321,47.6343]},"surface":1234.22,"population":304,"departement":{"code":"37","nom":"Indre-et-Loire"},"region":{"code":"24","nom":"Centre-Val de Loire"}},{"nom":"Villedômain","code":"37275","codesPostaux":["37460"],"centre":{"type":"Point","coordinates":[1.2502,47.0459]},"surface":1663.39,"population":127,"departement":{"code":"37","nom":"Indre-et-Loire"},"region":{"code":"24","nom":"Centre-Val de Loire"}},{"nom":"Villedômer","code":"37276","codesPostaux":["37110"],"centre":{"type":"Point","coordinates":[0.8681,47.55]},"surface":3522.15,"population":1299,"departement":{"code":"37","nom":"Indre-et-Loire"},"region":{"code":"24","nom":"Centre-Val de Loire"}},{"nom":"Villeloin-Coulangé","code":"37277","codesPostaux":["37460"],"centre":{"type":"Point","coordinates":[1.2303,47.1341]},"surface":3502.5,"population":584,"departement":{"code":"37","nom":"Indre-et-Loire"},"region":{"code":"24","nom":"Centre-Val de Loire"}},{"nom":"Villeperdue","code":"37278","codesPostaux":["37260"],"centre":{"type":"Point","coordinates":[0.6369,47.202]},"surface":1202.89,"population":1110,"departement":{"code":"37","nom":"Indre-et-Loire"},"region":{"code":"24","nom":"Centre-Val de Loire"}},{"nom":"Villiers-au-Bouin","code":"37279","codesPostaux":["37330"],"centre":{"type":"Point","coordinates":[0.2848,47.58]},"surface":3040.32,"population":735,"departement":{"code":"37","nom":"Indre-et-Loire"},"region":{"code":"24","nom":"Centre-Val de Loire"}},{"nom":"Vou","code":"37280","codesPostaux":["37240"],"centre":{"type":"Point","coordinates":[0.8456,47.0926]},"surface":2213.67,"population":245,"departement":{"code":"37","nom":"Indre-et-Loire"},"region":{"code":"24","nom":"Centre-Val de Loire"}},{"nom":"Vouvray","code":"37281","codesPostaux":["37210"],"centre":{"type":"Point","coordinates":[0.8044,47.4311]},"surface":2309.49,"population":3397,"departement":{"code":"37","nom":"Indre-et-Loire"},"region":{"code":"24","nom":"Centre-Val de Loire"}},{"nom":"Yzeures-sur-Creuse","code":"37282","codesPostaux":["37290"],"centre":{"type":"Point","coordinates":[0.8772,46.7873]},"surface":5551.54,"population":1345,"departement":{"code":"37","nom":"Indre-et-Loire"},"region":{"code":"24","nom":"Centre-Val de Loire"}}]