[{"nom":"Achères-la-Forêt","code":"77001","codesPostaux":["77760"],"centre":{"type":"Point","coordinates":[2.5653,48.3476]},"surface":1261.02,"population":1191,"departement":{"code":"77","nom":"Seine-et-Marne"},"region":{"code":"11","nom":"Île-de-France"}},{"nom":"Amillis","code":"77002","codesPostaux":["77120"],"centre":{"type":"Point","coordinates":[3.14,48.7327]},"surface":2013.71,"population":830,"departement":{"code":"77","nom":"Seine-et-Marne"},"region":{"code":"11","nom":"Île-de-France"}},{"nom":"Amponville","code":"77003","codesPostaux":["77760"],"centre":{"type":"Point","coordinates":[2.5295,48.2897]},"surface":1193.01,"population":349,"departement":{"code":"77","nom":"Seine-et-Marne"},"region":{"code":"11","nom":"Île-de-France"}},{"nom":"Andrezel","code":"77004","codesPostaux":["77390"],"centre":{"type":"Point","coordinates":[2.8051,48.6139]},"surface":807.61,"population":336,"departement":{"code":"77","nom":"Seine-et-Marne"},"region":{"code":"11","nom":"Île-de-France"}},{"nom":"Annet-sur-Marne","code":"77005","codesPostaux":["77410"],"centre":{"type":"Point","coordinates":[2.7067,48.9232]},"surface":1312.66,"population":3408,"departement":{"code":"77","nom":"Seine-et-Marne"},"region":{"code":"11","nom":"Île-de-France"}},{"nom":"Arbonne-la-Forêt","code":"77006","codesPostaux":["77630"],"centre":{"type":"Point","coordinates":[2.5561,48.4064]},"surface":1503.03,"population":1021,"departement":{"code":"77","nom":"Seine-et-Marne"},"region":{"code":"11","nom":"Île-de-France"}},{"nom":"Argentières","code":"77007","codesPostaux":["77390"],"centre":{"type":"Point","coordinates":[2.8686,48.6524]},"surface":256.85,"population":361,"departement":{"code":"77","nom":"Seine-et-Marne"},"region":{"code":"11","nom":"Île-de-France"}},{"nom":"Armentières-en-Brie","code":"77008","codesPostaux":["77440"],"centre":{"type":"Point","coordinates":[3.0124,48.9773]},"surface":719.95,"population":1176,"departement":{"code":"77","nom":"Seine-et-Marne"},"region":{"code":"11","nom":"Île-de-France"}},{"nom":"Arville","code":"77009","codesPostaux":["77890"],"centre":{"type":"Point","coordinates":[2.5578,48.1819]},"surface":1142.04,"population":145,"departement":{"code":"77","nom":"Seine-et-Marne"},"region":{"code":"11","nom":"Île-de-France"}},{"nom":"Aubepierre-Ozouer-le-Repos","code":"77010","codesPostaux":["77720"],"centre":{"type":"Point","coordinates":[2.8951,48.619]},"surface":2680.63,"population":984,"departement":{"code":"77","nom":"Seine-et-Marne"},"region":{"code":"11","nom":"Île-de-France"}},{"nom":"Aufferville","code":"77011","codesPostaux":["77570"],"centre":{"type":"Point","coordinates":[2.6022,48.2028]},"surface":1775.25,"population":482,"departement":{"code":"77","nom":"Seine-et-Marne"},"region":{"code":"11","nom":"Île-de-France"}},{"nom":"Augers-en-Brie","code":"77012","codesPostaux":["77560"],"centre":{"type":"Point","coordinates":[3.354,48.6668]},"surface":1339.22,"population":265,"departement":{"code":"77","nom":"Seine-et-Marne"},"region":{"code":"11","nom":"Île-de-France"}},{"nom":"Aulnoy","code":"77013","codesPostaux":["77120"],"centre":{"type":"Point","coordinates":[3.0887,48.8488]},"surface":1425.94,"population":362,"departement":{"code":"77","nom":"Seine-et-Marne"},"region":{"code":"11","nom":"Île-de-France"}},{"nom":"Avon","code":"77014","codesPostaux":["77210"],"centre":{"type":"Point","coordinates":[2.7337,48.4124]},"surface":380.89,"population":13651,"departement":{"code":"77","nom":"Seine-et-Marne"},"region":{"code":"11","nom":"Île-de-France"}},{"nom":"Baby","code":"77015","codesPostaux":["77480"],"centre":{"type":"Point","coordinates":[3.3462,48.3925]},"surface":411.01,"population":113,"departement":{"code":"77","nom":"Seine-et-Marne"},"region":{"code":"11","nom":"Île-de-France"}},{"nom":"Bagneaux-sur-Loing","code":"77016","codesPostaux":["77167"],"centre":{"type":"Point","coordinates":[2.708,48.2206]},"surface":531.96,"population":1570,"departement":{"code":"77","nom":"Seine-et-Marne"},"region":{"code":"11","nom":"Île-de-France"}},{"nom":"Bailly-Romainvilliers","code":"77018","codesPostaux":["77700"],"centre":{"type":"Point","coordinates":[2.8191,48.845]},"surface":851.82,"population":6980,"departement":{"code":"77","nom":"Seine-et-Marne"},"region":{"code":"11","nom":"Île-de-France"}},{"nom":"Balloy","code":"77019","codesPostaux":["77118"],"centre":{"type":"Point","coordinates":[3.1493,48.3951]},"surface":1338.84,"population":359,"departement":{"code":"77","nom":"Seine-et-Marne"},"region":{"code":"11","nom":"Île-de-France"}},{"nom":"Bannost-Villegagnon","code":"77020","codesPostaux":["77970"],"centre":{"type":"Point","coordinates":[3.1952,48.6762]},"surface":1945.84,"population":667,"departement":{"code":"77","nom":"Seine-et-Marne"},"region":{"code":"11","nom":"Île-de-France"}},{"nom":"Barbey","code":"77021","codesPostaux":["77130"],"centre":{"type":"Point","coordinates":[3.0481,48.3655]},"surface":430.69,"population":153,"departement":{"code":"77","nom":"Seine-et-Marne"},"region":{"code":"11","nom":"Île-de-France"}},{"nom":"Barbizon","code":"77022","codesPostaux":["77630"],"centre":{"type":"Point","coordinates":[2.6034,48.4472]},"surface":535.05,"population":1261,"departement":{"code":"77","nom":"Seine-et-Marne"},"region":{"code":"11","nom":"Île-de-France"}},{"nom":"Barcy","code":"77023","codesPostaux":["77910"],"centre":{"type":"Point","coordinates":[2.8793,49.0159]},"surface":700.98,"population":387,"departement":{"code":"77","nom":"Seine-et-Marne"},"region":{"code":"11","nom":"Île-de-France"}},{"nom":"Bassevelle","code":"77024","codesPostaux":["77750"],"centre":{"type":"Point","coordinates":[3.2766,48.9244]},"surface":1748.82,"population":374,"departement":{"code":"77","nom":"Seine-et-Marne"},"region":{"code":"11","nom":"Île-de-France"}},{"nom":"Bazoches-lès-Bray","code":"77025","codesPostaux":["77118"],"centre":{"type":"Point","coordinates":[3.1902,48.3978]},"surface":2264.86,"population":878,"departement":{"code":"77","nom":"Seine-et-Marne"},"region":{"code":"11","nom":"Île-de-France"}},{"nom":"Beauchery-Saint-Martin","code":"77026","codesPostaux":["77560"],"centre":{"type":"Point","coordinates":[3.4218,48.6005]},"surface":2783.15,"population":384,"departement":{"code":"77","nom":"Seine-et-Marne"},"region":{"code":"11","nom":"Île-de-France"}},{"nom":"Beaumont-du-Gâtinais","code":"77027","codesPostaux":["77890"],"centre":{"type":"Point","coordinates":[2.4896,48.1435]},"surface":1658.1,"population":1129,"departement":{"code":"77","nom":"Seine-et-Marne"},"region":{"code":"11","nom":"Île-de-France"}},{"nom":"Beauvoir","code":"77029","codesPostaux":["77390"],"centre":{"type":"Point","coordinates":[2.8669,48.6432]},"surface":395.61,"population":185,"departement":{"code":"77","nom":"Seine-et-Marne"},"region":{"code":"11","nom":"Île-de-France"}},{"nom":"Bellot","code":"77030","codesPostaux":["77510"],"centre":{"type":"Point","coordinates":[3.3252,48.8431]},"surface":1633.78,"population":777,"departement":{"code":"77","nom":"Seine-et-Marne"},"region":{"code":"11","nom":"Île-de-France"}},{"nom":"Bernay-Vilbert","code":"77031","codesPostaux":["77540"],"centre":{"type":"Point","coordinates":[2.9353,48.6772]},"surface":1687.62,"population":1005,"departement":{"code":"77","nom":"Seine-et-Marne"},"region":{"code":"11","nom":"Île-de-France"}},{"nom":"Beton-Bazoches","code":"77032","codesPostaux":["77320"],"centre":{"type":"Point","coordinates":[3.2489,48.7059]},"surface":1816.46,"population":890,"departement":{"code":"77","nom":"Seine-et-Marne"},"region":{"code":"11","nom":"Île-de-France"}},{"nom":"Bezalles","code":"77033","codesPostaux":["77970"],"centre":{"type":"Point","coordinates":[3.2392,48.6674]},"surface":265.05,"population":221,"departement":{"code":"77","nom":"Seine-et-Marne"},"region":{"code":"11","nom":"Île-de-France"}},{"nom":"Blandy","code":"77034","codesPostaux":["77115"],"centre":{"type":"Point","coordinates":[2.796,48.5614]},"surface":1407.02,"population":763,"departement":{"code":"77","nom":"Seine-et-Marne"},"region":{"code":"11","nom":"Île-de-France"}},{"nom":"Blennes","code":"77035","codesPostaux":["77940"],"centre":{"type":"Point","coordinates":[3.0135,48.241]},"surface":2024.92,"population":546,"departement":{"code":"77","nom":"Seine-et-Marne"},"region":{"code":"11","nom":"Île-de-France"}},{"nom":"Boisdon","code":"77036","codesPostaux":["77970"],"centre":{"type":"Point","coordinates":[3.2243,48.6752]},"surface":435.36,"population":131,"departement":{"code":"77","nom":"Seine-et-Marne"},"region":{"code":"11","nom":"Île-de-France"}},{"nom":"Bois-le-Roi","code":"77037","codesPostaux":["77590"],"centre":{"type":"Point","coordinates":[2.7091,48.4735]},"surface":693.98,"population":6072,"departement":{"code":"77","nom":"Seine-et-Marne"},"region":{"code":"11","nom":"Île-de-France"}},{"nom":"Boissettes","code":"77038","codesPostaux":["77350"],"centre":{"type":"Point","coordinates":[2.6164,48.5237]},"surface":156.36,"population":437,"departement":{"code":"77","nom":"Seine-et-Marne"},"region":{"code":"11","nom":"Île-de-France"}},{"nom":"Boissise-la-Bertrand","code":"77039","codesPostaux":["77350"],"centre":{"type":"Point","coordinates":[2.5896,48.532]},"surface":777.65,"population":1206,"departement":{"code":"77","nom":"Seine-et-Marne"},"region":{"code":"11","nom":"Île-de-France"}},{"nom":"Boissise-le-Roi","code":"77040","codesPostaux":["77310"],"centre":{"type":"Point","coordinates":[2.5686,48.514]},"surface":712.8,"population":3941,"departement":{"code":"77","nom":"Seine-et-Marne"},"region":{"code":"11","nom":"Île-de-France"}},{"nom":"Boissy-aux-Cailles","code":"77041","codesPostaux":["77760"],"centre":{"type":"Point","coordinates":[2.4897,48.3099]},"surface":1637.33,"population":272,"departement":{"code":"77","nom":"Seine-et-Marne"},"region":{"code":"11","nom":"Île-de-France"}},{"nom":"Boissy-le-Châtel","code":"77042","codesPostaux":["77169"],"centre":{"type":"Point","coordinates":[3.1379,48.8247]},"surface":994.23,"population":3346,"departement":{"code":"77","nom":"Seine-et-Marne"},"region":{"code":"11","nom":"Île-de-France"}},{"nom":"Boitron","code":"77043","codesPostaux":["77750"],"centre":{"type":"Point","coordinates":[3.2613,48.8974]},"surface":513.23,"population":322,"departement":{"code":"77","nom":"Seine-et-Marne"},"region":{"code":"11","nom":"Île-de-France"}},{"nom":"Bombon","code":"77044","codesPostaux":["77720"],"centre":{"type":"Point","coordinates":[2.8734,48.5686]},"surface":1500.2,"population":935,"departement":{"code":"77","nom":"Seine-et-Marne"},"region":{"code":"11","nom":"Île-de-France"}},{"nom":"Bougligny","code":"77045","codesPostaux":["77570"],"centre":{"type":"Point","coordinates":[2.6608,48.1958]},"surface":1636.85,"population":738,"departement":{"code":"77","nom":"Seine-et-Marne"},"region":{"code":"11","nom":"Île-de-France"}},{"nom":"Boulancourt","code":"77046","codesPostaux":["77760"],"centre":{"type":"Point","coordinates":[2.4483,48.2606]},"surface":647.43,"population":350,"departement":{"code":"77","nom":"Seine-et-Marne"},"region":{"code":"11","nom":"Île-de-France"}},{"nom":"Bouleurs","code":"77047","codesPostaux":["77580"],"centre":{"type":"Point","coordinates":[2.9102,48.8816]},"surface":819.66,"population":1743,"departement":{"code":"77","nom":"Seine-et-Marne"},"region":{"code":"11","nom":"Île-de-France"}},{"nom":"Bourron-Marlotte","code":"77048","codesPostaux":["77780"],"centre":{"type":"Point","coordinates":[2.6982,48.3366]},"surface":1124.99,"population":2774,"departement":{"code":"77","nom":"Seine-et-Marne"},"region":{"code":"11","nom":"Île-de-France"}},{"nom":"Boutigny","code":"77049","codesPostaux":["77470"],"centre":{"type":"Point","coordinates":[2.9326,48.9144]},"surface":985.53,"population":874,"departement":{"code":"77","nom":"Seine-et-Marne"},"region":{"code":"11","nom":"Île-de-France"}},{"nom":"Bransles","code":"77050","codesPostaux":["77620"],"centre":{"type":"Point","coordinates":[2.8318,48.1481]},"surface":1384.31,"population":526,"departement":{"code":"77","nom":"Seine-et-Marne"},"region":{"code":"11","nom":"Île-de-France"}},{"nom":"Bray-sur-Seine","code":"77051","codesPostaux":["77480"],"centre":{"type":"Point","coordinates":[3.2457,48.4157]},"surface":213.85,"population":2344,"departement":{"code":"77","nom":"Seine-et-Marne"},"region":{"code":"11","nom":"Île-de-France"}},{"nom":"Bréau","code":"77052","codesPostaux":["77720"],"centre":{"type":"Point","coordinates":[2.8805,48.5571]},"surface":135.1,"population":384,"departement":{"code":"77","nom":"Seine-et-Marne"},"region":{"code":"11","nom":"Île-de-France"}},{"nom":"Brie-Comte-Robert","code":"77053","codesPostaux":["77170"],"centre":{"type":"Point","coordinates":[2.6131,48.6904]},"surface":1993.9,"population":19003,"departement":{"code":"77","nom":"Seine-et-Marne"},"region":{"code":"11","nom":"Île-de-France"}},{"nom":"La Brosse-Montceaux","code":"77054","codesPostaux":["77940"],"centre":{"type":"Point","coordinates":[3.027,48.3354]},"surface":1202.15,"population":776,"departement":{"code":"77","nom":"Seine-et-Marne"},"region":{"code":"11","nom":"Île-de-France"}},{"nom":"Brou-sur-Chantereine","code":"77055","codesPostaux":["77177"],"centre":{"type":"Point","coordinates":[2.6394,48.8891]},"surface":437.29,"population":5196,"departement":{"code":"77","nom":"Seine-et-Marne"},"region":{"code":"11","nom":"Île-de-France"}},{"nom":"Burcy","code":"77056","codesPostaux":["77760"],"centre":{"type":"Point","coordinates":[2.5266,48.2327]},"surface":699.42,"population":150,"departement":{"code":"77","nom":"Seine-et-Marne"},"region":{"code":"11","nom":"Île-de-France"}},{"nom":"Bussières","code":"77057","codesPostaux":["77750"],"centre":{"type":"Point","coordinates":[3.2346,48.9286]},"surface":835.32,"population":600,"departement":{"code":"77","nom":"Seine-et-Marne"},"region":{"code":"11","nom":"Île-de-France"}},{"nom":"Bussy-Saint-Georges","code":"77058","codesPostaux":["77600"],"centre":{"type":"Point","coordinates":[2.7091,48.8297]},"surface":1527.8,"population":27498,"departement":{"code":"77","nom":"Seine-et-Marne"},"region":{"code":"11","nom":"Île-de-France"}},{"nom":"Bussy-Saint-Martin","code":"77059","codesPostaux":["77600"],"centre":{"type":"Point","coordinates":[2.6783,48.8463]},"surface":244.72,"population":738,"departement":{"code":"77","nom":"Seine-et-Marne"},"region":{"code":"11","nom":"Île-de-France"}},{"nom":"Buthiers","code":"77060","codesPostaux":["77760"],"centre":{"type":"Point","coordinates":[2.4603,48.2902]},"surface":1959.73,"population":792,"departement":{"code":"77","nom":"Seine-et-Marne"},"region":{"code":"11","nom":"Île-de-France"}},{"nom":"Cannes-Écluse","code":"77061","codesPostaux":["77130"],"centre":{"type":"Point","coordinates":[2.9888,48.3608]},"surface":861.99,"population":2742,"departement":{"code":"77","nom":"Seine-et-Marne"},"region":{"code":"11","nom":"Île-de-France"}},{"nom":"Carnetin","code":"77062","codesPostaux":["77400"],"centre":{"type":"Point","coordinates":[2.6997,48.9041]},"surface":160.18,"population":461,"departement":{"code":"77","nom":"Seine-et-Marne"},"region":{"code":"11","nom":"Île-de-France"}},{"nom":"La Celle-sur-Morin","code":"77063","codesPostaux":["77515"],"centre":{"type":"Point","coordinates":[2.9681,48.799]},"surface":757.41,"population":1235,"departement":{"code":"77","nom":"Seine-et-Marne"},"region":{"code":"11","nom":"Île-de-France"}},{"nom":"Cély","code":"77065","codesPostaux":["77930"],"centre":{"type":"Point","coordinates":[2.5237,48.4601]},"surface":618.16,"population":1259,"departement":{"code":"77","nom":"Seine-et-Marne"},"region":{"code":"11","nom":"Île-de-France"}},{"nom":"Cerneux","code":"77066","codesPostaux":["77320"],"centre":{"type":"Point","coordinates":[3.3433,48.711]},"surface":2198.46,"population":272,"departement":{"code":"77","nom":"Seine-et-Marne"},"region":{"code":"11","nom":"Île-de-France"}},{"nom":"Cesson","code":"77067","codesPostaux":["77240"],"centre":{"type":"Point","coordinates":[2.5898,48.5693]},"surface":700.49,"population":11222,"departement":{"code":"77","nom":"Seine-et-Marne"},"region":{"code":"11","nom":"Île-de-France"}},{"nom":"Cessoy-en-Montois","code":"77068","codesPostaux":["77520"],"centre":{"type":"Point","coordinates":[3.1407,48.5091]},"surface":527.77,"population":213,"departement":{"code":"77","nom":"Seine-et-Marne"},"region":{"code":"11","nom":"Île-de-France"}},{"nom":"Chailly-en-Bière","code":"77069","codesPostaux":["77930"],"centre":{"type":"Point","coordinates":[2.6117,48.4723]},"surface":1311.17,"population":2162,"departement":{"code":"77","nom":"Seine-et-Marne"},"region":{"code":"11","nom":"Île-de-France"}},{"nom":"Chailly-en-Brie","code":"77070","codesPostaux":["77120"],"centre":{"type":"Point","coordinates":[3.1343,48.7865]},"surface":1792.85,"population":1576,"departement":{"code":"77","nom":"Seine-et-Marne"},"region":{"code":"11","nom":"Île-de-France"}},{"nom":"Chaintreaux","code":"77071","codesPostaux":["77460"],"centre":{"type":"Point","coordinates":[2.8154,48.1914]},"surface":2383.38,"population":821,"departement":{"code":"77","nom":"Seine-et-Marne"},"region":{"code":"11","nom":"Île-de-France"}},{"nom":"Chalautre-la-Grande","code":"77072","codesPostaux":["77171"],"centre":{"type":"Point","coordinates":[3.4482,48.5505]},"surface":1825.72,"population":644,"departement":{"code":"77","nom":"Seine-et-Marne"},"region":{"code":"11","nom":"Île-de-France"}},{"nom":"Chalautre-la-Petite","code":"77073","codesPostaux":["77160"],"centre":{"type":"Point","coordinates":[3.3068,48.5288]},"surface":937.17,"population":541,"departement":{"code":"77","nom":"Seine-et-Marne"},"region":{"code":"11","nom":"Île-de-France"}},{"nom":"Chalifert","code":"77075","codesPostaux":["77144"],"centre":{"type":"Point","coordinates":[2.7737,48.8959]},"surface":241.9,"population":1584,"departement":{"code":"77","nom":"Seine-et-Marne"},"region":{"code":"11","nom":"Île-de-France"}},{"nom":"Chalmaison","code":"77076","codesPostaux":["77650"],"centre":{"type":"Point","coordinates":[3.2568,48.4904]},"surface":1005.73,"population":749,"departement":{"code":"77","nom":"Seine-et-Marne"},"region":{"code":"11","nom":"Île-de-France"}},{"nom":"Chambry","code":"77077","codesPostaux":["77910"],"centre":{"type":"Point","coordinates":[2.886,48.9991]},"surface":973.51,"population":1064,"departement":{"code":"77","nom":"Seine-et-Marne"},"region":{"code":"11","nom":"Île-de-France"}},{"nom":"Chamigny","code":"77078","codesPostaux":["77260"],"centre":{"type":"Point","coordinates":[3.1397,48.987]},"surface":1421.19,"population":1480,"departement":{"code":"77","nom":"Seine-et-Marne"},"region":{"code":"11","nom":"Île-de-France"}},{"nom":"Champagne-sur-Seine","code":"77079","codesPostaux":["77430"],"centre":{"type":"Point","coordinates":[2.8101,48.4072]},"surface":730.14,"population":6497,"departement":{"code":"77","nom":"Seine-et-Marne"},"region":{"code":"11","nom":"Île-de-France"}},{"nom":"Champcenest","code":"77080","codesPostaux":["77560"],"centre":{"type":"Point","coordinates":[3.2791,48.6695]},"surface":1271.69,"population":205,"departement":{"code":"77","nom":"Seine-et-Marne"},"region":{"code":"11","nom":"Île-de-France"}},{"nom":"Champdeuil","code":"77081","codesPostaux":["77390"],"centre":{"type":"Point","coordinates":[2.7316,48.6223]},"surface":401.67,"population":739,"departement":{"code":"77","nom":"Seine-et-Marne"},"region":{"code":"11","nom":"Île-de-France"}},{"nom":"Champeaux","code":"77082","codesPostaux":["77720"],"centre":{"type":"Point","coordinates":[2.8181,48.5869]},"surface":1307.37,"population":810,"departement":{"code":"77","nom":"Seine-et-Marne"},"region":{"code":"11","nom":"Île-de-France"}},{"nom":"Champs-sur-Marne","code":"77083","codesPostaux":["77420"],"centre":{"type":"Point","coordinates":[2.594,48.8485]},"surface":768.03,"population":27451,"departement":{"code":"77","nom":"Seine-et-Marne"},"region":{"code":"11","nom":"Île-de-France"}},{"nom":"Changis-sur-Marne","code":"77084","codesPostaux":["77660"],"centre":{"type":"Point","coordinates":[3.0299,48.9659]},"surface":700.07,"population":1335,"departement":{"code":"77","nom":"Seine-et-Marne"},"region":{"code":"11","nom":"Île-de-France"}},{"nom":"Chanteloup-en-Brie","code":"77085","codesPostaux":["77600"],"centre":{"type":"Point","coordinates":[2.7399,48.8581]},"surface":318.21,"population":4130,"departement":{"code":"77","nom":"Seine-et-Marne"},"region":{"code":"11","nom":"Île-de-France"}},{"nom":"La Chapelle-Gauthier","code":"77086","codesPostaux":["77720"],"centre":{"type":"Point","coordinates":[2.8571,48.5316]},"surface":1732.47,"population":1400,"departement":{"code":"77","nom":"Seine-et-Marne"},"region":{"code":"11","nom":"Île-de-France"}},{"nom":"La Chapelle-Iger","code":"77087","codesPostaux":["77540"],"centre":{"type":"Point","coordinates":[2.9943,48.6519]},"surface":872.48,"population":191,"departement":{"code":"77","nom":"Seine-et-Marne"},"region":{"code":"11","nom":"Île-de-France"}},{"nom":"La Chapelle-la-Reine","code":"77088","codesPostaux":["77760"],"centre":{"type":"Point","coordinates":[2.569,48.3137]},"surface":1595.69,"population":2170,"departement":{"code":"77","nom":"Seine-et-Marne"},"region":{"code":"11","nom":"Île-de-France"}},{"nom":"La Chapelle-Rablais","code":"77089","codesPostaux":["77370"],"centre":{"type":"Point","coordinates":[2.9601,48.5086]},"surface":1545.4,"population":913,"departement":{"code":"77","nom":"Seine-et-Marne"},"region":{"code":"11","nom":"Île-de-France"}},{"nom":"La Chapelle-Saint-Sulpice","code":"77090","codesPostaux":["77160"],"centre":{"type":"Point","coordinates":[3.1778,48.5588]},"surface":638.35,"population":239,"departement":{"code":"77","nom":"Seine-et-Marne"},"region":{"code":"11","nom":"Île-de-France"}},{"nom":"Les Chapelles-Bourbon","code":"77091","codesPostaux":["77610"],"centre":{"type":"Point","coordinates":[2.8352,48.7443]},"surface":643.86,"population":459,"departement":{"code":"77","nom":"Seine-et-Marne"},"region":{"code":"11","nom":"Île-de-France"}},{"nom":"La Chapelle-Moutils","code":"77093","codesPostaux":["77320"],"centre":{"type":"Point","coordinates":[3.3822,48.7752]},"surface":1945.69,"population":400,"departement":{"code":"77","nom":"Seine-et-Marne"},"region":{"code":"11","nom":"Île-de-France"}},{"nom":"Charmentray","code":"77094","codesPostaux":["77410"],"centre":{"type":"Point","coordinates":[2.7775,48.9513]},"surface":467.74,"population":291,"departement":{"code":"77","nom":"Seine-et-Marne"},"region":{"code":"11","nom":"Île-de-France"}},{"nom":"Charny","code":"77095","codesPostaux":["77410"],"centre":{"type":"Point","coordinates":[2.7559,48.972]},"surface":1253.67,"population":1585,"departement":{"code":"77","nom":"Seine-et-Marne"},"region":{"code":"11","nom":"Île-de-France"}},{"nom":"Chartrettes","code":"77096","codesPostaux":["77590"],"centre":{"type":"Point","coordinates":[2.7091,48.4958]},"surface":1009.52,"population":2633,"departement":{"code":"77","nom":"Seine-et-Marne"},"region":{"code":"11","nom":"Île-de-France"}},{"nom":"Chartronges","code":"77097","codesPostaux":["77320"],"centre":{"type":"Point","coordinates":[3.2637,48.7529]},"surface":823.37,"population":304,"departement":{"code":"77","nom":"Seine-et-Marne"},"region":{"code":"11","nom":"Île-de-France"}},{"nom":"Châteaubleau","code":"77098","codesPostaux":["77370"],"centre":{"type":"Point","coordinates":[3.108,48.584]},"surface":338.51,"population":363,"departement":{"code":"77","nom":"Seine-et-Marne"},"region":{"code":"11","nom":"Île-de-France"}},{"nom":"Château-Landon","code":"77099","codesPostaux":["77570"],"centre":{"type":"Point","coordinates":[2.6976,48.149]},"surface":2950.87,"population":3149,"departement":{"code":"77","nom":"Seine-et-Marne"},"region":{"code":"11","nom":"Île-de-France"}},{"nom":"Le Châtelet-en-Brie","code":"77100","codesPostaux":["77820"],"centre":{"type":"Point","coordinates":[2.8016,48.5014]},"surface":2270.88,"population":4207,"departement":{"code":"77","nom":"Seine-et-Marne"},"region":{"code":"11","nom":"Île-de-France"}},{"nom":"Châtenay-sur-Seine","code":"77101","codesPostaux":["77126"],"centre":{"type":"Point","coordinates":[3.097,48.4198]},"surface":1338.4,"population":1049,"departement":{"code":"77","nom":"Seine-et-Marne"},"region":{"code":"11","nom":"Île-de-France"}},{"nom":"Châtenoy","code":"77102","codesPostaux":["77167"],"centre":{"type":"Point","coordinates":[2.6274,48.2311]},"surface":496.5,"population":155,"departement":{"code":"77","nom":"Seine-et-Marne"},"region":{"code":"11","nom":"Île-de-France"}},{"nom":"Châtillon-la-Borde","code":"77103","codesPostaux":["77820"],"centre":{"type":"Point","coordinates":[2.8225,48.539]},"surface":724.08,"population":226,"departement":{"code":"77","nom":"Seine-et-Marne"},"region":{"code":"11","nom":"Île-de-France"}},{"nom":"Châtres","code":"77104","codesPostaux":["77610"],"centre":{"type":"Point","coordinates":[2.8166,48.7066]},"surface":1514.74,"population":714,"departement":{"code":"77","nom":"Seine-et-Marne"},"region":{"code":"11","nom":"Île-de-France"}},{"nom":"Chauffry","code":"77106","codesPostaux":["77169"],"centre":{"type":"Point","coordinates":[3.1822,48.8231]},"surface":514.68,"population":994,"departement":{"code":"77","nom":"Seine-et-Marne"},"region":{"code":"11","nom":"Île-de-France"}},{"nom":"Chaumes-en-Brie","code":"77107","codesPostaux":["77390"],"centre":{"type":"Point","coordinates":[2.8472,48.6635]},"surface":2002.68,"population":3503,"departement":{"code":"77","nom":"Seine-et-Marne"},"region":{"code":"11","nom":"Île-de-France"}},{"nom":"Chelles","code":"77108","codesPostaux":["77500"],"centre":{"type":"Point","coordinates":[2.5954,48.8845]},"surface":1599.8,"population":54620,"departement":{"code":"77","nom":"Seine-et-Marne"},"region":{"code":"11","nom":"Île-de-France"}},{"nom":"Chenoise-Cucharmoy","code":"77109","codesPostaux":["77160"],"centre":{"type":"Point","coordinates":[3.1809,48.611]},"surface":4873.41,"population":1607,"departement":{"code":"77","nom":"Seine-et-Marne"},"region":{"code":"11","nom":"Île-de-France"}},{"nom":"Chenou","code":"77110","codesPostaux":["77570"],"centre":{"type":"Point","coordinates":[2.6525,48.1648]},"surface":1379.3,"population":291,"departement":{"code":"77","nom":"Seine-et-Marne"},"region":{"code":"11","nom":"Île-de-France"}},{"nom":"Chessy","code":"77111","codesPostaux":["77700"],"centre":{"type":"Point","coordinates":[2.7697,48.8718]},"surface":582.3,"population":7771,"departement":{"code":"77","nom":"Seine-et-Marne"},"region":{"code":"11","nom":"Île-de-France"}},{"nom":"Chevrainvilliers","code":"77112","codesPostaux":["77760"],"centre":{"type":"Point","coordinates":[2.603,48.246]},"surface":894.72,"population":255,"departement":{"code":"77","nom":"Seine-et-Marne"},"region":{"code":"11","nom":"Île-de-France"}},{"nom":"Chevru","code":"77113","codesPostaux":["77320"],"centre":{"type":"Point","coordinates":[3.1964,48.7365]},"surface":1396.48,"population":1012,"departement":{"code":"77","nom":"Seine-et-Marne"},"region":{"code":"11","nom":"Île-de-France"}},{"nom":"Chevry-Cossigny","code":"77114","codesPostaux":["77173"],"centre":{"type":"Point","coordinates":[2.6747,48.7209]},"surface":1678.47,"population":4075,"departement":{"code":"77","nom":"Seine-et-Marne"},"region":{"code":"11","nom":"Île-de-France"}},{"nom":"Chevry-en-Sereine","code":"77115","codesPostaux":["77710"],"centre":{"type":"Point","coordinates":[2.964,48.246]},"surface":2285.82,"population":498,"departement":{"code":"77","nom":"Seine-et-Marne"},"region":{"code":"11","nom":"Île-de-France"}},{"nom":"Choisy-en-Brie","code":"77116","codesPostaux":["77320"],"centre":{"type":"Point","coordinates":[3.2078,48.7637]},"surface":2512.13,"population":1354,"departement":{"code":"77","nom":"Seine-et-Marne"},"region":{"code":"11","nom":"Île-de-France"}},{"nom":"Citry","code":"77117","codesPostaux":["77730"],"centre":{"type":"Point","coordinates":[3.2462,48.961]},"surface":505.16,"population":922,"departement":{"code":"77","nom":"Seine-et-Marne"},"region":{"code":"11","nom":"Île-de-France"}},{"nom":"Claye-Souilly","code":"77118","codesPostaux":["77410"],"centre":{"type":"Point","coordinates":[2.68,48.941]},"surface":1507.24,"population":13353,"departement":{"code":"77","nom":"Seine-et-Marne"},"region":{"code":"11","nom":"Île-de-France"}},{"nom":"Clos-Fontaine","code":"77119","codesPostaux":["77370"],"centre":{"type":"Point","coordinates":[3.0123,48.6037]},"surface":597.32,"population":244,"departement":{"code":"77","nom":"Seine-et-Marne"},"region":{"code":"11","nom":"Île-de-France"}},{"nom":"Cocherel","code":"77120","codesPostaux":["77440"],"centre":{"type":"Point","coordinates":[3.1074,49.0182]},"surface":829.34,"population":618,"departement":{"code":"77","nom":"Seine-et-Marne"},"region":{"code":"11","nom":"Île-de-France"}},{"nom":"Collégien","code":"77121","codesPostaux":["77090"],"centre":{"type":"Point","coordinates":[2.6758,48.8249]},"surface":338.33,"population":3354,"departement":{"code":"77","nom":"Seine-et-Marne"},"region":{"code":"11","nom":"Île-de-France"}},{"nom":"Combs-la-Ville","code":"77122","codesPostaux":["77380"],"centre":{"type":"Point","coordinates":[2.5765,48.6602]},"surface":1452.18,"population":23350,"departement":{"code":"77","nom":"Seine-et-Marne"},"region":{"code":"11","nom":"Île-de-France"}},{"nom":"Compans","code":"77123","codesPostaux":["77290"],"centre":{"type":"Point","coordinates":[2.6502,48.9907]},"surface":529.9,"population":754,"departement":{"code":"77","nom":"Seine-et-Marne"},"region":{"code":"11","nom":"Île-de-France"}},{"nom":"Conches-sur-Gondoire","code":"77124","codesPostaux":["77600"],"centre":{"type":"Point","coordinates":[2.7207,48.8589]},"surface":151.41,"population":1761,"departement":{"code":"77","nom":"Seine-et-Marne"},"region":{"code":"11","nom":"Île-de-France"}},{"nom":"Condé-Sainte-Libiaire","code":"77125","codesPostaux":["77450"],"centre":{"type":"Point","coordinates":[2.8365,48.8982]},"surface":212.22,"population":1500,"departement":{"code":"77","nom":"Seine-et-Marne"},"region":{"code":"11","nom":"Île-de-France"}},{"nom":"Congis-sur-Thérouanne","code":"77126","codesPostaux":["77440"],"centre":{"type":"Point","coordinates":[2.976,49.0116]},"surface":1520.9,"population":1772,"departement":{"code":"77","nom":"Seine-et-Marne"},"region":{"code":"11","nom":"Île-de-France"}},{"nom":"Coubert","code":"77127","codesPostaux":["77170"],"centre":{"type":"Point","coordinates":[2.7074,48.6782]},"surface":838.83,"population":2005,"departement":{"code":"77","nom":"Seine-et-Marne"},"region":{"code":"11","nom":"Île-de-France"}},{"nom":"Couilly-Pont-aux-Dames","code":"77128","codesPostaux":["77860"],"centre":{"type":"Point","coordinates":[2.8634,48.8817]},"surface":471.81,"population":2064,"departement":{"code":"77","nom":"Seine-et-Marne"},"region":{"code":"11","nom":"Île-de-France"}},{"nom":"Coulombs-en-Valois","code":"77129","codesPostaux":["77840"],"centre":{"type":"Point","coordinates":[3.126,49.0754]},"surface":2250.72,"population":576,"departement":{"code":"77","nom":"Seine-et-Marne"},"region":{"code":"11","nom":"Île-de-France"}},{"nom":"Coulommes","code":"77130","codesPostaux":["77580"],"centre":{"type":"Point","coordinates":[2.9251,48.8908]},"surface":366.22,"population":542,"departement":{"code":"77","nom":"Seine-et-Marne"},"region":{"code":"11","nom":"Île-de-France"}},{"nom":"Coulommiers","code":"77131","codesPostaux":["77120"],"centre":{"type":"Point","coordinates":[3.0918,48.8096]},"surface":1091.34,"population":16374,"departement":{"code":"77","nom":"Seine-et-Marne"},"region":{"code":"11","nom":"Île-de-France"}},{"nom":"Coupvray","code":"77132","codesPostaux":["77700"],"centre":{"type":"Point","coordinates":[2.7935,48.8853]},"surface":809.01,"population":3066,"departement":{"code":"77","nom":"Seine-et-Marne"},"region":{"code":"11","nom":"Île-de-France"}},{"nom":"Courcelles-en-Bassée","code":"77133","codesPostaux":["77126"],"centre":{"type":"Point","coordinates":[3.0471,48.4148]},"surface":1079.3,"population":223,"departement":{"code":"77","nom":"Seine-et-Marne"},"region":{"code":"11","nom":"Île-de-France"}},{"nom":"Courchamp","code":"77134","codesPostaux":["77560"],"centre":{"type":"Point","coordinates":[3.289,48.6427]},"surface":1243.78,"population":151,"departement":{"code":"77","nom":"Seine-et-Marne"},"region":{"code":"11","nom":"Île-de-France"}},{"nom":"Courpalay","code":"77135","codesPostaux":["77540"],"centre":{"type":"Point","coordinates":[2.955,48.6456]},"surface":1473.54,"population":1610,"departement":{"code":"77","nom":"Seine-et-Marne"},"region":{"code":"11","nom":"Île-de-France"}},{"nom":"Courquetaine","code":"77136","codesPostaux":["77390"],"centre":{"type":"Point","coordinates":[2.7477,48.6796]},"surface":780.44,"population":184,"departement":{"code":"77","nom":"Seine-et-Marne"},"region":{"code":"11","nom":"Île-de-France"}},{"nom":"Courtacon","code":"77137","codesPostaux":["77560"],"centre":{"type":"Point","coordinates":[3.291,48.7058]},"surface":1212.72,"population":245,"departement":{"code":"77","nom":"Seine-et-Marne"},"region":{"code":"11","nom":"Île-de-France"}},{"nom":"Courtomer","code":"77138","codesPostaux":["77390"],"centre":{"type":"Point","coordinates":[2.8978,48.6595]},"surface":461.53,"population":591,"departement":{"code":"77","nom":"Seine-et-Marne"},"region":{"code":"11","nom":"Île-de-France"}},{"nom":"Courtry","code":"77139","codesPostaux":["77181"],"centre":{"type":"Point","coordinates":[2.6029,48.9169]},"surface":416.28,"population":7330,"departement":{"code":"77","nom":"Seine-et-Marne"},"region":{"code":"11","nom":"Île-de-France"}},{"nom":"Coutençon","code":"77140","codesPostaux":["77154"],"centre":{"type":"Point","coordinates":[2.997,48.4719]},"surface":627.91,"population":260,"departement":{"code":"77","nom":"Seine-et-Marne"},"region":{"code":"11","nom":"Île-de-France"}},{"nom":"Coutevroult","code":"77141","codesPostaux":["77580"],"centre":{"type":"Point","coordinates":[2.8448,48.8525]},"surface":719.86,"population":1187,"departement":{"code":"77","nom":"Seine-et-Marne"},"region":{"code":"11","nom":"Île-de-France"}},{"nom":"Crécy-la-Chapelle","code":"77142","codesPostaux":["77580"],"centre":{"type":"Point","coordinates":[2.9246,48.8583]},"surface":1544.64,"population":4973,"departement":{"code":"77","nom":"Seine-et-Marne"},"region":{"code":"11","nom":"Île-de-France"}},{"nom":"Crégy-lès-Meaux","code":"77143","codesPostaux":["77124"],"centre":{"type":"Point","coordinates":[2.874,48.9759]},"surface":365.61,"population":5446,"departement":{"code":"77","nom":"Seine-et-Marne"},"region":{"code":"11","nom":"Île-de-France"}},{"nom":"Crèvecœur-en-Brie","code":"77144","codesPostaux":["77610"],"centre":{"type":"Point","coordinates":[2.9143,48.7578]},"surface":922.71,"population":437,"departement":{"code":"77","nom":"Seine-et-Marne"},"region":{"code":"11","nom":"Île-de-France"}},{"nom":"Crisenoy","code":"77145","codesPostaux":["77390"],"centre":{"type":"Point","coordinates":[2.7476,48.6006]},"surface":1289.27,"population":611,"departement":{"code":"77","nom":"Seine-et-Marne"},"region":{"code":"11","nom":"Île-de-France"}},{"nom":"Croissy-Beaubourg","code":"77146","codesPostaux":["77183"],"centre":{"type":"Point","coordinates":[2.6575,48.8164]},"surface":1086.82,"population":2018,"departement":{"code":"77","nom":"Seine-et-Marne"},"region":{"code":"11","nom":"Île-de-France"}},{"nom":"La Croix-en-Brie","code":"77147","codesPostaux":["77370"],"centre":{"type":"Point","coordinates":[3.069,48.5955]},"surface":2950.98,"population":681,"departement":{"code":"77","nom":"Seine-et-Marne"},"region":{"code":"11","nom":"Île-de-France"}},{"nom":"Crouy-sur-Ourcq","code":"77148","codesPostaux":["77840"],"centre":{"type":"Point","coordinates":[3.0812,49.0853]},"surface":1939.79,"population":1811,"departement":{"code":"77","nom":"Seine-et-Marne"},"region":{"code":"11","nom":"Île-de-France"}},{"nom":"Cuisy","code":"77150","codesPostaux":["77165"],"centre":{"type":"Point","coordinates":[2.7804,49.0203]},"surface":334.95,"population":476,"departement":{"code":"77","nom":"Seine-et-Marne"},"region":{"code":"11","nom":"Île-de-France"}},{"nom":"Dagny","code":"77151","codesPostaux":["77320"],"centre":{"type":"Point","coordinates":[3.1638,48.7158]},"surface":788.34,"population":305,"departement":{"code":"77","nom":"Seine-et-Marne"},"region":{"code":"11","nom":"Île-de-France"}},{"nom":"Dammarie-les-Lys","code":"77152","codesPostaux":["77190"],"centre":{"type":"Point","coordinates":[2.6199,48.5147]},"surface":1025.34,"population":23559,"departement":{"code":"77","nom":"Seine-et-Marne"},"region":{"code":"11","nom":"Île-de-France"}},{"nom":"Dammartin-en-Goële","code":"77153","codesPostaux":["77230"],"centre":{"type":"Point","coordinates":[2.6777,49.0504]},"surface":896.16,"population":11907,"departement":{"code":"77","nom":"Seine-et-Marne"},"region":{"code":"11","nom":"Île-de-France"}},{"nom":"Dammartin-sur-Tigeaux","code":"77154","codesPostaux":["77163"],"centre":{"type":"Point","coordinates":[2.9016,48.8086]},"surface":904.35,"population":1280,"departement":{"code":"77","nom":"Seine-et-Marne"},"region":{"code":"11","nom":"Île-de-France"}},{"nom":"Dampmart","code":"77155","codesPostaux":["77400"],"centre":{"type":"Point","coordinates":[2.7465,48.8935]},"surface":595.39,"population":3677,"departement":{"code":"77","nom":"Seine-et-Marne"},"region":{"code":"11","nom":"Île-de-France"}},{"nom":"Darvault","code":"77156","codesPostaux":["77140"],"centre":{"type":"Point","coordinates":[2.722,48.2757]},"surface":782.14,"population":987,"departement":{"code":"77","nom":"Seine-et-Marne"},"region":{"code":"11","nom":"Île-de-France"}},{"nom":"Dhuisy","code":"77157","codesPostaux":["77440"],"centre":{"type":"Point","coordinates":[3.1644,49.0365]},"surface":813.99,"population":334,"departement":{"code":"77","nom":"Seine-et-Marne"},"region":{"code":"11","nom":"Île-de-France"}},{"nom":"Diant","code":"77158","codesPostaux":["77940"],"centre":{"type":"Point","coordinates":[3.0055,48.2914]},"surface":1098.61,"population":194,"departement":{"code":"77","nom":"Seine-et-Marne"},"region":{"code":"11","nom":"Île-de-France"}},{"nom":"Donnemarie-Dontilly","code":"77159","codesPostaux":["77520"],"centre":{"type":"Point","coordinates":[3.1206,48.4816]},"surface":1207.82,"population":2706,"departement":{"code":"77","nom":"Seine-et-Marne"},"region":{"code":"11","nom":"Île-de-France"}},{"nom":"Dormelles","code":"77161","codesPostaux":["77130"],"centre":{"type":"Point","coordinates":[2.8906,48.3115]},"surface":1299.75,"population":816,"departement":{"code":"77","nom":"Seine-et-Marne"},"region":{"code":"11","nom":"Île-de-France"}},{"nom":"Doue","code":"77162","codesPostaux":["77510"],"centre":{"type":"Point","coordinates":[3.1682,48.8713]},"surface":2002.55,"population":1122,"departement":{"code":"77","nom":"Seine-et-Marne"},"region":{"code":"11","nom":"Île-de-France"}},{"nom":"Douy-la-Ramée","code":"77163","codesPostaux":["77139"],"centre":{"type":"Point","coordinates":[2.8827,49.0616]},"surface":794.81,"population":395,"departement":{"code":"77","nom":"Seine-et-Marne"},"region":{"code":"11","nom":"Île-de-France"}},{"nom":"Échouboulains","code":"77164","codesPostaux":["77830"],"centre":{"type":"Point","coordinates":[2.9335,48.4679]},"surface":2088.1,"population":555,"departement":{"code":"77","nom":"Seine-et-Marne"},"region":{"code":"11","nom":"Île-de-France"}},{"nom":"Les Écrennes","code":"77165","codesPostaux":["77820"],"centre":{"type":"Point","coordinates":[2.8733,48.4953]},"surface":1853.7,"population":628,"departement":{"code":"77","nom":"Seine-et-Marne"},"region":{"code":"11","nom":"Île-de-France"}},{"nom":"Égligny","code":"77167","codesPostaux":["77126"],"centre":{"type":"Point","coordinates":[3.1251,48.4367]},"surface":1663.2,"population":310,"departement":{"code":"77","nom":"Seine-et-Marne"},"region":{"code":"11","nom":"Île-de-France"}},{"nom":"Égreville","code":"77168","codesPostaux":["77620"],"centre":{"type":"Point","coordinates":[2.887,48.1857]},"surface":3170.27,"population":2186,"departement":{"code":"77","nom":"Seine-et-Marne"},"region":{"code":"11","nom":"Île-de-France"}},{"nom":"Émerainville","code":"77169","codesPostaux":["77184"],"centre":{"type":"Point","coordinates":[2.608,48.8186]},"surface":536.19,"population":7690,"departement":{"code":"77","nom":"Seine-et-Marne"},"region":{"code":"11","nom":"Île-de-France"}},{"nom":"Esbly","code":"77171","codesPostaux":["77450"],"centre":{"type":"Point","coordinates":[2.8123,48.9011]},"surface":310.96,"population":6072,"departement":{"code":"77","nom":"Seine-et-Marne"},"region":{"code":"11","nom":"Île-de-France"}},{"nom":"Esmans","code":"77172","codesPostaux":["77940"],"centre":{"type":"Point","coordinates":[2.9711,48.3416]},"surface":1783.36,"population":934,"departement":{"code":"77","nom":"Seine-et-Marne"},"region":{"code":"11","nom":"Île-de-France"}},{"nom":"Étrépilly","code":"77173","codesPostaux":["77139"],"centre":{"type":"Point","coordinates":[2.9279,49.0489]},"surface":1322.67,"population":805,"departement":{"code":"77","nom":"Seine-et-Marne"},"region":{"code":"11","nom":"Île-de-France"}},{"nom":"Everly","code":"77174","codesPostaux":["77157"],"centre":{"type":"Point","coordinates":[3.2643,48.4599]},"surface":877.16,"population":566,"departement":{"code":"77","nom":"Seine-et-Marne"},"region":{"code":"11","nom":"Île-de-France"}},{"nom":"Évry-Grégy-sur-Yerre","code":"77175","codesPostaux":["77166"],"centre":{"type":"Point","coordinates":[2.641,48.6531]},"surface":1908.35,"population":3321,"departement":{"code":"77","nom":"Seine-et-Marne"},"region":{"code":"11","nom":"Île-de-France"}},{"nom":"Faremoutiers","code":"77176","codesPostaux":["77515"],"centre":{"type":"Point","coordinates":[3.0038,48.7787]},"surface":1089.36,"population":3057,"departement":{"code":"77","nom":"Seine-et-Marne"},"region":{"code":"11","nom":"Île-de-France"}},{"nom":"Favières","code":"77177","codesPostaux":["77220"],"centre":{"type":"Point","coordinates":[2.7702,48.782]},"surface":2833.68,"population":1316,"departement":{"code":"77","nom":"Seine-et-Marne"},"region":{"code":"11","nom":"Île-de-France"}},{"nom":"Faÿ-lès-Nemours","code":"77178","codesPostaux":["77167"],"centre":{"type":"Point","coordinates":[2.6646,48.2265]},"surface":782.39,"population":524,"departement":{"code":"77","nom":"Seine-et-Marne"},"region":{"code":"11","nom":"Île-de-France"}},{"nom":"Féricy","code":"77179","codesPostaux":["77133"],"centre":{"type":"Point","coordinates":[2.8024,48.4645]},"surface":930.74,"population":625,"departement":{"code":"77","nom":"Seine-et-Marne"},"region":{"code":"11","nom":"Île-de-France"}},{"nom":"Férolles-Attilly","code":"77180","codesPostaux":["77150"],"centre":{"type":"Point","coordinates":[2.6413,48.7342]},"surface":1276.61,"population":1248,"departement":{"code":"77","nom":"Seine-et-Marne"},"region":{"code":"11","nom":"Île-de-France"}},{"nom":"Ferrières-en-Brie","code":"77181","codesPostaux":["77164"],"centre":{"type":"Point","coordinates":[2.7046,48.818]},"surface":615.66,"population":3932,"departement":{"code":"77","nom":"Seine-et-Marne"},"region":{"code":"11","nom":"Île-de-France"}},{"nom":"La Ferté-Gaucher","code":"77182","codesPostaux":["77320"],"centre":{"type":"Point","coordinates":[3.3047,48.7914]},"surface":1736.61,"population":4743,"departement":{"code":"77","nom":"Seine-et-Marne"},"region":{"code":"11","nom":"Île-de-France"}},{"nom":"La Ferté-sous-Jouarre","code":"77183","codesPostaux":["77260"],"centre":{"type":"Point","coordinates":[3.1349,48.9562]},"surface":1004.15,"population":10254,"departement":{"code":"77","nom":"Seine-et-Marne"},"region":{"code":"11","nom":"Île-de-France"}},{"nom":"Flagy","code":"77184","codesPostaux":["77940"],"centre":{"type":"Point","coordinates":[2.9172,48.3083]},"surface":718.34,"population":584,"departement":{"code":"77","nom":"Seine-et-Marne"},"region":{"code":"11","nom":"Île-de-France"}},{"nom":"Fleury-en-Bière","code":"77185","codesPostaux":["77930"],"centre":{"type":"Point","coordinates":[2.5401,48.4473]},"surface":1395.41,"population":652,"departement":{"code":"77","nom":"Seine-et-Marne"},"region":{"code":"11","nom":"Île-de-France"}},{"nom":"Fontainebleau","code":"77186","codesPostaux":["77300"],"centre":{"type":"Point","coordinates":[2.6817,48.4236]},"surface":17228.98,"population":15583,"departement":{"code":"77","nom":"Seine-et-Marne"},"region":{"code":"11","nom":"Île-de-France"}},{"nom":"Fontaine-Fourches","code":"77187","codesPostaux":["77480"],"centre":{"type":"Point","coordinates":[3.3947,48.4122]},"surface":1198.95,"population":576,"departement":{"code":"77","nom":"Seine-et-Marne"},"region":{"code":"11","nom":"Île-de-France"}},{"nom":"Fontaine-le-Port","code":"77188","codesPostaux":["77590"],"centre":{"type":"Point","coordinates":[2.7653,48.4796]},"surface":790.7,"population":1025,"departement":{"code":"77","nom":"Seine-et-Marne"},"region":{"code":"11","nom":"Île-de-France"}},{"nom":"Fontains","code":"77190","codesPostaux":["77370"],"centre":{"type":"Point","coordinates":[3.0088,48.5206]},"surface":1435.64,"population":256,"departement":{"code":"77","nom":"Seine-et-Marne"},"region":{"code":"11","nom":"Île-de-France"}},{"nom":"Fontenailles","code":"77191","codesPostaux":["77370"],"centre":{"type":"Point","coordinates":[2.9252,48.5294]},"surface":2739.72,"population":1109,"departement":{"code":"77","nom":"Seine-et-Marne"},"region":{"code":"11","nom":"Île-de-France"}},{"nom":"Fontenay-Trésigny","code":"77192","codesPostaux":["77610"],"centre":{"type":"Point","coordinates":[2.8667,48.6989]},"surface":2215.91,"population":5994,"departement":{"code":"77","nom":"Seine-et-Marne"},"region":{"code":"11","nom":"Île-de-France"}},{"nom":"Forfry","code":"77193","codesPostaux":["77165"],"centre":{"type":"Point","coordinates":[2.8518,49.0539]},"surface":581.18,"population":238,"departement":{"code":"77","nom":"Seine-et-Marne"},"region":{"code":"11","nom":"Île-de-France"}},{"nom":"Forges","code":"77194","codesPostaux":["77130"],"centre":{"type":"Point","coordinates":[2.9483,48.4223]},"surface":1332.74,"population":443,"departement":{"code":"77","nom":"Seine-et-Marne"},"region":{"code":"11","nom":"Île-de-France"}},{"nom":"Fouju","code":"77195","codesPostaux":["77390"],"centre":{"type":"Point","coordinates":[2.7628,48.5878]},"surface":778.52,"population":655,"departement":{"code":"77","nom":"Seine-et-Marne"},"region":{"code":"11","nom":"Île-de-France"}},{"nom":"Fresnes-sur-Marne","code":"77196","codesPostaux":["77410"],"centre":{"type":"Point","coordinates":[2.7369,48.9405]},"surface":748.15,"population":948,"departement":{"code":"77","nom":"Seine-et-Marne"},"region":{"code":"11","nom":"Île-de-France"}},{"nom":"Frétoy","code":"77197","codesPostaux":["77320"],"centre":{"type":"Point","coordinates":[3.1991,48.7065]},"surface":656.13,"population":173,"departement":{"code":"77","nom":"Seine-et-Marne"},"region":{"code":"11","nom":"Île-de-France"}},{"nom":"Fromont","code":"77198","codesPostaux":["77760"],"centre":{"type":"Point","coordinates":[2.5056,48.255]},"surface":1066.73,"population":230,"departement":{"code":"77","nom":"Seine-et-Marne"},"region":{"code":"11","nom":"Île-de-France"}},{"nom":"Fublaines","code":"77199","codesPostaux":["77470"],"centre":{"type":"Point","coordinates":[2.9433,48.9385]},"surface":547.51,"population":1370,"departement":{"code":"77","nom":"Seine-et-Marne"},"region":{"code":"11","nom":"Île-de-France"}},{"nom":"Garentreville","code":"77200","codesPostaux":["77890"],"centre":{"type":"Point","coordinates":[2.5581,48.2343]},"surface":639.72,"population":123,"departement":{"code":"77","nom":"Seine-et-Marne"},"region":{"code":"11","nom":"Île-de-France"}},{"nom":"Gastins","code":"77201","codesPostaux":["77370"],"centre":{"type":"Point","coordinates":[3.0219,48.6269]},"surface":1493.56,"population":741,"departement":{"code":"77","nom":"Seine-et-Marne"},"region":{"code":"11","nom":"Île-de-France"}},{"nom":"La Genevraye","code":"77202","codesPostaux":["77690"],"centre":{"type":"Point","coordinates":[2.7509,48.3164]},"surface":1331.18,"population":840,"departement":{"code":"77","nom":"Seine-et-Marne"},"region":{"code":"11","nom":"Île-de-France"}},{"nom":"Germigny-l'Évêque","code":"77203","codesPostaux":["77910"],"centre":{"type":"Point","coordinates":[2.9577,48.9888]},"surface":1173.34,"population":1352,"departement":{"code":"77","nom":"Seine-et-Marne"},"region":{"code":"11","nom":"Île-de-France"}},{"nom":"Germigny-sous-Coulombs","code":"77204","codesPostaux":["77840"],"centre":{"type":"Point","coordinates":[3.1627,49.0638]},"surface":654.03,"population":201,"departement":{"code":"77","nom":"Seine-et-Marne"},"region":{"code":"11","nom":"Île-de-France"}},{"nom":"Gesvres-le-Chapitre","code":"77205","codesPostaux":["77165"],"centre":{"type":"Point","coordinates":[2.8439,49.0342]},"surface":423.32,"population":145,"departement":{"code":"77","nom":"Seine-et-Marne"},"region":{"code":"11","nom":"Île-de-France"}},{"nom":"Giremoutiers","code":"77206","codesPostaux":["77120"],"centre":{"type":"Point","coordinates":[3.0311,48.8554]},"surface":600.06,"population":188,"departement":{"code":"77","nom":"Seine-et-Marne"},"region":{"code":"11","nom":"Île-de-France"}},{"nom":"Gironville","code":"77207","codesPostaux":["77890"],"centre":{"type":"Point","coordinates":[2.5383,48.1671]},"surface":1374.09,"population":166,"departement":{"code":"77","nom":"Seine-et-Marne"},"region":{"code":"11","nom":"Île-de-France"}},{"nom":"Gouaix","code":"77208","codesPostaux":["77114"],"centre":{"type":"Point","coordinates":[3.2972,48.4758]},"surface":1410.21,"population":1299,"departement":{"code":"77","nom":"Seine-et-Marne"},"region":{"code":"11","nom":"Île-de-France"}},{"nom":"Gouvernes","code":"77209","codesPostaux":["77400"],"centre":{"type":"Point","coordinates":[2.6933,48.8578]},"surface":276.24,"population":1177,"departement":{"code":"77","nom":"Seine-et-Marne"},"region":{"code":"11","nom":"Île-de-France"}},{"nom":"La Grande-Paroisse","code":"77210","codesPostaux":["77130"],"centre":{"type":"Point","coordinates":[2.8918,48.3938]},"surface":2907.25,"population":2893,"departement":{"code":"77","nom":"Seine-et-Marne"},"region":{"code":"11","nom":"Île-de-France"}},{"nom":"Grandpuits-Bailly-Carrois","code":"77211","codesPostaux":["77720"],"centre":{"type":"Point","coordinates":[2.9782,48.58]},"surface":2445.49,"population":1009,"departement":{"code":"77","nom":"Seine-et-Marne"},"region":{"code":"11","nom":"Île-de-France"}},{"nom":"Gravon","code":"77212","codesPostaux":["77118"],"centre":{"type":"Point","coordinates":[3.1225,48.3881]},"surface":759.16,"population":156,"departement":{"code":"77","nom":"Seine-et-Marne"},"region":{"code":"11","nom":"Île-de-France"}},{"nom":"Gressy","code":"77214","codesPostaux":["77410"],"centre":{"type":"Point","coordinates":[2.6637,48.966]},"surface":334.43,"population":807,"departement":{"code":"77","nom":"Seine-et-Marne"},"region":{"code":"11","nom":"Île-de-France"}},{"nom":"Gretz-Armainvilliers","code":"77215","codesPostaux":["77220"],"centre":{"type":"Point","coordinates":[2.7272,48.7536]},"surface":1354.37,"population":8825,"departement":{"code":"77","nom":"Seine-et-Marne"},"region":{"code":"11","nom":"Île-de-France"}},{"nom":"Grez-sur-Loing","code":"77216","codesPostaux":["77880"],"centre":{"type":"Point","coordinates":[2.6842,48.3078]},"surface":1305.57,"population":1432,"departement":{"code":"77","nom":"Seine-et-Marne"},"region":{"code":"11","nom":"Île-de-France"}},{"nom":"Grisy-Suisnes","code":"77217","codesPostaux":["77166"],"centre":{"type":"Point","coordinates":[2.6801,48.68]},"surface":1827.15,"population":2948,"departement":{"code":"77","nom":"Seine-et-Marne"},"region":{"code":"11","nom":"Île-de-France"}},{"nom":"Grisy-sur-Seine","code":"77218","codesPostaux":["77480"],"centre":{"type":"Point","coordinates":[3.3191,48.4413]},"surface":656.77,"population":123,"departement":{"code":"77","nom":"Seine-et-Marne"},"region":{"code":"11","nom":"Île-de-France"}},{"nom":"Guérard","code":"77219","codesPostaux":["77580"],"centre":{"type":"Point","coordinates":[2.9533,48.8128]},"surface":1977.41,"population":2688,"departement":{"code":"77","nom":"Seine-et-Marne"},"region":{"code":"11","nom":"Île-de-France"}},{"nom":"Guercheville","code":"77220","codesPostaux":["77760"],"centre":{"type":"Point","coordinates":[2.5569,48.262]},"surface":921.07,"population":268,"departement":{"code":"77","nom":"Seine-et-Marne"},"region":{"code":"11","nom":"Île-de-France"}},{"nom":"Guermantes","code":"77221","codesPostaux":["77600"],"centre":{"type":"Point","coordinates":[2.7141,48.8519]},"surface":125.98,"population":1153,"departement":{"code":"77","nom":"Seine-et-Marne"},"region":{"code":"11","nom":"Île-de-France"}},{"nom":"Guignes","code":"77222","codesPostaux":["77390"],"centre":{"type":"Point","coordinates":[2.8024,48.6364]},"surface":571.3,"population":4448,"departement":{"code":"77","nom":"Seine-et-Marne"},"region":{"code":"11","nom":"Île-de-France"}},{"nom":"Gurcy-le-Châtel","code":"77223","codesPostaux":["77520"],"centre":{"type":"Point","coordinates":[3.0824,48.4869]},"surface":1270.04,"population":559,"departement":{"code":"77","nom":"Seine-et-Marne"},"region":{"code":"11","nom":"Île-de-France"}},{"nom":"Hautefeuille","code":"77224","codesPostaux":["77515"],"centre":{"type":"Point","coordinates":[2.9638,48.7663]},"surface":979.81,"population":253,"departement":{"code":"77","nom":"Seine-et-Marne"},"region":{"code":"11","nom":"Île-de-France"}},{"nom":"La Haute-Maison","code":"77225","codesPostaux":["77580"],"centre":{"type":"Point","coordinates":[3.0059,48.883]},"surface":1295.38,"population":352,"departement":{"code":"77","nom":"Seine-et-Marne"},"region":{"code":"11","nom":"Île-de-France"}},{"nom":"Héricy","code":"77226","codesPostaux":["77850"],"centre":{"type":"Point","coordinates":[2.7859,48.4439]},"surface":1071.73,"population":2507,"departement":{"code":"77","nom":"Seine-et-Marne"},"region":{"code":"11","nom":"Île-de-France"}},{"nom":"Hermé","code":"77227","codesPostaux":["77114"],"centre":{"type":"Point","coordinates":[3.3475,48.4881]},"surface":1595.45,"population":647,"departement":{"code":"77","nom":"Seine-et-Marne"},"region":{"code":"11","nom":"Île-de-France"}},{"nom":"Hondevilliers","code":"77228","codesPostaux":["77510"],"centre":{"type":"Point","coordinates":[3.3114,48.905]},"surface":552.22,"population":256,"departement":{"code":"77","nom":"Seine-et-Marne"},"region":{"code":"11","nom":"Île-de-France"}},{"nom":"La Houssaye-en-Brie","code":"77229","codesPostaux":["77610"],"centre":{"type":"Point","coordinates":[2.8696,48.757]},"surface":1244.04,"population":1731,"departement":{"code":"77","nom":"Seine-et-Marne"},"region":{"code":"11","nom":"Île-de-France"}},{"nom":"Ichy","code":"77230","codesPostaux":["77890"],"centre":{"type":"Point","coordinates":[2.544,48.2079]},"surface":776.33,"population":157,"departement":{"code":"77","nom":"Seine-et-Marne"},"region":{"code":"11","nom":"Île-de-France"}},{"nom":"Isles-les-Meldeuses","code":"77231","codesPostaux":["77440"],"centre":{"type":"Point","coordinates":[3.0108,48.998]},"surface":685.38,"population":760,"departement":{"code":"77","nom":"Seine-et-Marne"},"region":{"code":"11","nom":"Île-de-France"}},{"nom":"Isles-lès-Villenoy","code":"77232","codesPostaux":["77450"],"centre":{"type":"Point","coordinates":[2.8285,48.9167]},"surface":700.11,"population":1129,"departement":{"code":"77","nom":"Seine-et-Marne"},"region":{"code":"11","nom":"Île-de-France"}},{"nom":"Iverny","code":"77233","codesPostaux":["77165"],"centre":{"type":"Point","coordinates":[2.7922,48.9974]},"surface":175.33,"population":618,"departement":{"code":"77","nom":"Seine-et-Marne"},"region":{"code":"11","nom":"Île-de-France"}},{"nom":"Jablines","code":"77234","codesPostaux":["77450"],"centre":{"type":"Point","coordinates":[2.7606,48.9157]},"surface":807.58,"population":647,"departement":{"code":"77","nom":"Seine-et-Marne"},"region":{"code":"11","nom":"Île-de-France"}},{"nom":"Jaignes","code":"77235","codesPostaux":["77440"],"centre":{"type":"Point","coordinates":[3.0799,48.983]},"surface":1014.53,"population":322,"departement":{"code":"77","nom":"Seine-et-Marne"},"region":{"code":"11","nom":"Île-de-France"}},{"nom":"Jaulnes","code":"77236","codesPostaux":["77480"],"centre":{"type":"Point","coordinates":[3.273,48.4143]},"surface":1585.53,"population":344,"departement":{"code":"77","nom":"Seine-et-Marne"},"region":{"code":"11","nom":"Île-de-France"}},{"nom":"Jossigny","code":"77237","codesPostaux":["77600"],"centre":{"type":"Point","coordinates":[2.7641,48.8289]},"surface":961.97,"population":650,"departement":{"code":"77","nom":"Seine-et-Marne"},"region":{"code":"11","nom":"Île-de-France"}},{"nom":"Jouarre","code":"77238","codesPostaux":["77640"],"centre":{"type":"Point","coordinates":[3.1159,48.9053]},"surface":4227.5,"population":4221,"departement":{"code":"77","nom":"Seine-et-Marne"},"region":{"code":"11","nom":"Île-de-France"}},{"nom":"Jouy-le-Châtel","code":"77239","codesPostaux":["77970"],"centre":{"type":"Point","coordinates":[3.1395,48.6664]},"surface":3765.77,"population":1630,"departement":{"code":"77","nom":"Seine-et-Marne"},"region":{"code":"11","nom":"Île-de-France"}},{"nom":"Jouy-sur-Morin","code":"77240","codesPostaux":["77320"],"centre":{"type":"Point","coordinates":[3.2736,48.795]},"surface":1843.88,"population":2230,"departement":{"code":"77","nom":"Seine-et-Marne"},"region":{"code":"11","nom":"Île-de-France"}},{"nom":"Juilly","code":"77241","codesPostaux":["77230"],"centre":{"type":"Point","coordinates":[2.7053,49.0216]},"surface":775.72,"population":2036,"departement":{"code":"77","nom":"Seine-et-Marne"},"region":{"code":"11","nom":"Île-de-France"}},{"nom":"Jutigny","code":"77242","codesPostaux":["77650"],"centre":{"type":"Point","coordinates":[3.2253,48.4925]},"surface":459.35,"population":547,"departement":{"code":"77","nom":"Seine-et-Marne"},"region":{"code":"11","nom":"Île-de-France"}},{"nom":"Lagny-sur-Marne","code":"77243","codesPostaux":["77400"],"centre":{"type":"Point","coordinates":[2.7045,48.8716]},"surface":578.09,"population":21461,"departement":{"code":"77","nom":"Seine-et-Marne"},"region":{"code":"11","nom":"Île-de-France"}},{"nom":"Larchant","code":"77244","codesPostaux":["77760"],"centre":{"type":"Point","coordinates":[2.6,48.2857]},"surface":2927.72,"population":730,"departement":{"code":"77","nom":"Seine-et-Marne"},"region":{"code":"11","nom":"Île-de-France"}},{"nom":"Laval-en-Brie","code":"77245","codesPostaux":["77148"],"centre":{"type":"Point","coordinates":[2.9718,48.4541]},"surface":2025.19,"population":412,"departement":{"code":"77","nom":"Seine-et-Marne"},"region":{"code":"11","nom":"Île-de-France"}},{"nom":"Léchelle","code":"77246","codesPostaux":["77171"],"centre":{"type":"Point","coordinates":[3.388,48.5729]},"surface":2193.66,"population":572,"departement":{"code":"77","nom":"Seine-et-Marne"},"region":{"code":"11","nom":"Île-de-France"}},{"nom":"Lescherolles","code":"77247","codesPostaux":["77320"],"centre":{"type":"Point","coordinates":[3.353,48.7645]},"surface":1102.4,"population":464,"departement":{"code":"77","nom":"Seine-et-Marne"},"region":{"code":"11","nom":"Île-de-France"}},{"nom":"Lesches","code":"77248","codesPostaux":["77450"],"centre":{"type":"Point","coordinates":[2.7917,48.9173]},"surface":411.14,"population":763,"departement":{"code":"77","nom":"Seine-et-Marne"},"region":{"code":"11","nom":"Île-de-France"}},{"nom":"Lésigny","code":"77249","codesPostaux":["77150"],"centre":{"type":"Point","coordinates":[2.6182,48.748]},"surface":1002.14,"population":6923,"departement":{"code":"77","nom":"Seine-et-Marne"},"region":{"code":"11","nom":"Île-de-France"}},{"nom":"Leudon-en-Brie","code":"77250","codesPostaux":["77320"],"centre":{"type":"Point","coordinates":[3.263,48.7275]},"surface":432.63,"population":168,"departement":{"code":"77","nom":"Seine-et-Marne"},"region":{"code":"11","nom":"Île-de-France"}},{"nom":"Lieusaint","code":"77251","codesPostaux":["77127"],"centre":{"type":"Point","coordinates":[2.549,48.6277]},"surface":1194.98,"population":14017,"departement":{"code":"77","nom":"Seine-et-Marne"},"region":{"code":"11","nom":"Île-de-France"}},{"nom":"Limoges-Fourches","code":"77252","codesPostaux":["77550"],"centre":{"type":"Point","coordinates":[2.6662,48.6257]},"surface":797.28,"population":625,"departement":{"code":"77","nom":"Seine-et-Marne"},"region":{"code":"11","nom":"Île-de-France"}},{"nom":"Lissy","code":"77253","codesPostaux":["77550"],"centre":{"type":"Point","coordinates":[2.703,48.6185]},"surface":673.41,"population":352,"departement":{"code":"77","nom":"Seine-et-Marne"},"region":{"code":"11","nom":"Île-de-France"}},{"nom":"Liverdy-en-Brie","code":"77254","codesPostaux":["77220"],"centre":{"type":"Point","coordinates":[2.7797,48.6957]},"surface":912.3,"population":1410,"departement":{"code":"77","nom":"Seine-et-Marne"},"region":{"code":"11","nom":"Île-de-France"}},{"nom":"Livry-sur-Seine","code":"77255","codesPostaux":["77000"],"centre":{"type":"Point","coordinates":[2.6898,48.5039]},"surface":534.7,"population":2226,"departement":{"code":"77","nom":"Seine-et-Marne"},"region":{"code":"11","nom":"Île-de-France"}},{"nom":"Lizines","code":"77256","codesPostaux":["77650"],"centre":{"type":"Point","coordinates":[3.1654,48.5283]},"surface":581.42,"population":174,"departement":{"code":"77","nom":"Seine-et-Marne"},"region":{"code":"11","nom":"Île-de-France"}},{"nom":"Lizy-sur-Ourcq","code":"77257","codesPostaux":["77440"],"centre":{"type":"Point","coordinates":[3.0189,49.0344]},"surface":1116.83,"population":3627,"departement":{"code":"77","nom":"Seine-et-Marne"},"region":{"code":"11","nom":"Île-de-France"}},{"nom":"Lognes","code":"77258","codesPostaux":["77185"],"centre":{"type":"Point","coordinates":[2.6366,48.8325]},"surface":399.63,"population":15074,"departement":{"code":"77","nom":"Seine-et-Marne"},"region":{"code":"11","nom":"Île-de-France"}},{"nom":"Longperrier","code":"77259","codesPostaux":["77230"],"centre":{"type":"Point","coordinates":[2.6566,49.0506]},"surface":464.24,"population":3152,"departement":{"code":"77","nom":"Seine-et-Marne"},"region":{"code":"11","nom":"Île-de-France"}},{"nom":"Longueville","code":"77260","codesPostaux":["77650"],"centre":{"type":"Point","coordinates":[3.2414,48.5148]},"surface":559.58,"population":1804,"departement":{"code":"77","nom":"Seine-et-Marne"},"region":{"code":"11","nom":"Île-de-France"}},{"nom":"Lorrez-le-Bocage-Préaux","code":"77261","codesPostaux":["77710"],"centre":{"type":"Point","coordinates":[2.8932,48.2423]},"surface":1985.27,"population":1274,"departement":{"code":"77","nom":"Seine-et-Marne"},"region":{"code":"11","nom":"Île-de-France"}},{"nom":"Louan-Villegruis-Fontaine","code":"77262","codesPostaux":["77560"],"centre":{"type":"Point","coordinates":[3.4984,48.6101]},"surface":3796.9,"population":491,"departement":{"code":"77","nom":"Seine-et-Marne"},"region":{"code":"11","nom":"Île-de-France"}},{"nom":"Luisetaines","code":"77263","codesPostaux":["77520"],"centre":{"type":"Point","coordinates":[3.1847,48.4602]},"surface":506,"population":229,"departement":{"code":"77","nom":"Seine-et-Marne"},"region":{"code":"11","nom":"Île-de-France"}},{"nom":"Lumigny-Nesles-Ormeaux","code":"77264","codesPostaux":["77540"],"centre":{"type":"Point","coordinates":[2.9572,48.7244]},"surface":3634.31,"population":1468,"departement":{"code":"77","nom":"Seine-et-Marne"},"region":{"code":"11","nom":"Île-de-France"}},{"nom":"Luzancy","code":"77265","codesPostaux":["77138"],"centre":{"type":"Point","coordinates":[3.1791,48.9754]},"surface":660.95,"population":1036,"departement":{"code":"77","nom":"Seine-et-Marne"},"region":{"code":"11","nom":"Île-de-France"}},{"nom":"Machault","code":"77266","codesPostaux":["77133"],"centre":{"type":"Point","coordinates":[2.8493,48.4524]},"surface":1627.11,"population":815,"departement":{"code":"77","nom":"Seine-et-Marne"},"region":{"code":"11","nom":"Île-de-France"}},{"nom":"La Madeleine-sur-Loing","code":"77267","codesPostaux":["77570"],"centre":{"type":"Point","coordinates":[2.7015,48.2036]},"surface":617.02,"population":347,"departement":{"code":"77","nom":"Seine-et-Marne"},"region":{"code":"11","nom":"Île-de-France"}},{"nom":"Magny-le-Hongre","code":"77268","codesPostaux":["77700"],"centre":{"type":"Point","coordinates":[2.8171,48.8675]},"surface":467.02,"population":9060,"departement":{"code":"77","nom":"Seine-et-Marne"},"region":{"code":"11","nom":"Île-de-France"}},{"nom":"Maincy","code":"77269","codesPostaux":["77950"],"centre":{"type":"Point","coordinates":[2.7038,48.5541]},"surface":1026.75,"population":1828,"departement":{"code":"77","nom":"Seine-et-Marne"},"region":{"code":"11","nom":"Île-de-France"}},{"nom":"Maisoncelles-en-Brie","code":"77270","codesPostaux":["77580"],"centre":{"type":"Point","coordinates":[2.9957,48.8565]},"surface":1353.08,"population":977,"departement":{"code":"77","nom":"Seine-et-Marne"},"region":{"code":"11","nom":"Île-de-France"}},{"nom":"Maisoncelles-en-Gâtinais","code":"77271","codesPostaux":["77570"],"centre":{"type":"Point","coordinates":[2.6222,48.1837]},"surface":857.86,"population":141,"departement":{"code":"77","nom":"Seine-et-Marne"},"region":{"code":"11","nom":"Île-de-France"}},{"nom":"Maison-Rouge","code":"77272","codesPostaux":["77370"],"centre":{"type":"Point","coordinates":[3.1533,48.5549]},"surface":1388.49,"population":880,"departement":{"code":"77","nom":"Seine-et-Marne"},"region":{"code":"11","nom":"Île-de-France"}},{"nom":"Marchémoret","code":"77273","codesPostaux":["77230"],"centre":{"type":"Point","coordinates":[2.7508,49.0528]},"surface":702.79,"population":659,"departement":{"code":"77","nom":"Seine-et-Marne"},"region":{"code":"11","nom":"Île-de-France"}},{"nom":"Marcilly","code":"77274","codesPostaux":["77139"],"centre":{"type":"Point","coordinates":[2.8781,49.0369]},"surface":694.77,"population":489,"departement":{"code":"77","nom":"Seine-et-Marne"},"region":{"code":"11","nom":"Île-de-France"}},{"nom":"Les Marêts","code":"77275","codesPostaux":["77560"],"centre":{"type":"Point","coordinates":[3.3159,48.6712]},"surface":538.28,"population":152,"departement":{"code":"77","nom":"Seine-et-Marne"},"region":{"code":"11","nom":"Île-de-France"}},{"nom":"Mareuil-lès-Meaux","code":"77276","codesPostaux":["77100"],"centre":{"type":"Point","coordinates":[2.8769,48.9252]},"surface":715.98,"population":3345,"departement":{"code":"77","nom":"Seine-et-Marne"},"region":{"code":"11","nom":"Île-de-France"}},{"nom":"Marles-en-Brie","code":"77277","codesPostaux":["77610"],"centre":{"type":"Point","coordinates":[2.8856,48.7253]},"surface":1281.17,"population":1898,"departement":{"code":"77","nom":"Seine-et-Marne"},"region":{"code":"11","nom":"Île-de-France"}},{"nom":"Marolles-en-Brie","code":"77278","codesPostaux":["77120"],"centre":{"type":"Point","coordinates":[3.1635,48.7719]},"surface":908.24,"population":412,"departement":{"code":"77","nom":"Seine-et-Marne"},"region":{"code":"11","nom":"Île-de-France"}},{"nom":"Marolles-sur-Seine","code":"77279","codesPostaux":["77130"],"centre":{"type":"Point","coordinates":[3.0295,48.3813]},"surface":2020.76,"population":1774,"departement":{"code":"77","nom":"Seine-et-Marne"},"region":{"code":"11","nom":"Île-de-France"}},{"nom":"Mary-sur-Marne","code":"77280","codesPostaux":["77440"],"centre":{"type":"Point","coordinates":[3.033,49.0145]},"surface":223.15,"population":1155,"departement":{"code":"77","nom":"Seine-et-Marne"},"region":{"code":"11","nom":"Île-de-France"}},{"nom":"Mauperthuis","code":"77281","codesPostaux":["77120"],"centre":{"type":"Point","coordinates":[3.0386,48.7709]},"surface":196.96,"population":495,"departement":{"code":"77","nom":"Seine-et-Marne"},"region":{"code":"11","nom":"Île-de-France"}},{"nom":"Mauregard","code":"77282","codesPostaux":["77990"],"centre":{"type":"Point","coordinates":[2.5678,49.029]},"surface":875.15,"population":341,"departement":{"code":"77","nom":"Seine-et-Marne"},"region":{"code":"11","nom":"Île-de-France"}},{"nom":"May-en-Multien","code":"77283","codesPostaux":["77145"],"centre":{"type":"Point","coordinates":[3.0274,49.0686]},"surface":1905.33,"population":877,"departement":{"code":"77","nom":"Seine-et-Marne"},"region":{"code":"11","nom":"Île-de-France"}},{"nom":"Meaux","code":"77284","codesPostaux":["77100"],"centre":{"type":"Point","coordinates":[2.9035,48.9573]},"surface":1537.46,"population":56905,"departement":{"code":"77","nom":"Seine-et-Marne"},"region":{"code":"11","nom":"Île-de-France"}},{"nom":"Le Mée-sur-Seine","code":"77285","codesPostaux":["77350"],"centre":{"type":"Point","coordinates":[2.6301,48.5401]},"surface":556.69,"population":19527,"departement":{"code":"77","nom":"Seine-et-Marne"},"region":{"code":"11","nom":"Île-de-France"}},{"nom":"Meigneux","code":"77286","codesPostaux":["77520"],"centre":{"type":"Point","coordinates":[3.0906,48.5132]},"surface":780.66,"population":236,"departement":{"code":"77","nom":"Seine-et-Marne"},"region":{"code":"11","nom":"Île-de-France"}},{"nom":"Meilleray","code":"77287","codesPostaux":["77320"],"centre":{"type":"Point","coordinates":[3.4161,48.7989]},"surface":777.03,"population":504,"departement":{"code":"77","nom":"Seine-et-Marne"},"region":{"code":"11","nom":"Île-de-France"}},{"nom":"Melun","code":"77288","codesPostaux":["77000"],"centre":{"type":"Point","coordinates":[2.6552,48.5421]},"surface":800.45,"population":45995,"departement":{"code":"77","nom":"Seine-et-Marne"},"region":{"code":"11","nom":"Île-de-France"}},{"nom":"Melz-sur-Seine","code":"77289","codesPostaux":["77171"],"centre":{"type":"Point","coordinates":[3.3969,48.5037]},"surface":1845.8,"population":345,"departement":{"code":"77","nom":"Seine-et-Marne"},"region":{"code":"11","nom":"Île-de-France"}},{"nom":"Méry-sur-Marne","code":"77290","codesPostaux":["77730"],"centre":{"type":"Point","coordinates":[3.2051,48.9734]},"surface":573.91,"population":679,"departement":{"code":"77","nom":"Seine-et-Marne"},"region":{"code":"11","nom":"Île-de-France"}},{"nom":"Le Mesnil-Amelot","code":"77291","codesPostaux":["77990"],"centre":{"type":"Point","coordinates":[2.5974,49.0175]},"surface":980.29,"population":992,"departement":{"code":"77","nom":"Seine-et-Marne"},"region":{"code":"11","nom":"Île-de-France"}},{"nom":"Messy","code":"77292","codesPostaux":["77410"],"centre":{"type":"Point","coordinates":[2.7041,48.9663]},"surface":1032.67,"population":1219,"departement":{"code":"77","nom":"Seine-et-Marne"},"region":{"code":"11","nom":"Île-de-France"}},{"nom":"Misy-sur-Yonne","code":"77293","codesPostaux":["77130"],"centre":{"type":"Point","coordinates":[3.0942,48.3628]},"surface":626.66,"population":834,"departement":{"code":"77","nom":"Seine-et-Marne"},"region":{"code":"11","nom":"Île-de-France"}},{"nom":"Mitry-Mory","code":"77294","codesPostaux":["77290"],"centre":{"type":"Point","coordinates":[2.6116,48.9796]},"surface":2986.77,"population":20456,"departement":{"code":"77","nom":"Seine-et-Marne"},"region":{"code":"11","nom":"Île-de-France"}},{"nom":"Moisenay","code":"77295","codesPostaux":["77950"],"centre":{"type":"Point","coordinates":[2.7389,48.5636]},"surface":872.54,"population":1362,"departement":{"code":"77","nom":"Seine-et-Marne"},"region":{"code":"11","nom":"Île-de-France"}},{"nom":"Moissy-Cramayel","code":"77296","codesPostaux":["77550"],"centre":{"type":"Point","coordinates":[2.5958,48.6247]},"surface":1426.54,"population":18511,"departement":{"code":"77","nom":"Seine-et-Marne"},"region":{"code":"11","nom":"Île-de-France"}},{"nom":"Mondreville","code":"77297","codesPostaux":["77570"],"centre":{"type":"Point","coordinates":[2.6003,48.1513]},"surface":2014.59,"population":334,"departement":{"code":"77","nom":"Seine-et-Marne"},"region":{"code":"11","nom":"Île-de-France"}},{"nom":"Mons-en-Montois","code":"77298","codesPostaux":["77520"],"centre":{"type":"Point","coordinates":[3.1373,48.4922]},"surface":627.13,"population":454,"departement":{"code":"77","nom":"Seine-et-Marne"},"region":{"code":"11","nom":"Île-de-France"}},{"nom":"Montceaux-lès-Meaux","code":"77300","codesPostaux":["77470"],"centre":{"type":"Point","coordinates":[2.9924,48.9445]},"surface":471.91,"population":669,"departement":{"code":"77","nom":"Seine-et-Marne"},"region":{"code":"11","nom":"Île-de-France"}},{"nom":"Montceaux-lès-Provins","code":"77301","codesPostaux":["77151"],"centre":{"type":"Point","coordinates":[3.445,48.6982]},"surface":1535.06,"population":320,"departement":{"code":"77","nom":"Seine-et-Marne"},"region":{"code":"11","nom":"Île-de-France"}},{"nom":"Moncourt-Fromonville","code":"77302","codesPostaux":["77140"],"centre":{"type":"Point","coordinates":[2.7153,48.2983]},"surface":806.27,"population":1891,"departement":{"code":"77","nom":"Seine-et-Marne"},"region":{"code":"11","nom":"Île-de-France"}},{"nom":"Montdauphin","code":"77303","codesPostaux":["77320"],"centre":{"type":"Point","coordinates":[3.4222,48.8536]},"surface":983.37,"population":235,"departement":{"code":"77","nom":"Seine-et-Marne"},"region":{"code":"11","nom":"Île-de-France"}},{"nom":"Montenils","code":"77304","codesPostaux":["77320"],"centre":{"type":"Point","coordinates":[3.4769,48.832]},"surface":530.52,"population":34,"departement":{"code":"77","nom":"Seine-et-Marne"},"region":{"code":"11","nom":"Île-de-France"}},{"nom":"Montereau-Fault-Yonne","code":"77305","codesPostaux":["77130"],"centre":{"type":"Point","coordinates":[2.962,48.3887]},"surface":903.35,"population":22279,"departement":{"code":"77","nom":"Seine-et-Marne"},"region":{"code":"11","nom":"Île-de-France"}},{"nom":"Montereau-sur-le-Jard","code":"77306","codesPostaux":["77950"],"centre":{"type":"Point","coordinates":[2.6728,48.5969]},"surface":1139.77,"population":499,"departement":{"code":"77","nom":"Seine-et-Marne"},"region":{"code":"11","nom":"Île-de-France"}},{"nom":"Montévrain","code":"77307","codesPostaux":["77144"],"centre":{"type":"Point","coordinates":[2.7511,48.8673]},"surface":537.67,"population":15687,"departement":{"code":"77","nom":"Seine-et-Marne"},"region":{"code":"11","nom":"Île-de-France"}},{"nom":"Montgé-en-Goële","code":"77308","codesPostaux":["77230"],"centre":{"type":"Point","coordinates":[2.7452,49.0279]},"surface":1150.9,"population":717,"departement":{"code":"77","nom":"Seine-et-Marne"},"region":{"code":"11","nom":"Île-de-France"}},{"nom":"Monthyon","code":"77309","codesPostaux":["77122"],"centre":{"type":"Point","coordinates":[2.8345,49.0097]},"surface":1211.81,"population":1756,"departement":{"code":"77","nom":"Seine-et-Marne"},"region":{"code":"11","nom":"Île-de-France"}},{"nom":"Montigny-le-Guesdier","code":"77310","codesPostaux":["77480"],"centre":{"type":"Point","coordinates":[3.2495,48.3838]},"surface":792.24,"population":295,"departement":{"code":"77","nom":"Seine-et-Marne"},"region":{"code":"11","nom":"Île-de-France"}},{"nom":"Montigny-Lencoup","code":"77311","codesPostaux":["77520"],"centre":{"type":"Point","coordinates":[3.0541,48.456]},"surface":2080.36,"population":1358,"departement":{"code":"77","nom":"Seine-et-Marne"},"region":{"code":"11","nom":"Île-de-France"}},{"nom":"Montigny-sur-Loing","code":"77312","codesPostaux":["77690"],"centre":{"type":"Point","coordinates":[2.7572,48.3381]},"surface":918.77,"population":2669,"departement":{"code":"77","nom":"Seine-et-Marne"},"region":{"code":"11","nom":"Île-de-France"}},{"nom":"Montmachoux","code":"77313","codesPostaux":["77940"],"centre":{"type":"Point","coordinates":[2.989,48.3204]},"surface":443.09,"population":213,"departement":{"code":"77","nom":"Seine-et-Marne"},"region":{"code":"11","nom":"Île-de-France"}},{"nom":"Montolivet","code":"77314","codesPostaux":["77320"],"centre":{"type":"Point","coordinates":[3.4318,48.8274]},"surface":1638.7,"population":257,"departement":{"code":"77","nom":"Seine-et-Marne"},"region":{"code":"11","nom":"Île-de-France"}},{"nom":"Montry","code":"77315","codesPostaux":["77450"],"centre":{"type":"Point","coordinates":[2.8227,48.8866]},"surface":285.64,"population":3945,"departement":{"code":"77","nom":"Seine-et-Marne"},"region":{"code":"11","nom":"Île-de-France"}},{"nom":"Moret-Loing-et-Orvanne","code":"77316","codesPostaux":["77250"],"centre":{"type":"Point","coordinates":[2.8233,48.3545]},"surface":3339.14,"population":12810,"departement":{"code":"77","nom":"Seine-et-Marne"},"region":{"code":"11","nom":"Île-de-France"}},{"nom":"Mormant","code":"77317","codesPostaux":["77720"],"centre":{"type":"Point","coordinates":[2.8772,48.596]},"surface":1660.71,"population":5282,"departement":{"code":"77","nom":"Seine-et-Marne"},"region":{"code":"11","nom":"Île-de-France"}},{"nom":"Mortcerf","code":"77318","codesPostaux":["77163"],"centre":{"type":"Point","coordinates":[2.897,48.78]},"surface":1784.48,"population":1400,"departement":{"code":"77","nom":"Seine-et-Marne"},"region":{"code":"11","nom":"Île-de-France"}},{"nom":"Mortery","code":"77319","codesPostaux":["77160"],"centre":{"type":"Point","coordinates":[3.2475,48.5906]},"surface":1317.87,"population":137,"departement":{"code":"77","nom":"Seine-et-Marne"},"region":{"code":"11","nom":"Île-de-France"}},{"nom":"Mouroux","code":"77320","codesPostaux":["77120"],"centre":{"type":"Point","coordinates":[3.0486,48.825]},"surface":1674,"population":5810,"departement":{"code":"77","nom":"Seine-et-Marne"},"region":{"code":"11","nom":"Île-de-France"}},{"nom":"Mousseaux-lès-Bray","code":"77321","codesPostaux":["77480"],"centre":{"type":"Point","coordinates":[3.2371,48.3941]},"surface":867.83,"population":682,"departement":{"code":"77","nom":"Seine-et-Marne"},"region":{"code":"11","nom":"Île-de-France"}},{"nom":"Moussy-le-Neuf","code":"77322","codesPostaux":["77230"],"centre":{"type":"Point","coordinates":[2.6038,49.0711]},"surface":1482.39,"population":3253,"departement":{"code":"77","nom":"Seine-et-Marne"},"region":{"code":"11","nom":"Île-de-France"}},{"nom":"Moussy-le-Vieux","code":"77323","codesPostaux":["77230"],"centre":{"type":"Point","coordinates":[2.6221,49.048]},"surface":720.02,"population":1469,"departement":{"code":"77","nom":"Seine-et-Marne"},"region":{"code":"11","nom":"Île-de-France"}},{"nom":"Mouy-sur-Seine","code":"77325","codesPostaux":["77480"],"centre":{"type":"Point","coordinates":[3.2443,48.4328]},"surface":862.18,"population":353,"departement":{"code":"77","nom":"Seine-et-Marne"},"region":{"code":"11","nom":"Île-de-France"}},{"nom":"Nandy","code":"77326","codesPostaux":["77176"],"centre":{"type":"Point","coordinates":[2.5476,48.5816]},"surface":860.24,"population":6350,"departement":{"code":"77","nom":"Seine-et-Marne"},"region":{"code":"11","nom":"Île-de-France"}},{"nom":"Nangis","code":"77327","codesPostaux":["77370"],"centre":{"type":"Point","coordinates":[3.0079,48.5575]},"surface":2411.18,"population":8867,"departement":{"code":"77","nom":"Seine-et-Marne"},"region":{"code":"11","nom":"Île-de-France"}},{"nom":"Nanteau-sur-Essonne","code":"77328","codesPostaux":["77760"],"centre":{"type":"Point","coordinates":[2.4262,48.3184]},"surface":1289.75,"population":414,"departement":{"code":"77","nom":"Seine-et-Marne"},"region":{"code":"11","nom":"Île-de-France"}},{"nom":"Nanteau-sur-Lunain","code":"77329","codesPostaux":["77710"],"centre":{"type":"Point","coordinates":[2.8099,48.2529]},"surface":1332.34,"population":702,"departement":{"code":"77","nom":"Seine-et-Marne"},"region":{"code":"11","nom":"Île-de-France"}},{"nom":"Nanteuil-lès-Meaux","code":"77330","codesPostaux":["77100"],"centre":{"type":"Point","coordinates":[2.9019,48.9317]},"surface":759.2,"population":7308,"departement":{"code":"77","nom":"Seine-et-Marne"},"region":{"code":"11","nom":"Île-de-France"}},{"nom":"Nanteuil-sur-Marne","code":"77331","codesPostaux":["77730"],"centre":{"type":"Point","coordinates":[3.2204,48.98]},"surface":125.86,"population":406,"departement":{"code":"77","nom":"Seine-et-Marne"},"region":{"code":"11","nom":"Île-de-France"}},{"nom":"Nantouillet","code":"77332","codesPostaux":["77230"],"centre":{"type":"Point","coordinates":[2.7045,48.9993]},"surface":514.95,"population":302,"departement":{"code":"77","nom":"Seine-et-Marne"},"region":{"code":"11","nom":"Île-de-France"}},{"nom":"Nemours","code":"77333","codesPostaux":["77140"],"centre":{"type":"Point","coordinates":[2.7187,48.2633]},"surface":1011.84,"population":12889,"departement":{"code":"77","nom":"Seine-et-Marne"},"region":{"code":"11","nom":"Île-de-France"}},{"nom":"Chauconin-Neufmontiers","code":"77335","codesPostaux":["77124"],"centre":{"type":"Point","coordinates":[2.8323,48.97]},"surface":1736.67,"population":3784,"departement":{"code":"77","nom":"Seine-et-Marne"},"region":{"code":"11","nom":"Île-de-France"}},{"nom":"Neufmoutiers-en-Brie","code":"77336","codesPostaux":["77610"],"centre":{"type":"Point","coordinates":[2.8294,48.773]},"surface":1622.51,"population":1338,"departement":{"code":"77","nom":"Seine-et-Marne"},"region":{"code":"11","nom":"Île-de-France"}},{"nom":"Noisiel","code":"77337","codesPostaux":["77186"],"centre":{"type":"Point","coordinates":[2.6187,48.8461]},"surface":431.94,"population":16053,"departement":{"code":"77","nom":"Seine-et-Marne"},"region":{"code":"11","nom":"Île-de-France"}},{"nom":"Noisy-Rudignon","code":"77338","codesPostaux":["77940"],"centre":{"type":"Point","coordinates":[2.9331,48.3372]},"surface":416.4,"population":580,"departement":{"code":"77","nom":"Seine-et-Marne"},"region":{"code":"11","nom":"Île-de-France"}},{"nom":"Noisy-sur-École","code":"77339","codesPostaux":["77123"],"centre":{"type":"Point","coordinates":[2.5114,48.3733]},"surface":2993.04,"population":1797,"departement":{"code":"77","nom":"Seine-et-Marne"},"region":{"code":"11","nom":"Île-de-France"}},{"nom":"Nonville","code":"77340","codesPostaux":["77140"],"centre":{"type":"Point","coordinates":[2.7731,48.2894]},"surface":1161.84,"population":591,"departement":{"code":"77","nom":"Seine-et-Marne"},"region":{"code":"11","nom":"Île-de-France"}},{"nom":"Noyen-sur-Seine","code":"77341","codesPostaux":["77114"],"centre":{"type":"Point","coordinates":[3.3449,48.4512]},"surface":1222.45,"population":369,"departement":{"code":"77","nom":"Seine-et-Marne"},"region":{"code":"11","nom":"Île-de-France"}},{"nom":"Obsonville","code":"77342","codesPostaux":["77890"],"centre":{"type":"Point","coordinates":[2.5673,48.214]},"surface":704.99,"population":126,"departement":{"code":"77","nom":"Seine-et-Marne"},"region":{"code":"11","nom":"Île-de-France"}},{"nom":"Ocquerre","code":"77343","codesPostaux":["77440"],"centre":{"type":"Point","coordinates":[3.0577,49.0379]},"surface":1015.75,"population":378,"departement":{"code":"77","nom":"Seine-et-Marne"},"region":{"code":"11","nom":"Île-de-France"}},{"nom":"Oissery","code":"77344","codesPostaux":["77178"],"centre":{"type":"Point","coordinates":[2.8166,49.0725]},"surface":1514.42,"population":2496,"departement":{"code":"77","nom":"Seine-et-Marne"},"region":{"code":"11","nom":"Île-de-France"}},{"nom":"Orly-sur-Morin","code":"77345","codesPostaux":["77750"],"centre":{"type":"Point","coordinates":[3.2285,48.9006]},"surface":586.97,"population":656,"departement":{"code":"77","nom":"Seine-et-Marne"},"region":{"code":"11","nom":"Île-de-France"}},{"nom":"Les Ormes-sur-Voulzie","code":"77347","codesPostaux":["77134"],"centre":{"type":"Point","coordinates":[3.2255,48.4613]},"surface":1224.84,"population":864,"departement":{"code":"77","nom":"Seine-et-Marne"},"region":{"code":"11","nom":"Île-de-France"}},{"nom":"Ormesson","code":"77348","codesPostaux":["77167"],"centre":{"type":"Point","coordinates":[2.6487,48.2448]},"surface":381.11,"population":242,"departement":{"code":"77","nom":"Seine-et-Marne"},"region":{"code":"11","nom":"Île-de-France"}},{"nom":"Othis","code":"77349","codesPostaux":["77280"],"centre":{"type":"Point","coordinates":[2.6572,49.086]},"surface":1307.23,"population":6717,"departement":{"code":"77","nom":"Seine-et-Marne"},"region":{"code":"11","nom":"Île-de-France"}},{"nom":"Ozoir-la-Ferrière","code":"77350","codesPostaux":["77330"],"centre":{"type":"Point","coordinates":[2.6753,48.7631]},"surface":1559.39,"population":21238,"departement":{"code":"77","nom":"Seine-et-Marne"},"region":{"code":"11","nom":"Île-de-France"}},{"nom":"Ozouer-le-Voulgis","code":"77352","codesPostaux":["77390"],"centre":{"type":"Point","coordinates":[2.7754,48.6652]},"surface":1135.12,"population":2050,"departement":{"code":"77","nom":"Seine-et-Marne"},"region":{"code":"11","nom":"Île-de-France"}},{"nom":"Paley","code":"77353","codesPostaux":["77710"],"centre":{"type":"Point","coordinates":[2.8565,48.2387]},"surface":930.43,"population":483,"departement":{"code":"77","nom":"Seine-et-Marne"},"region":{"code":"11","nom":"Île-de-France"}},{"nom":"Pamfou","code":"77354","codesPostaux":["77830"],"centre":{"type":"Point","coordinates":[2.8634,48.4676]},"surface":1041.06,"population":983,"departement":{"code":"77","nom":"Seine-et-Marne"},"region":{"code":"11","nom":"Île-de-France"}},{"nom":"Paroy","code":"77355","codesPostaux":["77520"],"centre":{"type":"Point","coordinates":[3.2005,48.4796]},"surface":425.54,"population":187,"departement":{"code":"77","nom":"Seine-et-Marne"},"region":{"code":"11","nom":"Île-de-France"}},{"nom":"Passy-sur-Seine","code":"77356","codesPostaux":["77480"],"centre":{"type":"Point","coordinates":[3.3455,48.4282]},"surface":456.08,"population":49,"departement":{"code":"77","nom":"Seine-et-Marne"},"region":{"code":"11","nom":"Île-de-France"}},{"nom":"Pécy","code":"77357","codesPostaux":["77970"],"centre":{"type":"Point","coordinates":[3.0642,48.6459]},"surface":2112.49,"population":849,"departement":{"code":"77","nom":"Seine-et-Marne"},"region":{"code":"11","nom":"Île-de-France"}},{"nom":"Penchard","code":"77358","codesPostaux":["77124"],"centre":{"type":"Point","coordinates":[2.8576,48.9908]},"surface":433.13,"population":1373,"departement":{"code":"77","nom":"Seine-et-Marne"},"region":{"code":"11","nom":"Île-de-France"}},{"nom":"Perthes","code":"77359","codesPostaux":["77930"],"centre":{"type":"Point","coordinates":[2.5472,48.4786]},"surface":1229.29,"population":2073,"departement":{"code":"77","nom":"Seine-et-Marne"},"region":{"code":"11","nom":"Île-de-France"}},{"nom":"Pézarches","code":"77360","codesPostaux":["77131"],"centre":{"type":"Point","coordinates":[2.9896,48.7462]},"surface":898.07,"population":410,"departement":{"code":"77","nom":"Seine-et-Marne"},"region":{"code":"11","nom":"Île-de-France"}},{"nom":"Pierre-Levée","code":"77361","codesPostaux":["77580"],"centre":{"type":"Point","coordinates":[3.0346,48.8952]},"surface":1299.35,"population":480,"departement":{"code":"77","nom":"Seine-et-Marne"},"region":{"code":"11","nom":"Île-de-France"}},{"nom":"Le Pin","code":"77363","codesPostaux":["77181"],"centre":{"type":"Point","coordinates":[2.6286,48.9138]},"surface":670.53,"population":1530,"departement":{"code":"77","nom":"Seine-et-Marne"},"region":{"code":"11","nom":"Île-de-France"}},{"nom":"Le Plessis-aux-Bois","code":"77364","codesPostaux":["77165"],"centre":{"type":"Point","coordinates":[2.7696,49.0049]},"surface":340.74,"population":261,"departement":{"code":"77","nom":"Seine-et-Marne"},"region":{"code":"11","nom":"Île-de-France"}},{"nom":"Le Plessis-Feu-Aussoux","code":"77365","codesPostaux":["77540"],"centre":{"type":"Point","coordinates":[3.04,48.713]},"surface":558.93,"population":597,"departement":{"code":"77","nom":"Seine-et-Marne"},"region":{"code":"11","nom":"Île-de-France"}},{"nom":"Le Plessis-l'Évêque","code":"77366","codesPostaux":["77165"],"centre":{"type":"Point","coordinates":[2.7912,49.0049]},"surface":357.91,"population":291,"departement":{"code":"77","nom":"Seine-et-Marne"},"region":{"code":"11","nom":"Île-de-France"}},{"nom":"Le Plessis-Placy","code":"77367","codesPostaux":["77440"],"centre":{"type":"Point","coordinates":[2.9852,49.0534]},"surface":823.93,"population":305,"departement":{"code":"77","nom":"Seine-et-Marne"},"region":{"code":"11","nom":"Île-de-France"}},{"nom":"Poigny","code":"77368","codesPostaux":["77160"],"centre":{"type":"Point","coordinates":[3.2772,48.5449]},"surface":597.16,"population":501,"departement":{"code":"77","nom":"Seine-et-Marne"},"region":{"code":"11","nom":"Île-de-France"}},{"nom":"Poincy","code":"77369","codesPostaux":["77470"],"centre":{"type":"Point","coordinates":[2.9239,48.9739]},"surface":616.04,"population":797,"departement":{"code":"77","nom":"Seine-et-Marne"},"region":{"code":"11","nom":"Île-de-France"}},{"nom":"Poligny","code":"77370","codesPostaux":["77167"],"centre":{"type":"Point","coordinates":[2.759,48.2373]},"surface":2728.8,"population":825,"departement":{"code":"77","nom":"Seine-et-Marne"},"region":{"code":"11","nom":"Île-de-France"}},{"nom":"Pommeuse","code":"77371","codesPostaux":["77515"],"centre":{"type":"Point","coordinates":[3.0077,48.8169]},"surface":1281.6,"population":3049,"departement":{"code":"77","nom":"Seine-et-Marne"},"region":{"code":"11","nom":"Île-de-France"}},{"nom":"Pomponne","code":"77372","codesPostaux":["77400"],"centre":{"type":"Point","coordinates":[2.6776,48.887]},"surface":729.39,"population":4215,"departement":{"code":"77","nom":"Seine-et-Marne"},"region":{"code":"11","nom":"Île-de-France"}},{"nom":"Pontault-Combault","code":"77373","codesPostaux":["77340"],"centre":{"type":"Point","coordinates":[2.6173,48.7885]},"surface":1357.49,"population":39096,"departement":{"code":"77","nom":"Seine-et-Marne"},"region":{"code":"11","nom":"Île-de-France"}},{"nom":"Pontcarré","code":"77374","codesPostaux":["77135"],"centre":{"type":"Point","coordinates":[2.706,48.7954]},"surface":964.21,"population":2136,"departement":{"code":"77","nom":"Seine-et-Marne"},"region":{"code":"11","nom":"Île-de-France"}},{"nom":"Précy-sur-Marne","code":"77376","codesPostaux":["77410"],"centre":{"type":"Point","coordinates":[2.7688,48.9352]},"surface":481.7,"population":747,"departement":{"code":"77","nom":"Seine-et-Marne"},"region":{"code":"11","nom":"Île-de-France"}},{"nom":"Presles-en-Brie","code":"77377","codesPostaux":["77220"],"centre":{"type":"Point","coordinates":[2.7407,48.7106]},"surface":1747.08,"population":2369,"departement":{"code":"77","nom":"Seine-et-Marne"},"region":{"code":"11","nom":"Île-de-France"}},{"nom":"Pringy","code":"77378","codesPostaux":["77310"],"centre":{"type":"Point","coordinates":[2.5498,48.5175]},"surface":411.38,"population":3864,"departement":{"code":"77","nom":"Seine-et-Marne"},"region":{"code":"11","nom":"Île-de-France"}},{"nom":"Provins","code":"77379","codesPostaux":["77160"],"centre":{"type":"Point","coordinates":[3.2845,48.5629]},"surface":1471.23,"population":11632,"departement":{"code":"77","nom":"Seine-et-Marne"},"region":{"code":"11","nom":"Île-de-France"}},{"nom":"Puisieux","code":"77380","codesPostaux":["77139"],"centre":{"type":"Point","coordinates":[2.9163,49.0627]},"surface":924.44,"population":317,"departement":{"code":"77","nom":"Seine-et-Marne"},"region":{"code":"11","nom":"Île-de-France"}},{"nom":"Quiers","code":"77381","codesPostaux":["77720"],"centre":{"type":"Point","coordinates":[2.9611,48.6144]},"surface":1178.89,"population":650,"departement":{"code":"77","nom":"Seine-et-Marne"},"region":{"code":"11","nom":"Île-de-France"}},{"nom":"Quincy-Voisins","code":"77382","codesPostaux":["77860"],"centre":{"type":"Point","coordinates":[2.8765,48.8982]},"surface":1031.24,"population":5547,"departement":{"code":"77","nom":"Seine-et-Marne"},"region":{"code":"11","nom":"Île-de-France"}},{"nom":"Rampillon","code":"77383","codesPostaux":["77370"],"centre":{"type":"Point","coordinates":[3.0741,48.5399]},"surface":2303.45,"population":836,"departement":{"code":"77","nom":"Seine-et-Marne"},"region":{"code":"11","nom":"Île-de-France"}},{"nom":"Réau","code":"77384","codesPostaux":["77550"],"centre":{"type":"Point","coordinates":[2.6249,48.6077]},"surface":1331.8,"population":2127,"departement":{"code":"77","nom":"Seine-et-Marne"},"region":{"code":"11","nom":"Île-de-France"}},{"nom":"Rebais","code":"77385","codesPostaux":["77510"],"centre":{"type":"Point","coordinates":[3.2321,48.8575]},"surface":1102.09,"population":2294,"departement":{"code":"77","nom":"Seine-et-Marne"},"region":{"code":"11","nom":"Île-de-France"}},{"nom":"Recloses","code":"77386","codesPostaux":["77760"],"centre":{"type":"Point","coordinates":[2.6441,48.3388]},"surface":935.59,"population":633,"departement":{"code":"77","nom":"Seine-et-Marne"},"region":{"code":"11","nom":"Île-de-France"}},{"nom":"Remauville","code":"77387","codesPostaux":["77710"],"centre":{"type":"Point","coordinates":[2.8285,48.2215]},"surface":1087.02,"population":449,"departement":{"code":"77","nom":"Seine-et-Marne"},"region":{"code":"11","nom":"Île-de-France"}},{"nom":"Reuil-en-Brie","code":"77388","codesPostaux":["77260"],"centre":{"type":"Point","coordinates":[3.1608,48.9578]},"surface":594.61,"population":798,"departement":{"code":"77","nom":"Seine-et-Marne"},"region":{"code":"11","nom":"Île-de-France"}},{"nom":"La Rochette","code":"77389","codesPostaux":["77000"],"centre":{"type":"Point","coordinates":[2.6578,48.507]},"surface":584.01,"population":3932,"departement":{"code":"77","nom":"Seine-et-Marne"},"region":{"code":"11","nom":"Île-de-France"}},{"nom":"Roissy-en-Brie","code":"77390","codesPostaux":["77680"],"centre":{"type":"Point","coordinates":[2.6647,48.7913]},"surface":1362.32,"population":23229,"departement":{"code":"77","nom":"Seine-et-Marne"},"region":{"code":"11","nom":"Île-de-France"}},{"nom":"Rouilly","code":"77391","codesPostaux":["77160"],"centre":{"type":"Point","coordinates":[3.2897,48.5912]},"surface":775.7,"population":496,"departement":{"code":"77","nom":"Seine-et-Marne"},"region":{"code":"11","nom":"Île-de-France"}},{"nom":"Rouvres","code":"77392","codesPostaux":["77230"],"centre":{"type":"Point","coordinates":[2.7189,49.0657]},"surface":415.38,"population":1038,"departement":{"code":"77","nom":"Seine-et-Marne"},"region":{"code":"11","nom":"Île-de-France"}},{"nom":"Rozay-en-Brie","code":"77393","codesPostaux":["77540"],"centre":{"type":"Point","coordinates":[2.9623,48.6821]},"surface":315.89,"population":2860,"departement":{"code":"77","nom":"Seine-et-Marne"},"region":{"code":"11","nom":"Île-de-France"}},{"nom":"Rubelles","code":"77394","codesPostaux":["77950"],"centre":{"type":"Point","coordinates":[2.6808,48.5654]},"surface":391.52,"population":3537,"departement":{"code":"77","nom":"Seine-et-Marne"},"region":{"code":"11","nom":"Île-de-France"}},{"nom":"Rumont","code":"77395","codesPostaux":["77760"],"centre":{"type":"Point","coordinates":[2.4966,48.2707]},"surface":659.6,"population":125,"departement":{"code":"77","nom":"Seine-et-Marne"},"region":{"code":"11","nom":"Île-de-France"}},{"nom":"Rupéreux","code":"77396","codesPostaux":["77560"],"centre":{"type":"Point","coordinates":[3.331,48.6401]},"surface":630.86,"population":106,"departement":{"code":"77","nom":"Seine-et-Marne"},"region":{"code":"11","nom":"Île-de-France"}},{"nom":"Saâcy-sur-Marne","code":"77397","codesPostaux":["77730"],"centre":{"type":"Point","coordinates":[3.2128,48.9524]},"surface":1362.4,"population":1878,"departement":{"code":"77","nom":"Seine-et-Marne"},"region":{"code":"11","nom":"Île-de-France"}},{"nom":"Sablonnières","code":"77398","codesPostaux":["77510"],"centre":{"type":"Point","coordinates":[3.2932,48.8766]},"surface":1395.97,"population":791,"departement":{"code":"77","nom":"Seine-et-Marne"},"region":{"code":"11","nom":"Île-de-France"}},{"nom":"Saint-Augustin","code":"77400","codesPostaux":["77515"],"centre":{"type":"Point","coordinates":[3.0327,48.7869]},"surface":1035.8,"population":1888,"departement":{"code":"77","nom":"Seine-et-Marne"},"region":{"code":"11","nom":"Île-de-France"}},{"nom":"Sainte-Aulde","code":"77401","codesPostaux":["77260"],"centre":{"type":"Point","coordinates":[3.1731,49.0049]},"surface":861.96,"population":706,"departement":{"code":"77","nom":"Seine-et-Marne"},"region":{"code":"11","nom":"Île-de-France"}},{"nom":"Saint-Barthélemy","code":"77402","codesPostaux":["77320"],"centre":{"type":"Point","coordinates":[3.3603,48.8179]},"surface":1501.86,"population":335,"departement":{"code":"77","nom":"Seine-et-Marne"},"region":{"code":"11","nom":"Île-de-France"}},{"nom":"Saint-Brice","code":"77403","codesPostaux":["77160"],"centre":{"type":"Point","coordinates":[3.3365,48.5733]},"surface":1146.09,"population":819,"departement":{"code":"77","nom":"Seine-et-Marne"},"region":{"code":"11","nom":"Île-de-France"}},{"nom":"Sainte-Colombe","code":"77404","codesPostaux":["77650"],"centre":{"type":"Point","coordinates":[3.261,48.5367]},"surface":814.81,"population":1781,"departement":{"code":"77","nom":"Seine-et-Marne"},"region":{"code":"11","nom":"Île-de-France"}},{"nom":"Saint-Cyr-sur-Morin","code":"77405","codesPostaux":["77750"],"centre":{"type":"Point","coordinates":[3.1746,48.9141]},"surface":1908.03,"population":1976,"departement":{"code":"77","nom":"Seine-et-Marne"},"region":{"code":"11","nom":"Île-de-France"}},{"nom":"Saint-Denis-lès-Rebais","code":"77406","codesPostaux":["77510"],"centre":{"type":"Point","coordinates":[3.195,48.8475]},"surface":1510.17,"population":966,"departement":{"code":"77","nom":"Seine-et-Marne"},"region":{"code":"11","nom":"Île-de-France"}},{"nom":"Saint-Fargeau-Ponthierry","code":"77407","codesPostaux":["77310"],"centre":{"type":"Point","coordinates":[2.5291,48.541]},"surface":1661.1,"population":15724,"departement":{"code":"77","nom":"Seine-et-Marne"},"region":{"code":"11","nom":"Île-de-France"}},{"nom":"Saint-Fiacre","code":"77408","codesPostaux":["77470"],"centre":{"type":"Point","coordinates":[2.9528,48.9234]},"surface":275.27,"population":523,"departement":{"code":"77","nom":"Seine-et-Marne"},"region":{"code":"11","nom":"Île-de-France"}},{"nom":"Saint-Germain-Laval","code":"77409","codesPostaux":["77130"],"centre":{"type":"Point","coordinates":[3.0004,48.4104]},"surface":886.1,"population":2888,"departement":{"code":"77","nom":"Seine-et-Marne"},"region":{"code":"11","nom":"Île-de-France"}},{"nom":"Saint-Germain-Laxis","code":"77410","codesPostaux":["77950"],"centre":{"type":"Point","coordinates":[2.7046,48.5895]},"surface":721.86,"population":742,"departement":{"code":"77","nom":"Seine-et-Marne"},"region":{"code":"11","nom":"Île-de-France"}},{"nom":"Saint-Germain-sous-Doue","code":"77411","codesPostaux":["77169"],"centre":{"type":"Point","coordinates":[3.1415,48.8517]},"surface":1000.85,"population":549,"departement":{"code":"77","nom":"Seine-et-Marne"},"region":{"code":"11","nom":"Île-de-France"}},{"nom":"Saint-Germain-sur-École","code":"77412","codesPostaux":["77930"],"centre":{"type":"Point","coordinates":[2.5115,48.4745]},"surface":252.79,"population":365,"departement":{"code":"77","nom":"Seine-et-Marne"},"region":{"code":"11","nom":"Île-de-France"}},{"nom":"Saint-Germain-sur-Morin","code":"77413","codesPostaux":["77860"],"centre":{"type":"Point","coordinates":[2.8428,48.8745]},"surface":478.06,"population":3902,"departement":{"code":"77","nom":"Seine-et-Marne"},"region":{"code":"11","nom":"Île-de-France"}},{"nom":"Saint-Hilliers","code":"77414","codesPostaux":["77160"],"centre":{"type":"Point","coordinates":[3.2612,48.6323]},"surface":1907.21,"population":474,"departement":{"code":"77","nom":"Seine-et-Marne"},"region":{"code":"11","nom":"Île-de-France"}},{"nom":"Saint-Jean-les-Deux-Jumeaux","code":"77415","codesPostaux":["77660"],"centre":{"type":"Point","coordinates":[3.0291,48.9381]},"surface":1337.86,"population":1298,"departement":{"code":"77","nom":"Seine-et-Marne"},"region":{"code":"11","nom":"Île-de-France"}},{"nom":"Saint-Just-en-Brie","code":"77416","codesPostaux":["77370"],"centre":{"type":"Point","coordinates":[3.1259,48.6109]},"surface":735.66,"population":265,"departement":{"code":"77","nom":"Seine-et-Marne"},"region":{"code":"11","nom":"Île-de-France"}},{"nom":"Saint-Léger","code":"77417","codesPostaux":["77510"],"centre":{"type":"Point","coordinates":[3.2709,48.8424]},"surface":981.45,"population":244,"departement":{"code":"77","nom":"Seine-et-Marne"},"region":{"code":"11","nom":"Île-de-France"}},{"nom":"Saint-Loup-de-Naud","code":"77418","codesPostaux":["77650"],"centre":{"type":"Point","coordinates":[3.217,48.5368]},"surface":1095.69,"population":848,"departement":{"code":"77","nom":"Seine-et-Marne"},"region":{"code":"11","nom":"Île-de-France"}},