[{"nom":"Abainville","code":"55001","codesPostaux":["55130"],"centre":{"type":"Point","coordinates":[5.5236,48.531]},"surface":1357.19,"population":280,"departement":{"code":"55","nom":"Meuse"},"region":{"code":"44","nom":"Grand Est"}},{"nom":"Abaucourt-Hautecourt","code":"55002","codesPostaux":["55400"],"centre":{"type":"Point","coordinates":[5.5469,49.1998]},"surface":964.18,"population":101,"departement":{"code":"55","nom":"Meuse"},"region":{"code":"44","nom":"Grand Est"}},{"nom":"Aincreville","code":"55004","codesPostaux":["55110"],"centre":{"type":"Point","coordinates":[5.1147,49.3687]},"surface":911,"population":80,"departement":{"code":"55","nom":"Meuse"},"region":{"code":"44","nom":"Grand Est"}},{"nom":"Amanty","code":"55005","codesPostaux":["55130"],"centre":{"type":"Point","coordinates":[5.6016,48.516]},"surface":1112.12,"population":36,"departement":{"code":"55","nom":"Meuse"},"region":{"code":"44","nom":"Grand Est"}},{"nom":"Ambly-sur-Meuse","code":"55007","codesPostaux":["55300"],"centre":{"type":"Point","coordinates":[5.4521,49.022]},"surface":635.04,"population":245,"departement":{"code":"55","nom":"Meuse"},"region":{"code":"44","nom":"Grand Est"}},{"nom":"Amel-sur-l'Étang","code":"55008","codesPostaux":["55230"],"centre":{"type":"Point","coordinates":[5.645,49.2569]},"surface":1527.82,"population":153,"departement":{"code":"55","nom":"Meuse"},"region":{"code":"44","nom":"Grand Est"}},{"nom":"Ancemont","code":"55009","codesPostaux":["55320"],"centre":{"type":"Point","coordinates":[5.3811,49.0632]},"surface":1331.14,"population":527,"departement":{"code":"55","nom":"Meuse"},"region":{"code":"44","nom":"Grand Est"}},{"nom":"Ancerville","code":"55010","codesPostaux":["55170"],"centre":{"type":"Point","coordinates":[5.0266,48.6391]},"surface":2144.95,"population":2569,"departement":{"code":"55","nom":"Meuse"},"region":{"code":"44","nom":"Grand Est"}},{"nom":"Andernay","code":"55011","codesPostaux":["55800"],"centre":{"type":"Point","coordinates":[4.9524,48.7827]},"surface":428.11,"population":236,"departement":{"code":"55","nom":"Meuse"},"region":{"code":"44","nom":"Grand Est"}},{"nom":"Apremont-la-Forêt","code":"55012","codesPostaux":["55300"],"centre":{"type":"Point","coordinates":[5.6207,48.8467]},"surface":3288.27,"population":427,"departement":{"code":"55","nom":"Meuse"},"region":{"code":"44","nom":"Grand Est"}},{"nom":"Arrancy-sur-Crusnes","code":"55013","codesPostaux":["55230"],"centre":{"type":"Point","coordinates":[5.6499,49.4127]},"surface":2009.68,"population":466,"departement":{"code":"55","nom":"Meuse"},"region":{"code":"44","nom":"Grand Est"}},{"nom":"Aubréville","code":"55014","codesPostaux":["55120"],"centre":{"type":"Point","coordinates":[5.0979,49.1598]},"surface":2889.21,"population":375,"departement":{"code":"55","nom":"Meuse"},"region":{"code":"44","nom":"Grand Est"}},{"nom":"Aulnois-en-Perthois","code":"55015","codesPostaux":["55170"],"centre":{"type":"Point","coordinates":[5.1227,48.6362]},"surface":1077.92,"population":462,"departement":{"code":"55","nom":"Meuse"},"region":{"code":"44","nom":"Grand Est"}},{"nom":"Autrécourt-sur-Aire","code":"55017","codesPostaux":["55120"],"centre":{"type":"Point","coordinates":[5.1439,49.0272]},"surface":1091.68,"population":109,"departement":{"code":"55","nom":"Meuse"},"region":{"code":"44","nom":"Grand Est"}},{"nom":"Autréville-Saint-Lambert","code":"55018","codesPostaux":["55700"],"centre":{"type":"Point","coordinates":[5.1351,49.5645]},"surface":399.65,"population":33,"departement":{"code":"55","nom":"Meuse"},"region":{"code":"44","nom":"Grand Est"}},{"nom":"Avillers-Sainte-Croix","code":"55021","codesPostaux":["55210"],"centre":{"type":"Point","coordinates":[5.702,49.0337]},"surface":548.09,"population":80,"departement":{"code":"55","nom":"Meuse"},"region":{"code":"44","nom":"Grand Est"}},{"nom":"Avioth","code":"55022","codesPostaux":["55600"],"centre":{"type":"Point","coordinates":[5.3897,49.5673]},"surface":648.5,"population":119,"departement":{"code":"55","nom":"Meuse"},"region":{"code":"44","nom":"Grand Est"}},{"nom":"Avocourt","code":"55023","codesPostaux":["55270"],"centre":{"type":"Point","coordinates":[5.1407,49.2046]},"surface":1468.22,"population":120,"departement":{"code":"55","nom":"Meuse"},"region":{"code":"44","nom":"Grand Est"}},{"nom":"Azannes-et-Soumazannes","code":"55024","codesPostaux":["55150"],"centre":{"type":"Point","coordinates":[5.4684,49.288]},"surface":1845.28,"population":168,"departement":{"code":"55","nom":"Meuse"},"region":{"code":"44","nom":"Grand Est"}},{"nom":"Baâlon","code":"55025","codesPostaux":["55700"],"centre":{"type":"Point","coordinates":[5.2623,49.485]},"surface":1457.96,"population":260,"departement":{"code":"55","nom":"Meuse"},"region":{"code":"44","nom":"Grand Est"}},{"nom":"Badonvilliers-Gérauvilliers","code":"55026","codesPostaux":["55130"],"centre":{"type":"Point","coordinates":[5.5781,48.5434]},"surface":2111.84,"population":126,"departement":{"code":"55","nom":"Meuse"},"region":{"code":"44","nom":"Grand Est"}},{"nom":"Bannoncourt","code":"55027","codesPostaux":["55300"],"centre":{"type":"Point","coordinates":[5.4805,48.9551]},"surface":878.55,"population":159,"departement":{"code":"55","nom":"Meuse"},"region":{"code":"44","nom":"Grand Est"}},{"nom":"Bantheville","code":"55028","codesPostaux":["55110"],"centre":{"type":"Point","coordinates":[5.0718,49.3522]},"surface":1436.41,"population":102,"departement":{"code":"55","nom":"Meuse"},"region":{"code":"44","nom":"Grand Est"}},{"nom":"Bar-le-Duc","code":"55029","codesPostaux":["55000"],"centre":{"type":"Point","coordinates":[5.1732,48.7628]},"surface":2375.58,"population":14607,"departement":{"code":"55","nom":"Meuse"},"region":{"code":"44","nom":"Grand Est"}},{"nom":"Baudonvilliers","code":"55031","codesPostaux":["55170"],"centre":{"type":"Point","coordinates":[5.0056,48.6894]},"surface":303.79,"population":377,"departement":{"code":"55","nom":"Meuse"},"region":{"code":"44","nom":"Grand Est"}},{"nom":"Baudrémont","code":"55032","codesPostaux":["55260"],"centre":{"type":"Point","coordinates":[5.3946,48.8363]},"surface":670.62,"population":44,"departement":{"code":"55","nom":"Meuse"},"region":{"code":"44","nom":"Grand Est"}},{"nom":"Baulny","code":"55033","codesPostaux":["55270"],"centre":{"type":"Point","coordinates":[5.0252,49.2661]},"surface":392.39,"population":19,"departement":{"code":"55","nom":"Meuse"},"region":{"code":"44","nom":"Grand Est"}},{"nom":"Bazeilles-sur-Othain","code":"55034","codesPostaux":["55600"],"centre":{"type":"Point","coordinates":[5.4273,49.5007]},"surface":769.83,"population":107,"departement":{"code":"55","nom":"Meuse"},"region":{"code":"44","nom":"Grand Est"}},{"nom":"Bazincourt-sur-Saulx","code":"55035","codesPostaux":["55170"],"centre":{"type":"Point","coordinates":[5.1411,48.6874]},"surface":1026.97,"population":141,"departement":{"code":"55","nom":"Meuse"},"region":{"code":"44","nom":"Grand Est"}},{"nom":"Beauclair","code":"55036","codesPostaux":["55700"],"centre":{"type":"Point","coordinates":[5.1175,49.4529]},"surface":486.29,"population":86,"departement":{"code":"55","nom":"Meuse"},"region":{"code":"44","nom":"Grand Est"}},{"nom":"Beaufort-en-Argonne","code":"55037","codesPostaux":["55700"],"centre":{"type":"Point","coordinates":[5.1106,49.48]},"surface":1102.7,"population":127,"departement":{"code":"55","nom":"Meuse"},"region":{"code":"44","nom":"Grand Est"}},{"nom":"Beaulieu-en-Argonne","code":"55038","codesPostaux":["55250"],"centre":{"type":"Point","coordinates":[5.0339,49.045]},"surface":2960.69,"population":37,"departement":{"code":"55","nom":"Meuse"},"region":{"code":"44","nom":"Grand Est"}},{"nom":"Beaumont-en-Verdunois","code":"55039","codesPostaux":["55100"],"centre":{"type":"Point","coordinates":[5.4034,49.265]},"surface":779.5,"population":0,"departement":{"code":"55","nom":"Meuse"},"region":{"code":"44","nom":"Grand Est"}},{"nom":"Beausite","code":"55040","codesPostaux":["55250"],"centre":{"type":"Point","coordinates":[5.2183,48.9658]},"surface":2550.16,"population":257,"departement":{"code":"55","nom":"Meuse"},"region":{"code":"44","nom":"Grand Est"}},{"nom":"Behonne","code":"55041","codesPostaux":["55000"],"centre":{"type":"Point","coordinates":[5.1702,48.7978]},"surface":916.02,"population":595,"departement":{"code":"55","nom":"Meuse"},"region":{"code":"44","nom":"Grand Est"}},{"nom":"Belleray","code":"55042","codesPostaux":["55100"],"centre":{"type":"Point","coordinates":[5.37,49.13]},"surface":506.53,"population":464,"departement":{"code":"55","nom":"Meuse"},"region":{"code":"44","nom":"Grand Est"}},{"nom":"Belleville-sur-Meuse","code":"55043","codesPostaux":["55430"],"centre":{"type":"Point","coordinates":[5.3976,49.1798]},"surface":1013.92,"population":3013,"departement":{"code":"55","nom":"Meuse"},"region":{"code":"44","nom":"Grand Est"}},{"nom":"Belrain","code":"55044","codesPostaux":["55260"],"centre":{"type":"Point","coordinates":[5.3065,48.8617]},"surface":825.22,"population":41,"departement":{"code":"55","nom":"Meuse"},"region":{"code":"44","nom":"Grand Est"}},{"nom":"Belrupt-en-Verdunois","code":"55045","codesPostaux":["55100"],"centre":{"type":"Point","coordinates":[5.448,49.1497]},"surface":937.47,"population":536,"departement":{"code":"55","nom":"Meuse"},"region":{"code":"44","nom":"Grand Est"}},{"nom":"Beney-en-Woëvre","code":"55046","codesPostaux":["55210"],"centre":{"type":"Point","coordinates":[5.8028,48.9633]},"surface":1749.68,"population":136,"departement":{"code":"55","nom":"Meuse"},"region":{"code":"44","nom":"Grand Est"}},{"nom":"Béthelainville","code":"55047","codesPostaux":["55100"],"centre":{"type":"Point","coordinates":[5.2245,49.1694]},"surface":1199.71,"population":160,"departement":{"code":"55","nom":"Meuse"},"region":{"code":"44","nom":"Grand Est"}},{"nom":"Béthincourt","code":"55048","codesPostaux":["55270"],"centre":{"type":"Point","coordinates":[5.2201,49.2477]},"surface":1321.55,"population":50,"departement":{"code":"55","nom":"Meuse"},"region":{"code":"44","nom":"Grand Est"}},{"nom":"Beurey-sur-Saulx","code":"55049","codesPostaux":["55000"],"centre":{"type":"Point","coordinates":[5.029,48.7593]},"surface":1154.71,"population":412,"departement":{"code":"55","nom":"Meuse"},"region":{"code":"44","nom":"Grand Est"}},{"nom":"Bezonvaux","code":"55050","codesPostaux":["55100"],"centre":{"type":"Point","coordinates":[5.4752,49.2294]},"surface":924.85,"population":0,"departement":{"code":"55","nom":"Meuse"},"region":{"code":"44","nom":"Grand Est"}},{"nom":"Biencourt-sur-Orge","code":"55051","codesPostaux":["55290"],"centre":{"type":"Point","coordinates":[5.345,48.5697]},"surface":1242.03,"population":112,"departement":{"code":"55","nom":"Meuse"},"region":{"code":"44","nom":"Grand Est"}},{"nom":"Billy-sous-Mangiennes","code":"55053","codesPostaux":["55230"],"centre":{"type":"Point","coordinates":[5.5651,49.3221]},"surface":2514.81,"population":349,"departement":{"code":"55","nom":"Meuse"},"region":{"code":"44","nom":"Grand Est"}},{"nom":"Bislée","code":"55054","codesPostaux":["55300"],"centre":{"type":"Point","coordinates":[5.509,48.8722]},"surface":502.33,"population":63,"departement":{"code":"55","nom":"Meuse"},"region":{"code":"44","nom":"Grand Est"}},{"nom":"Blanzée","code":"55055","codesPostaux":["55400"],"centre":{"type":"Point","coordinates":[5.5335,49.1609]},"surface":341.38,"population":12,"departement":{"code":"55","nom":"Meuse"},"region":{"code":"44","nom":"Grand Est"}},{"nom":"Boinville-en-Woëvre","code":"55057","codesPostaux":["55400"],"centre":{"type":"Point","coordinates":[5.679,49.1881]},"surface":565.03,"population":75,"departement":{"code":"55","nom":"Meuse"},"region":{"code":"44","nom":"Grand Est"}},{"nom":"Boncourt-sur-Meuse","code":"55058","codesPostaux":["55200"],"centre":{"type":"Point","coordinates":[5.5838,48.8116]},"surface":1089.94,"population":313,"departement":{"code":"55","nom":"Meuse"},"region":{"code":"44","nom":"Grand Est"}},{"nom":"Bonnet","code":"55059","codesPostaux":["55130"],"centre":{"type":"Point","coordinates":[5.4219,48.5243]},"surface":2897.79,"population":177,"departement":{"code":"55","nom":"Meuse"},"region":{"code":"44","nom":"Grand Est"}},{"nom":"Bonzée","code":"55060","codesPostaux":["55160"],"centre":{"type":"Point","coordinates":[5.5692,49.0894]},"surface":2123.69,"population":366,"departement":{"code":"55","nom":"Meuse"},"region":{"code":"44","nom":"Grand Est"}},{"nom":"Le Bouchon-sur-Saulx","code":"55061","codesPostaux":["55500"],"centre":{"type":"Point","coordinates":[5.2242,48.6106]},"surface":534.48,"population":227,"departement":{"code":"55","nom":"Meuse"},"region":{"code":"44","nom":"Grand Est"}},{"nom":"Bouconville-sur-Madt","code":"55062","codesPostaux":["55300"],"centre":{"type":"Point","coordinates":[5.7039,48.844]},"surface":857.33,"population":99,"departement":{"code":"55","nom":"Meuse"},"region":{"code":"44","nom":"Grand Est"}},{"nom":"Bouligny","code":"55063","codesPostaux":["55240"],"centre":{"type":"Point","coordinates":[5.7422,49.293]},"surface":1104.73,"population":2507,"departement":{"code":"55","nom":"Meuse"},"region":{"code":"44","nom":"Grand Est"}},{"nom":"Bouquemont","code":"55064","codesPostaux":["55300"],"centre":{"type":"Point","coordinates":[5.4274,48.9825]},"surface":745.11,"population":119,"departement":{"code":"55","nom":"Meuse"},"region":{"code":"44","nom":"Grand Est"}},{"nom":"Boureuilles","code":"55065","codesPostaux":["55270"],"centre":{"type":"Point","coordinates":[5.022,49.1988]},"surface":2149.61,"population":118,"departement":{"code":"55","nom":"Meuse"},"region":{"code":"44","nom":"Grand Est"}},{"nom":"Bovée-sur-Barboure","code":"55066","codesPostaux":["55190"],"centre":{"type":"Point","coordinates":[5.5123,48.6366]},"surface":1332.27,"population":133,"departement":{"code":"55","nom":"Meuse"},"region":{"code":"44","nom":"Grand Est"}},{"nom":"Boviolles","code":"55067","codesPostaux":["55500"],"centre":{"type":"Point","coordinates":[5.4155,48.6433]},"surface":817.36,"population":99,"departement":{"code":"55","nom":"Meuse"},"region":{"code":"44","nom":"Grand Est"}},{"nom":"Brabant-en-Argonne","code":"55068","codesPostaux":["55120"],"centre":{"type":"Point","coordinates":[5.1505,49.1198]},"surface":797.62,"population":98,"departement":{"code":"55","nom":"Meuse"},"region":{"code":"44","nom":"Grand Est"}},{"nom":"Brabant-le-Roi","code":"55069","codesPostaux":["55800"],"centre":{"type":"Point","coordinates":[4.9784,48.8576]},"surface":1113.49,"population":221,"departement":{"code":"55","nom":"Meuse"},"region":{"code":"44","nom":"Grand Est"}},{"nom":"Brabant-sur-Meuse","code":"55070","codesPostaux":["55100"],"centre":{"type":"Point","coordinates":[5.3223,49.2802]},"surface":685.92,"population":118,"departement":{"code":"55","nom":"Meuse"},"region":{"code":"44","nom":"Grand Est"}},{"nom":"Brandeville","code":"55071","codesPostaux":["55150"],"centre":{"type":"Point","coordinates":[5.3087,49.3915]},"surface":1207.06,"population":165,"departement":{"code":"55","nom":"Meuse"},"region":{"code":"44","nom":"Grand Est"}},{"nom":"Braquis","code":"55072","codesPostaux":["55400"],"centre":{"type":"Point","coordinates":[5.6258,49.1563]},"surface":492.49,"population":105,"departement":{"code":"55","nom":"Meuse"},"region":{"code":"44","nom":"Grand Est"}},{"nom":"Bras-sur-Meuse","code":"55073","codesPostaux":["55100"],"centre":{"type":"Point","coordinates":[5.3906,49.2074]},"surface":1373.62,"population":661,"departement":{"code":"55","nom":"Meuse"},"region":{"code":"44","nom":"Grand Est"}},{"nom":"Brauvilliers","code":"55075","codesPostaux":["55170"],"centre":{"type":"Point","coordinates":[5.155,48.5768]},"surface":911.33,"population":159,"departement":{"code":"55","nom":"Meuse"},"region":{"code":"44","nom":"Grand Est"}},{"nom":"Bréhéville","code":"55076","codesPostaux":["55150"],"centre":{"type":"Point","coordinates":[5.3306,49.3828]},"surface":1839.11,"population":187,"departement":{"code":"55","nom":"Meuse"},"region":{"code":"44","nom":"Grand Est"}},{"nom":"Breux","code":"55077","codesPostaux":["55600"],"centre":{"type":"Point","coordinates":[5.3962,49.593]},"surface":1301.93,"population":258,"departement":{"code":"55","nom":"Meuse"},"region":{"code":"44","nom":"Grand Est"}},{"nom":"Brieulles-sur-Meuse","code":"55078","codesPostaux":["55110"],"centre":{"type":"Point","coordinates":[5.1723,49.3283]},"surface":2408.48,"population":318,"departement":{"code":"55","nom":"Meuse"},"region":{"code":"44","nom":"Grand Est"}},{"nom":"Brillon-en-Barrois","code":"55079","codesPostaux":["55000"],"centre":{"type":"Point","coordinates":[5.1079,48.7171]},"surface":1126.41,"population":704,"departement":{"code":"55","nom":"Meuse"},"region":{"code":"44","nom":"Grand Est"}},{"nom":"Brixey-aux-Chanoines","code":"55080","codesPostaux":["55140"],"centre":{"type":"Point","coordinates":[5.7161,48.4754]},"surface":762.58,"population":77,"departement":{"code":"55","nom":"Meuse"},"region":{"code":"44","nom":"Grand Est"}},{"nom":"Brizeaux","code":"55081","codesPostaux":["55250"],"centre":{"type":"Point","coordinates":[5.0555,49.0054]},"surface":833.44,"population":63,"departement":{"code":"55","nom":"Meuse"},"region":{"code":"44","nom":"Grand Est"}},{"nom":"Brocourt-en-Argonne","code":"55082","codesPostaux":["55120"],"centre":{"type":"Point","coordinates":[5.1715,49.1117]},"surface":663.12,"population":46,"departement":{"code":"55","nom":"Meuse"},"region":{"code":"44","nom":"Grand Est"}},{"nom":"Brouennes","code":"55083","codesPostaux":["55700"],"centre":{"type":"Point","coordinates":[5.2508,49.5223]},"surface":1220.27,"population":149,"departement":{"code":"55","nom":"Meuse"},"region":{"code":"44","nom":"Grand Est"}},{"nom":"Broussey-en-Blois","code":"55084","codesPostaux":["55190"],"centre":{"type":"Point","coordinates":[5.5534,48.6342]},"surface":1104.94,"population":57,"departement":{"code":"55","nom":"Meuse"},"region":{"code":"44","nom":"Grand Est"}},{"nom":"Broussey-Raulecourt","code":"55085","codesPostaux":["55200"],"centre":{"type":"Point","coordinates":[5.7151,48.8142]},"surface":2116.51,"population":283,"departement":{"code":"55","nom":"Meuse"},"region":{"code":"44","nom":"Grand Est"}},{"nom":"Bure","code":"55087","codesPostaux":["55290"],"centre":{"type":"Point","coordinates":[5.342,48.5062]},"surface":1842.19,"population":93,"departement":{"code":"55","nom":"Meuse"},"region":{"code":"44","nom":"Grand Est"}},{"nom":"Burey-en-Vaux","code":"55088","codesPostaux":["55140"],"centre":{"type":"Point","coordinates":[5.6462,48.5558]},"surface":643.19,"population":153,"departement":{"code":"55","nom":"Meuse"},"region":{"code":"44","nom":"Grand Est"}},{"nom":"Burey-la-Côte","code":"55089","codesPostaux":["55140"],"centre":{"type":"Point","coordinates":[5.6838,48.5011]},"surface":426.36,"population":86,"departement":{"code":"55","nom":"Meuse"},"region":{"code":"44","nom":"Grand Est"}},{"nom":"Buxières-sous-les-Côtes","code":"55093","codesPostaux":["55300"],"centre":{"type":"Point","coordinates":[5.6815,48.9055]},"surface":2675.6,"population":264,"departement":{"code":"55","nom":"Meuse"},"region":{"code":"44","nom":"Grand Est"}},{"nom":"Buzy-Darmont","code":"55094","codesPostaux":["55400"],"centre":{"type":"Point","coordinates":[5.7153,49.1711]},"surface":1395.58,"population":520,"departement":{"code":"55","nom":"Meuse"},"region":{"code":"44","nom":"Grand Est"}},{"nom":"Cesse","code":"55095","codesPostaux":["55700"],"centre":{"type":"Point","coordinates":[5.1382,49.5086]},"surface":531.65,"population":119,"departement":{"code":"55","nom":"Meuse"},"region":{"code":"44","nom":"Grand Est"}},{"nom":"Chaillon","code":"55096","codesPostaux":["55210"],"centre":{"type":"Point","coordinates":[5.6518,48.9496]},"surface":1144.64,"population":110,"departement":{"code":"55","nom":"Meuse"},"region":{"code":"44","nom":"Grand Est"}},{"nom":"Chalaines","code":"55097","codesPostaux":["55140"],"centre":{"type":"Point","coordinates":[5.6974,48.5963]},"surface":841.8,"population":299,"departement":{"code":"55","nom":"Meuse"},"region":{"code":"44","nom":"Grand Est"}},{"nom":"Champneuville","code":"55099","codesPostaux":["55100"],"centre":{"type":"Point","coordinates":[5.332,49.2377]},"surface":1191.92,"population":115,"departement":{"code":"55","nom":"Meuse"},"region":{"code":"44","nom":"Grand Est"}},{"nom":"Champougny","code":"55100","codesPostaux":["55140"],"centre":{"type":"Point","coordinates":[5.7014,48.5437]},"surface":590.57,"population":92,"departement":{"code":"55","nom":"Meuse"},"region":{"code":"44","nom":"Grand Est"}},{"nom":"Chardogne","code":"55101","codesPostaux":["55000"],"centre":{"type":"Point","coordinates":[5.1277,48.8263]},"surface":1279.3,"population":305,"departement":{"code":"55","nom":"Meuse"},"region":{"code":"44","nom":"Grand Est"}},{"nom":"Charny-sur-Meuse","code":"55102","codesPostaux":["55100"],"centre":{"type":"Point","coordinates":[5.3422,49.2024]},"surface":1262.39,"population":522,"departement":{"code":"55","nom":"Meuse"},"region":{"code":"44","nom":"Grand Est"}},{"nom":"Charpentry","code":"55103","codesPostaux":["55270"],"centre":{"type":"Point","coordinates":[5.0413,49.2582]},"surface":435.47,"population":24,"departement":{"code":"55","nom":"Meuse"},"region":{"code":"44","nom":"Grand Est"}},{"nom":"Chassey-Beaupré","code":"55104","codesPostaux":["55130"],"centre":{"type":"Point","coordinates":[5.4375,48.4446]},"surface":1418.44,"population":94,"departement":{"code":"55","nom":"Meuse"},"region":{"code":"44","nom":"Grand Est"}},{"nom":"Châtillon-sous-les-Côtes","code":"55105","codesPostaux":["55400"],"centre":{"type":"Point","coordinates":[5.5129,49.1393]},"surface":1071.75,"population":176,"departement":{"code":"55","nom":"Meuse"},"region":{"code":"44","nom":"Grand Est"}},{"nom":"Chattancourt","code":"55106","codesPostaux":["55100"],"centre":{"type":"Point","coordinates":[5.2654,49.2154]},"surface":1026.47,"population":175,"departement":{"code":"55","nom":"Meuse"},"region":{"code":"44","nom":"Grand Est"}},{"nom":"Chaumont-devant-Damvillers","code":"55107","codesPostaux":["55150"],"centre":{"type":"Point","coordinates":[5.434,49.3108]},"surface":531.34,"population":46,"departement":{"code":"55","nom":"Meuse"},"region":{"code":"44","nom":"Grand Est"}},{"nom":"Chaumont-sur-Aire","code":"55108","codesPostaux":["55260"],"centre":{"type":"Point","coordinates":[5.2707,48.9232]},"surface":992.21,"population":119,"departement":{"code":"55","nom":"Meuse"},"region":{"code":"44","nom":"Grand Est"}},{"nom":"Chauvency-le-Château","code":"55109","codesPostaux":["55600"],"centre":{"type":"Point","coordinates":[5.306,49.5282]},"surface":920.42,"population":224,"departement":{"code":"55","nom":"Meuse"},"region":{"code":"44","nom":"Grand Est"}},{"nom":"Chauvency-Saint-Hubert","code":"55110","codesPostaux":["55600"],"centre":{"type":"Point","coordinates":[5.2985,49.5386]},"surface":1077.97,"population":209,"departement":{"code":"55","nom":"Meuse"},"region":{"code":"44","nom":"Grand Est"}},{"nom":"Chauvoncourt","code":"55111","codesPostaux":["55300"],"centre":{"type":"Point","coordinates":[5.4936,48.894]},"surface":1009.84,"population":430,"departement":{"code":"55","nom":"Meuse"},"region":{"code":"44","nom":"Grand Est"}},{"nom":"Cheppy","code":"55113","codesPostaux":["55270"],"centre":{"type":"Point","coordinates":[5.0782,49.2269]},"surface":1487.14,"population":156,"departement":{"code":"55","nom":"Meuse"},"region":{"code":"44","nom":"Grand Est"}},{"nom":"Chonville-Malaumont","code":"55114","codesPostaux":["55200"],"centre":{"type":"Point","coordinates":[5.4868,48.7592]},"surface":1885.08,"population":207,"departement":{"code":"55","nom":"Meuse"},"region":{"code":"44","nom":"Grand Est"}},{"nom":"Cierges-sous-Montfaucon","code":"55115","codesPostaux":["55270"],"centre":{"type":"Point","coordinates":[5.0903,49.3009]},"surface":925.73,"population":47,"departement":{"code":"55","nom":"Meuse"},"region":{"code":"44","nom":"Grand Est"}},{"nom":"Le Claon","code":"55116","codesPostaux":["55120"],"centre":{"type":"Point","coordinates":[4.9925,49.1452]},"surface":727.28,"population":46,"departement":{"code":"55","nom":"Meuse"},"region":{"code":"44","nom":"Grand Est"}},{"nom":"Clermont-en-Argonne","code":"55117","codesPostaux":["55120"],"centre":{"type":"Point","coordinates":[5.0925,49.1202]},"surface":6703.66,"population":1406,"departement":{"code":"55","nom":"Meuse"},"region":{"code":"44","nom":"Grand Est"}},{"nom":"Cléry-le-Grand","code":"55118","codesPostaux":["55110"],"centre":{"type":"Point","coordinates":[5.1421,49.362]},"surface":719.93,"population":88,"departement":{"code":"55","nom":"Meuse"},"region":{"code":"44","nom":"Grand Est"}},{"nom":"Cléry-le-Petit","code":"55119","codesPostaux":["55110"],"centre":{"type":"Point","coordinates":[5.167,49.3647]},"surface":458.65,"population":183,"departement":{"code":"55","nom":"Meuse"},"region":{"code":"44","nom":"Grand Est"}},{"nom":"Combles-en-Barrois","code":"55120","codesPostaux":["55000"],"centre":{"type":"Point","coordinates":[5.1124,48.7427]},"surface":1033.84,"population":770,"departement":{"code":"55","nom":"Meuse"},"region":{"code":"44","nom":"Grand Est"}},{"nom":"Combres-sous-les-Côtes","code":"55121","codesPostaux":["55160"],"centre":{"type":"Point","coordinates":[5.6201,49.0634]},"surface":509.79,"population":108,"departement":{"code":"55","nom":"Meuse"},"region":{"code":"44","nom":"Grand Est"}},{"nom":"Commercy","code":"55122","codesPostaux":["55200"],"centre":{"type":"Point","coordinates":[5.5658,48.749]},"surface":3551.72,"population":5350,"departement":{"code":"55","nom":"Meuse"},"region":{"code":"44","nom":"Grand Est"}},{"nom":"Les Hauts-de-Chée","code":"55123","codesPostaux":["55000"],"centre":{"type":"Point","coordinates":[5.1711,48.8724]},"surface":5007.08,"population":693,"departement":{"code":"55","nom":"Meuse"},"region":{"code":"44","nom":"Grand Est"}},{"nom":"Consenvoye","code":"55124","codesPostaux":["55110"],"centre":{"type":"Point","coordinates":[5.3136,49.2961]},"surface":1616.18,"population":281,"departement":{"code":"55","nom":"Meuse"},"region":{"code":"44","nom":"Grand Est"}},{"nom":"Contrisson","code":"55125","codesPostaux":["55800"],"centre":{"type":"Point","coordinates":[4.9572,48.8029]},"surface":1190.29,"population":764,"departement":{"code":"55","nom":"Meuse"},"region":{"code":"44","nom":"Grand Est"}},{"nom":"Courcelles-en-Barrois","code":"55127","codesPostaux":["55260"],"centre":{"type":"Point","coordinates":[5.4277,48.8252]},"surface":719.16,"population":49,"departement":{"code":"55","nom":"Meuse"},"region":{"code":"44","nom":"Grand Est"}},{"nom":"Courcelles-sur-Aire","code":"55128","codesPostaux":["55260"],"centre":{"type":"Point","coordinates":[5.2331,48.9407]},"surface":1186.85,"population":43,"departement":{"code":"55","nom":"Meuse"},"region":{"code":"44","nom":"Grand Est"}},{"nom":"Courouvre","code":"55129","codesPostaux":["55260"],"centre":{"type":"Point","coordinates":[5.3569,48.9454]},"surface":864.09,"population":44,"departement":{"code":"55","nom":"Meuse"},"region":{"code":"44","nom":"Grand Est"}},{"nom":"Cousances-les-Forges","code":"55132","codesPostaux":["55170"],"centre":{"type":"Point","coordinates":[5.0885,48.6183]},"surface":1812.34,"population":1621,"departement":{"code":"55","nom":"Meuse"},"region":{"code":"44","nom":"Grand Est"}},{"nom":"Couvertpuis","code":"55133","codesPostaux":["55290"],"centre":{"type":"Point","coordinates":[5.3059,48.5802]},"surface":882.3,"population":79,"departement":{"code":"55","nom":"Meuse"},"region":{"code":"44","nom":"Grand Est"}},{"nom":"Couvonges","code":"55134","codesPostaux":["55800"],"centre":{"type":"Point","coordinates":[5.0377,48.7772]},"surface":463.03,"population":156,"departement":{"code":"55","nom":"Meuse"},"region":{"code":"44","nom":"Grand Est"}},{"nom":"Cuisy","code":"55137","codesPostaux":["55270"],"centre":{"type":"Point","coordinates":[5.1885,49.2684]},"surface":552.84,"population":48,"departement":{"code":"55","nom":"Meuse"},"region":{"code":"44","nom":"Grand Est"}},{"nom":"Culey","code":"55138","codesPostaux":["55000"],"centre":{"type":"Point","coordinates":[5.2705,48.7673]},"surface":1101.55,"population":122,"departement":{"code":"55","nom":"Meuse"},"region":{"code":"44","nom":"Grand Est"}},{"nom":"Cumières-le-Mort-Homme","code":"55139","codesPostaux":["55100"],"centre":{"type":"Point","coordinates":[5.2648,49.234]},"surface":610.55,"population":0,"departement":{"code":"55","nom":"Meuse"},"region":{"code":"44","nom":"Grand Est"}},{"nom":"Cunel","code":"55140","codesPostaux":["55110"],"centre":{"type":"Point","coordinates":[5.1184,49.3313]},"surface":467.45,"population":23,"departement":{"code":"55","nom":"Meuse"},"region":{"code":"44","nom":"Grand Est"}},{"nom":"Dagonville","code":"55141","codesPostaux":["55500"],"centre":{"type":"Point","coordinates":[5.3832,48.7904]},"surface":1302.02,"population":88,"departement":{"code":"55","nom":"Meuse"},"region":{"code":"44","nom":"Grand Est"}},{"nom":"Dainville-Bertheléville","code":"55142","codesPostaux":["55130"],"centre":{"type":"Point","coordinates":[5.5135,48.4508]},"surface":4025.05,"population":120,"departement":{"code":"55","nom":"Meuse"},"region":{"code":"44","nom":"Grand Est"}},{"nom":"Damloup","code":"55143","codesPostaux":["55400"],"centre":{"type":"Point","coordinates":[5.4951,49.1985]},"surface":528.4,"population":129,"departement":{"code":"55","nom":"Meuse"},"region":{"code":"44","nom":"Grand Est"}},{"nom":"Dammarie-sur-Saulx","code":"55144","codesPostaux":["55500"],"centre":{"type":"Point","coordinates":[5.2386,48.5988]},"surface":1149.76,"population":384,"departement":{"code":"55","nom":"Meuse"},"region":{"code":"44","nom":"Grand Est"}},{"nom":"Damvillers","code":"55145","codesPostaux":["55150"],"centre":{"type":"Point","coordinates":[5.4148,49.3431]},"surface":1837.61,"population":613,"departement":{"code":"55","nom":"Meuse"},"region":{"code":"44","nom":"Grand Est"}},{"nom":"Dannevoux","code":"55146","codesPostaux":["55110"],"centre":{"type":"Point","coordinates":[5.2221,49.3088]},"surface":1440.18,"population":188,"departement":{"code":"55","nom":"Meuse"},"region":{"code":"44","nom":"Grand Est"}},{"nom":"Delouze-Rosières","code":"55148","codesPostaux":["55130"],"centre":{"type":"Point","coordinates":[5.5354,48.568]},"surface":1504.91,"population":121,"departement":{"code":"55","nom":"Meuse"},"region":{"code":"44","nom":"Grand Est"}},{"nom":"Delut","code":"55149","codesPostaux":["55150"],"centre":{"type":"Point","coordinates":[5.4207,49.4106]},"surface":948.21,"population":133,"departement":{"code":"55","nom":"Meuse"},"region":{"code":"44","nom":"Grand Est"}},{"nom":"Demange-Baudignécourt","code":"55150","codesPostaux":["55130"],"centre":{"type":"Point","coordinates":[5.4649,48.5865]},"surface":3120.77,"population":508,"departement":{"code":"55","nom":"Meuse"},"region":{"code":"44","nom":"Grand Est"}},{"nom":"Dieppe-sous-Douaumont","code":"55153","codesPostaux":["55400"],"centre":{"type":"Point","coordinates":[5.5201,49.2217]},"surface":1503.12,"population":187,"departement":{"code":"55","nom":"Meuse"},"region":{"code":"44","nom":"Grand Est"}},{"nom":"Dieue-sur-Meuse","code":"55154","codesPostaux":["55320"],"centre":{"type":"Point","coordinates":[5.4293,49.079]},"surface":1591.27,"population":1442,"departement":{"code":"55","nom":"Meuse"},"region":{"code":"44","nom":"Grand Est"}},{"nom":"Dombasle-en-Argonne","code":"55155","codesPostaux":["55120"],"centre":{"type":"Point","coordinates":[5.1971,49.1454]},"surface":1156.67,"population":365,"departement":{"code":"55","nom":"Meuse"},"region":{"code":"44","nom":"Grand Est"}},{"nom":"Dombras","code":"55156","codesPostaux":["55150"],"centre":{"type":"Point","coordinates":[5.4517,49.3788]},"surface":1120.44,"population":140,"departement":{"code":"55","nom":"Meuse"},"region":{"code":"44","nom":"Grand Est"}},{"nom":"Dommartin-la-Montagne","code":"55157","codesPostaux":["55160"],"centre":{"type":"Point","coordinates":[5.5999,49.0257]},"surface":675.28,"population":51,"departement":{"code":"55","nom":"Meuse"},"region":{"code":"44","nom":"Grand Est"}},{"nom":"Dommary-Baroncourt","code":"55158","codesPostaux":["55240"],"centre":{"type":"Point","coordinates":[5.7186,49.2803]},"surface":1266.15,"population":753,"departement":{"code":"55","nom":"Meuse"},"region":{"code":"44","nom":"Grand Est"}},{"nom":"Dompcevrin","code":"55159","codesPostaux":["55300"],"centre":{"type":"Point","coordinates":[5.4658,48.9306]},"surface":1093.31,"population":376,"departement":{"code":"55","nom":"Meuse"},"region":{"code":"44","nom":"Grand Est"}},{"nom":"Dompierre-aux-Bois","code":"55160","codesPostaux":["55300"],"centre":{"type":"Point","coordinates":[5.5957,48.9991]},"surface":808.03,"population":39,"departement":{"code":"55","nom":"Meuse"},"region":{"code":"44","nom":"Grand Est"}},{"nom":"Domremy-la-Canne","code":"55162","codesPostaux":["55240"],"centre":{"type":"Point","coordinates":[5.6945,49.2973]},"surface":308.16,"population":27,"departement":{"code":"55","nom":"Meuse"},"region":{"code":"44","nom":"Grand Est"}},{"nom":"Doncourt-aux-Templiers","code":"55163","codesPostaux":["55160"],"centre":{"type":"Point","coordinates":[5.7206,49.0601]},"surface":615.81,"population":74,"departement":{"code":"55","nom":"Meuse"},"region":{"code":"44","nom":"Grand Est"}},{"nom":"Doulcon","code":"55165","codesPostaux":["55110"],"centre":{"type":"Point","coordinates":[5.156,49.3856]},"surface":864.12,"population":421,"departement":{"code":"55","nom":"Meuse"},"region":{"code":"44","nom":"Grand Est"}},{"nom":"Dugny-sur-Meuse","code":"55166","codesPostaux":["55100"],"centre":{"type":"Point","coordinates":[5.3663,49.0986]},"surface":1930.46,"population":1240,"departement":{"code":"55","nom":"Meuse"},"region":{"code":"44","nom":"Grand Est"}},{"nom":"Dun-sur-Meuse","code":"55167","codesPostaux":["55110"],"centre":{"type":"Point","coordinates":[5.1964,49.3839]},"surface":645.56,"population":585,"departement":{"code":"55","nom":"Meuse"},"region":{"code":"44","nom":"Grand Est"}},{"nom":"Duzey","code":"55168","codesPostaux":["55230"],"centre":{"type":"Point","coordinates":[5.6177,49.3597]},"surface":579.73,"population":46,"departement":{"code":"55","nom":"Meuse"},"region":{"code":"44","nom":"Grand Est"}},{"nom":"Écouviez","code":"55169","codesPostaux":["55600"],"centre":{"type":"Point","coordinates":[5.4533,49.5337]},"surface":428.34,"population":543,"departement":{"code":"55","nom":"Meuse"},"region":{"code":"44","nom":"Grand Est"}},{"nom":"Écurey-en-Verdunois","code":"55170","codesPostaux":["55150"],"centre":{"type":"Point","coordinates":[5.3428,49.3552]},"surface":693.85,"population":115,"departement":{"code":"55","nom":"Meuse"},"region":{"code":"44","nom":"Grand Est"}},{"nom":"Eix","code":"55171","codesPostaux":["55400"],"centre":{"type":"Point","coordinates":[5.4741,49.1812]},"surface":1199.51,"population":270,"departement":{"code":"55","nom":"Meuse"},"region":{"code":"44","nom":"Grand Est"}},{"nom":"Les Éparges","code":"55172","codesPostaux":["55160"],"centre":{"type":"Point","coordinates":[5.5855,49.0648]},"surface":958.86,"population":60,"departement":{"code":"55","nom":"Meuse"},"region":{"code":"44","nom":"Grand Est"}},{"nom":"Épiez-sur-Meuse","code":"55173","codesPostaux":["55140"],"centre":{"type":"Point","coordinates":[5.6273,48.5427]},"surface":816.91,"population":37,"departement":{"code":"55","nom":"Meuse"},"region":{"code":"44","nom":"Grand Est"}},{"nom":"Épinonville","code":"55174","codesPostaux":["55270"],"centre":{"type":"Point","coordinates":[5.0836,49.2725]},"surface":1408.65,"population":65,"departement":{"code":"55","nom":"Meuse"},"region":{"code":"44","nom":"Grand Est"}},{"nom":"Érize-la-Brûlée","code":"55175","codesPostaux":["55260"],"centre":{"type":"Point","coordinates":[5.2747,48.8466]},"surface":1077.5,"population":175,"departement":{"code":"55","nom":"Meuse"},"region":{"code":"44","nom":"Grand Est"}},{"nom":"Érize-la-Petite","code":"55177","codesPostaux":["55260"],"centre":{"type":"Point","coordinates":[5.2417,48.9132]},"surface":724.84,"population":45,"departement":{"code":"55","nom":"Meuse"},"region":{"code":"44","nom":"Grand Est"}},{"nom":"Érize-Saint-Dizier","code":"55178","codesPostaux":["55000"],"centre":{"type":"Point","coordinates":[5.2809,48.8104]},"surface":1245.87,"population":192,"departement":{"code":"55","nom":"Meuse"},"region":{"code":"44","nom":"Grand Est"}},{"nom":"Erneville-aux-Bois","code":"55179","codesPostaux":["55500"],"centre":{"type":"Point","coordinates":[5.4083,48.7425]},"surface":2805.94,"population":152,"departement":{"code":"55","nom":"Meuse"},"region":{"code":"44","nom":"Grand Est"}},{"nom":"Esnes-en-Argonne","code":"55180","codesPostaux":["55100"],"centre":{"type":"Point","coordinates":[5.2039,49.2098]},"surface":1478.13,"population":135,"departement":{"code":"55","nom":"Meuse"},"region":{"code":"44","nom":"Grand Est"}},{"nom":"Étain","code":"55181","codesPostaux":["55400"],"centre":{"type":"Point","coordinates":[5.6311,49.2204]},"surface":1992.54,"population":3375,"departement":{"code":"55","nom":"Meuse"},"region":{"code":"44","nom":"Grand Est"}},{"nom":"Éton","code":"55182","codesPostaux":["55240"],"centre":{"type":"Point","coordinates":[5.6882,49.2644]},"surface":1117.76,"population":195,"departement":{"code":"55","nom":"Meuse"},"region":{"code":"44","nom":"Grand Est"}},{"nom":"Étraye","code":"55183","codesPostaux":["55150"],"centre":{"type":"Point","coordinates":[5.3573,49.3264]},"surface":807.09,"population":40,"departement":{"code":"55","nom":"Meuse"},"region":{"code":"44","nom":"Grand Est"}},{"nom":"Euville","code":"55184","codesPostaux":["55200"],"centre":{"type":"Point","coordinates":[5.6525,48.7447]},"surface":2981.63,"population":1630,"departement":{"code":"55","nom":"Meuse"},"region":{"code":"44","nom":"Grand Est"}},{"nom":"Èvres","code":"55185","codesPostaux":["55250"],"centre":{"type":"Point","coordinates":[5.1294,48.9824]},"surface":1169.16,"population":90,"departement":{"code":"55","nom":"Meuse"},"region":{"code":"44","nom":"Grand Est"}},{"nom":"Fains-Véel","code":"55186","codesPostaux":["55000"],"centre":{"type":"Point","coordinates":[5.1102,48.7849]},"surface":1848.16,"population":2080,"departement":{"code":"55","nom":"Meuse"},"region":{"code":"44","nom":"Grand Est"}},{"nom":"Flassigny","code":"55188","codesPostaux":["55600"],"centre":{"type":"Point","coordinates":[5.4427,49.4749]},"surface":667.21,"population":43,"departement":{"code":"55","nom":"Meuse"},"region":{"code":"44","nom":"Grand Est"}},{"nom":"Fleury-devant-Douaumont","code":"55189","codesPostaux":["55100"],"centre":{"type":"Point","coordinates":[5.4426,49.1948]},"surface":1033.36,"population":0,"departement":{"code":"55","nom":"Meuse"},"region":{"code":"44","nom":"Grand Est"}},{"nom":"Foameix-Ornel","code":"55191","codesPostaux":["55400"],"centre":{"type":"Point","coordinates":[5.61,49.2358]},"surface":1088.42,"population":229,"departement":{"code":"55","nom":"Meuse"},"region":{"code":"44","nom":"Grand Est"}},{"nom":"Fontaines-Saint-Clair","code":"55192","codesPostaux":["55110"],"centre":{"type":"Point","coordinates":[5.2466,49.3662]},"surface":625.25,"population":35,"departement":{"code":"55","nom":"Meuse"},"region":{"code":"44","nom":"Grand Est"}},{"nom":"Forges-sur-Meuse","code":"55193","codesPostaux":["55110"],"centre":{"type":"Point","coordinates":[5.278,49.2601]},"surface":1589.06,"population":121,"departement":{"code":"55","nom":"Meuse"},"region":{"code":"44","nom":"Grand Est"}},{"nom":"Foucaucourt-sur-Thabas","code":"55194","codesPostaux":["55250"],"centre":{"type":"Point","coordinates":[5.0995,49.0069]},"surface":991.08,"population":57,"departement":{"code":"55","nom":"Meuse"},"region":{"code":"44","nom":"Grand Est"}},{"nom":"Fouchères-aux-Bois","code":"55195","codesPostaux":["55500"],"centre":{"type":"Point","coordinates":[5.2497,48.6309]},"surface":552.05,"population":138,"departement":{"code":"55","nom":"Meuse"},"region":{"code":"44","nom":"Grand Est"}},{"nom":"Frémeréville-sous-les-Côtes","code":"55196","codesPostaux":["55200"],"centre":{"type":"Point","coordinates":[5.656,48.8043]},"surface":673.28,"population":129,"departement":{"code":"55","nom":"Meuse"},"region":{"code":"44","nom":"Grand Est"}},{"nom":"Fresnes-au-Mont","code":"55197","codesPostaux":["55260"],"centre":{"type":"Point","coordinates":[5.4432,48.8984]},"surface":1588.6,"population":162,"departement":{"code":"55","nom":"Meuse"},"region":{"code":"44","nom":"Grand Est"}},{"nom":"Fresnes-en-Woëvre","code":"55198","codesPostaux":["55160"],"centre":{"type":"Point","coordinates":[5.635,49.1014]},"surface":904.86,"population":668,"departement":{"code":"55","nom":"Meuse"},"region":{"code":"44","nom":"Grand Est"}},{"nom":"Froidos","code":"55199","codesPostaux":["55120"],"centre":{"type":"Point","coordinates":[5.1209,49.061]},"surface":870.06,"population":97,"departement":{"code":"55","nom":"Meuse"},"region":{"code":"44","nom":"Grand Est"}},{"nom":"Fromeréville-les-Vallons","code":"55200","codesPostaux":["55100"],"centre":{"type":"Point","coordinates":[5.293,49.1658]},"surface":2024.85,"population":214,"departement":{"code":"55","nom":"Meuse"},"region":{"code":"44","nom":"Grand Est"}},{"nom":"Fromezey","code":"55201","codesPostaux":["55400"],"centre":{"type":"Point","coordinates":[5.5827,49.2092]},"surface":589.44,"population":64,"departement":{"code":"55","nom":"Meuse"},"region":{"code":"44","nom":"Grand Est"}},{"nom":"Futeau","code":"55202","codesPostaux":["55120"],"centre":{"type":"Point","coordinates":[5.0107,49.0764]},"surface":169.43,"population":145,"departement":{"code":"55","nom":"Meuse"},"region":{"code":"44","nom":"Grand Est"}},{"nom":"Génicourt-sur-Meuse","code":"55204","codesPostaux":["55320"],"centre":{"type":"Point","coordinates":[5.4427,49.0444]},"surface":800.87,"population":293,"departement":{"code":"55","nom":"Meuse"},"region":{"code":"44","nom":"Grand Est"}},{"nom":"Gercourt-et-Drillancourt","code":"55206","codesPostaux":["55110"],"centre":{"type":"Point","coordinates":[5.2374,49.2818]},"surface":1355.69,"population":125,"departement":{"code":"55","nom":"Meuse"},"region":{"code":"44","nom":"Grand Est"}},{"nom":"Géry","code":"55207","codesPostaux":["55000"],"centre":{"type":"Point","coordinates":[5.3034,48.7866]},"surface":483.87,"population":50,"departement":{"code":"55","nom":"Meuse"},"region":{"code":"44","nom":"Grand Est"}},{"nom":"Gesnes-en-Argonne","code":"55208","codesPostaux":["55110"],"centre":{"type":"Point","coordinates":[5.0566,49.3061]},"surface":704.21,"population":53,"departement":{"code":"55","nom":"Meuse"},"region":{"code":"44","nom":"Grand Est"}},{"nom":"Gimécourt","code":"55210","codesPostaux":["55260"],"centre":{"type":"Point","coordinates":[5.3782,48.8475]},"surface":1012.98,"population":37,"departement":{"code":"55","nom":"Meuse"},"region":{"code":"44","nom":"Grand Est"}},{"nom":"Gincrey","code":"55211","codesPostaux":["55400"],"centre":{"type":"Point","coordinates":[5.5642,49.2616]},"surface":963.78,"population":61,"departement":{"code":"55","nom":"Meuse"},"region":{"code":"44","nom":"Grand Est"}},{"nom":"Girauvoisin","code":"55212","codesPostaux":["55200"],"centre":{"type":"Point","coordinates":[5.6358,48.8057]},"surface":490.07,"population":70,"departement":{"code":"55","nom":"Meuse"},"region":{"code":"44","nom":"Grand Est"}},{"nom":"Givrauval","code":"55214","codesPostaux":["55500"],"centre":{"type":"Point","coordinates":[5.3205,48.6565]},"surface":963.4,"population":287,"departement":{"code":"55","nom":"Meuse"},"region":{"code":"44","nom":"Grand Est"}},{"nom":"Gondrecourt-le-Château","code":"55215","codesPostaux":["55130"],"centre":{"type":"Point","coordinates":[5.4981,48.4924]},"surface":5131.65,"population":1032,"departement":{"code":"55","nom":"Meuse"},"region":{"code":"44","nom":"Grand Est"}},{"nom":"Gouraincourt","code":"55216","codesPostaux":["55230"],"centre":{"type":"Point","coordinates":[5.6667,49.2989]},"surface":544.87,"population":73,"departement":{"code":"55","nom":"Meuse"},"region":{"code":"44","nom":"Grand Est"}},{"nom":"Goussaincourt","code":"55217","codesPostaux":["55140"],"centre":{"type":"Point","coordinates":[5.6718,48.4826]},"surface":1033.02,"population":117,"departement":{"code":"55","nom":"Meuse"},"region":{"code":"44","nom":"Grand Est"}},{"nom":"Gremilly","code":"55218","codesPostaux":["55150"],"centre":{"type":"Point","coordinates":[5.5129,49.2829]},"surface":1775.72,"population":40,"departement":{"code":"55","nom":"Meuse"},"region":{"code":"44","nom":"Grand Est"}},{"nom":"Grimaucourt-en-Woëvre","code":"55219","codesPostaux":["55400"],"centre":{"type":"Point","coordinates":[5.5668,49.164]},"surface":565.24,"population":94,"departement":{"code":"55","nom":"Meuse"},"region":{"code":"44","nom":"Grand Est"}},{"nom":"Grimaucourt-près-Sampigny","code":"55220","codesPostaux":["55500"],"centre":{"type":"Point","coordinates":[5.4696,48.7803]},"surface":928.2,"population":95,"departement":{"code":"55","nom":"Meuse"},"region":{"code":"44","nom":"Grand Est"}},{"nom":"Guerpont","code":"55221","codesPostaux":["55000"],"centre":{"type":"Point","coordinates":[5.2571,48.7195]},"surface":606.19,"population":231,"departement":{"code":"55","nom":"Meuse"},"region":{"code":"44","nom":"Grand Est"}},{"nom":"Gussainville","code":"55222","codesPostaux":["55400"],"centre":{"type":"Point","coordinates":[5.6609,49.1668]},"surface":1050.51,"population":35,"departement":{"code":"55","nom":"Meuse"},"region":{"code":"44","nom":"Grand Est"}},{"nom":"Haironville","code":"55224","codesPostaux":["55000"],"centre":{"type":"Point","coordinates":[5.0912,48.6861]},"surface":972.74,"population":566,"departement":{"code":"55","nom":"Meuse"},"region":{"code":"44","nom":"Grand Est"}},{"nom":"Halles-sous-les-Côtes","code":"55225","codesPostaux":["55700"],"centre":{"type":"Point","coordinates":[5.1273,49.4465]},"surface":544,"population":138,"departement":{"code":"55","nom":"Meuse"},"region":{"code":"44","nom":"Grand Est"}},{"nom":"Han-lès-Juvigny","code":"55226","codesPostaux":["55600"],"centre":{"type":"Point","coordinates":[5.3298,49.4816]},"surface":545.67,"population":126,"departement":{"code":"55","nom":"Meuse"},"region":{"code":"44","nom":"Grand Est"}},{"nom":"Hannonville-sous-les-Côtes","code":"55228","codesPostaux":["55210"],"centre":{"type":"Point","coordinates":[5.6525,49.0323]},"surface":1573.64,"population":556,"departement":{"code":"55","nom":"Meuse"},"region":{"code":"44","nom":"Grand Est"}},{"nom":"Han-sur-Meuse","code":"55229","codesPostaux":["55300"],"centre":{"type":"Point","coordinates":[5.556,48.8539]},"surface":1719.78,"population":270,"departement":{"code":"55","nom":"Meuse"},"region":{"code":"44","nom":"Grand Est"}},{"nom":"Harville","code":"55232","codesPostaux":["55160"],"centre":{"type":"Point","coordinates":[5.7273,49.0945]},"surface":557.23,"population":112,"departement":{"code":"55","nom":"Meuse"},"region":{"code":"44","nom":"Grand Est"}},{"nom":"Haudainville","code":"55236","codesPostaux":["55100"],"centre":{"type":"Point","coordinates":[5.4312,49.1246]},"surface":1116.48,"population":930,"departement":{"code":"55","nom":"Meuse"},"region":{"code":"44","nom":"Grand Est"}},{"nom":"Haudiomont","code":"55237","codesPostaux":["55160"],"centre":{"type":"Point","coordinates":[5.538,49.113]},"surface":935.88,"population":232,"departement":{"code":"55","nom":"Meuse"},"region":{"code":"44","nom":"Grand Est"}},{"nom":"Haumont-près-Samogneux","code":"55239","codesPostaux":["55100"],"centre":{"type":"Point","coordinates":[5.373,49.2788]},"surface":1092.07,"population":0,"departement":{"code":"55","nom":"Meuse"},"region":{"code":"44","nom":"Grand Est"}},{"nom":"Heippes","code":"55241","codesPostaux":["55220"],"centre":{"type":"Point","coordinates":[5.2768,48.9993]},"surface":1051.13,"population":86,"departement":{"code":"55","nom":"Meuse"},"region":{"code":"44","nom":"Grand Est"}},{"nom":"Hennemont","code":"55242","codesPostaux":["55160"],"centre":{"type":"Point","coordinates":[5.6723,49.143]},"surface":1074.35,"population":111,"departement":{"code":"55","nom":"Meuse"},"region":{"code":"44","nom":"Grand Est"}},{"nom":"Herbeuville","code":"55243","codesPostaux":["55210"],"centre":{"type":"Point","coordinates":[5.6405,49.0477]},"surface":674.72,"population":181,"departement":{"code":"55","nom":"Meuse"},"region":{"code":"44","nom":"Grand Est"}},{"nom":"Herméville-en-Woëvre","code":"55244","codesPostaux":["55400"],"centre":{"type":"Point","coordinates":[5.6043,49.1768]},"surface":1458.28,"population":218,"departement":{"code":"55","nom":"Meuse"},"region":{"code":"44","nom":"Grand Est"}},{"nom":"Heudicourt-sous-les-Côtes","code":"55245","codesPostaux":["55210"],"centre":{"type":"Point","coordinates":[5.6946,48.9368]},"surface":1365.87,"population":172,"departement":{"code":"55","nom":"Meuse"},"region":{"code":"44","nom":"Grand Est"}},{"nom":"Hévilliers","code":"55246","codesPostaux":["55290"],"centre":{"type":"Point","coordinates":[5.3252,48.6024]},"surface":1053.07,"population":158,"departement":{"code":"55","nom":"Meuse"},"region":{"code":"44","nom":"Grand Est"}},{"nom":"Horville-en-Ornois","code":"55247","codesPostaux":["55130"],"centre":{"type":"Point","coordinates":[5.4689,48.4857]},"surface":763.56,"population":45,"departement":{"code":"55","nom":"Meuse"},"region":{"code":"44","nom":"Grand Est"}},{"nom":"Houdelaincourt","code":"55248","codesPostaux":["55130"],"centre":{"type":"Point","coordinates":[5.4521,48.55]},"surface":1606.02,"population":281,"departement":{"code":"55","nom":"Meuse"},"region":{"code":"44","nom":"Grand Est"}},{"nom":"Inor","code":"55250","codesPostaux":["55700"],"centre":{"type":"Point","coordinates":[5.1649,49.5527]},"surface":638.14,"population":177,"departement":{"code":"55","nom":"Meuse"},"region":{"code":"44","nom":"Grand Est"}},{"nom":"Ippécourt","code":"55251","codesPostaux":["55220"],"centre":{"type":"Point","coordinates":[5.2116,49.039]},"surface":1050.21,"population":88,"departement":{"code":"55","nom":"Meuse"},"region":{"code":"44","nom":"Grand Est"}},{"nom":"Iré-le-Sec","code":"55252","codesPostaux":["55600"],"centre":{"type":"Point","coordinates":[5.3955,49.4743]},"surface":826.53,"population":144,"departement":{"code":"55","nom":"Meuse"},"region":{"code":"44","nom":"Grand Est"}},{"nom":"Les Islettes","code":"55253","codesPostaux":["55120"],"centre":{"type":"Point","coordinates":[5.009,49.1098]},"surface":549.33,"population":695,"departement":{"code":"55","nom":"Meuse"},"region":{"code":"44","nom":"Grand Est"}},{"nom":"Les Trois-Domaines","code":"55254","codesPostaux":["55220"],"centre":{"type":"Point","coordinates":[5.2921,48.9684]},"surface":1662.63,"population":119,"departement":{"code":"55","nom":"Meuse"},"region":{"code":"44","nom":"Grand Est"}},{"nom":"Jametz","code":"55255","codesPostaux":["55600"],"centre":{"type":"Point","coordinates":[5.3922,49.425]},"surface":1736.37,"population":239,"departement":{"code":"55","nom":"Meuse"},"region":{"code":"44","nom":"Grand Est"}},{"nom":"Jonville-en-Woëvre","code":"55256","codesPostaux":["55160"],"centre":{"type":"Point","coordinates":[5.7767,49.0646]},"surface":1087.5,"population":143,"departement":{"code":"55","nom":"Meuse"},"region":{"code":"44","nom":"Grand Est"}},{"nom":"Jouy-en-Argonne","code":"55257","codesPostaux":["55120"],"centre":{"type":"Point","coordinates":[5.2218,49.1377]},"surface":635.17,"population":61,"departement":{"code":"55","nom":"Meuse"},"region":{"code":"44","nom":"Grand Est"}},{"nom":"Geville","code":"55258","codesPostaux":["55200"],"centre":{"type":"Point","coordinates":[5.7119,48.7832]},"surface":3425.61,"population":639,"departement":{"code":"55","nom":"Meuse"},"region":{"code":"44","nom":"Grand Est"}},{"nom":"Julvécourt","code":"55260","codesPostaux":["55120"],"centre":{"type":"Point","coordinates":[5.188,49.0596]},"surface":870.5,"population":62,"departement":{"code":"55","nom":"Meuse"},"region":{"code":"44","nom":"Grand Est"}},{"nom":"Juvigny-en-Perthois","code":"55261","codesPostaux":["55170"],"centre":{"type":"Point","coordinates":[5.1666,48.5977]},"surface":638.69,"population":129,"departement":{"code":"55","nom":"Meuse"},"region":{"code":"44","nom":"Grand Est"}},{"nom":"Juvigny-sur-Loison","code":"55262","codesPostaux":["55600"],"centre":{"type":"Point","coordinates":[5.3358,49.4617]},"surface":1649.65,"population":239,"departement":{"code":"55","nom":"Meuse"},"region":{"code":"44","nom":"Grand Est"}},{"nom":"Kœur-la-Grande","code":"55263","codesPostaux":["55300"],"centre":{"type":"Point","coordinates":[5.4625,48.8648]},"surface":1222.55,"population":164,"departement":{"code":"55","nom":"Meuse"},"region":{"code":"44","nom":"Grand Est"}},{"nom":"Kœur-la-Petite","code":"55264","codesPostaux":["55300"],"centre":{"type":"Point","coordinates":[5.4607,48.854]},"surface":2052.08,"population":256,"departement":{"code":"55","nom":"Meuse"},"region":{"code":"44","nom":"Grand Est"}},{"nom":"Labeuville","code":"55265","codesPostaux":["55160"],"centre":{"type":"Point","coordinates":[5.7728,49.0881]},"surface":958.58,"population":139,"departement":{"code":"55","nom":"Meuse"},"region":{"code":"44","nom":"Grand Est"}},{"nom":"Lachalade","code":"55266","codesPostaux":["55120"],"centre":{"type":"Point","coordinates":[4.9857,49.1781]},"surface":1909.64,"population":57,"departement":{"code":"55","nom":"Meuse"},"region":{"code":"44","nom":"Grand Est"}},{"nom":"Lachaussée","code":"55267","codesPostaux":["55210"],"centre":{"type":"Point","coordinates":[5.7984,49.0322]},"surface":3074.5,"population":271,"departement":{"code":"55","nom":"Meuse"},"region":{"code":"44","nom":"Grand Est"}},{"nom":"Lacroix-sur-Meuse","code":"55268","codesPostaux":["55300"],"centre":{"type":"Point","coordinates":[5.53,48.9846]},"surface":2114.2,"population":638,"departement":{"code":"55","nom":"Meuse"},"region":{"code":"44","nom":"Grand Est"}},{"nom":"Lahaymeix","code":"55269","codesPostaux":["55260"],"centre":{"type":"Point","coordinates":[5.4186,48.9339]},"surface":1255.11,"population":76,"departement":{"code":"55","nom":"Meuse"},"region":{"code":"44","nom":"Grand Est"}},{"nom":"Lahayville","code":"55270","codesPostaux":["55300"],"centre":{"type":"Point","coordinates":[5.7692,48.8947]},"surface":400.01,"population":27,"departement":{"code":"55","nom":"Meuse"},"region":{"code":"44","nom":"Grand Est"}},{"nom":"Laheycourt","code":"55271","codesPostaux":["55800"],"centre":{"type":"Point","coordinates":[5.0353,48.901]},"surface":1787.91,"population":349,"departement":{"code":"55","nom":"Meuse"},"region":{"code":"44","nom":"Grand Est"}},{"nom":"Laimont","code":"55272","codesPostaux":["55800"],"centre":{"type":"Point","coordinates":[5.0417,48.8422]},"surface":1074.79,"population":423,"departement":{"code":"55","nom":"Meuse"},"region":{"code":"44","nom":"Grand Est"}},{"nom":"Lamorville","code":"55274","codesPostaux":["55300"],"centre":{"type":"Point","coordinates":[5.6,48.9625]},"surface":3504.51,"population":269,"departement":{"code":"55","nom":"Meuse"},"region":{"code":"44","nom":"Grand Est"}},{"nom":"Lamouilly","code":"55275","codesPostaux":["55700"],"centre":{"type":"Point","coordinates":[5.2446,49.548]},"surface":473.6,"population":84,"departement":{"code":"55","nom":"Meuse"},"region":{"code":"44","nom":"Grand Est"}},{"nom":"Landrecourt-Lempire","code":"55276","codesPostaux":["55100"],"centre":{"type":"Point","coordinates":[5.3317,49.0954]},"surface":1459.32,"population":226,"departement":{"code":"55","nom":"Meuse"},"region":{"code":"44","nom":"Grand Est"}},{"nom":"Laneuville-au-Rupt","code":"55278","codesPostaux":["55190"],"centre":{"type":"Point","coordinates":[5.576,48.7071]},"surface":1324.53,"population":192,"departement":{"code":"55","nom":"Meuse"},"region":{"code":"44","nom":"Grand Est"}},{"nom":"Laneuville-sur-Meuse","code":"55279","codesPostaux":["55700"],"centre":{"type":"Point","coordinates":[5.1188,49.4966]},"surface":2290.9,"population":432,"departement":{"code":"55","nom":"Meuse"},"region":{"code":"44","nom":"Grand Est"}},{"nom":"Lanhères","code":"55280","codesPostaux":["55400"],"centre":{"type":"Point","coordinates":[5.7117,49.21]},"surface":458.27,"population":54,"departement":{"code":"55","nom":"Meuse"},"region":{"code":"44","nom":"Grand Est"}},{"nom":"Latour-en-Woëvre","code":"55281","codesPostaux":["55160"],"centre":{"type":"Point","coordinates":[5.8016,49.092]},"surface":677.84,"population":84,"departement":{"code":"55","nom":"Meuse"},"region":{"code":"44","nom":"Grand Est"}},{"nom":"Lavallée","code":"55282","codesPostaux":["55260"],"centre":{"type":"Point","coordinates":[5.3354,48.8067]},"surface":1257,"population":83,"departement":{"code":"55","nom":"Meuse"},"region":{"code":"44","nom":"Grand Est"}},{"nom":"Lavincourt","code":"55284","codesPostaux":["55170"],"centre":{"type":"Point","coordinates":[5.1449,48.657]},"surface":482.92,"population":70,"departement":{"code":"55","nom":"Meuse"},"region":{"code":"44","nom":"Grand Est"}},{"nom":"Lavoye","code":"55285","codesPostaux":["55120"],"centre":{"type":"Point","coordinates":[5.1366,49.0493]},"surface":999.94,"population":142,"departement":{"code":"55","nom":"Meuse"},"region":{"code":"44","nom":"Grand Est"}},{"nom":"Lemmes","code":"55286","codesPostaux":["55220"],"centre":{"type":"Point","coordinates":[5.2923,49.0696]},"surface":1104.5,"population":240,"departement":{"code":"55","nom":"Meuse"},"region":{"code":"44","nom":"Grand Est"}},{"nom":"Lérouville","code":"55288","codesPostaux":["55200"],"centre":{"type":"Point","coordinates":[5.5379,48.7772]},"surface":1432.96,"population":1358,"departement":{"code":"55","nom":"Meuse"},"region":{"code":"44","nom":"Grand Est"}},{"nom":"Levoncourt","code":"55289","codesPostaux":["55260"],"centre":{"type":"Point","coordinates":[5.3519,48.8273]},"surface":788.85,"population":52,"departement":{"code":"55","nom":"Meuse"},"region":{"code":"44","nom":"Grand Est"}},{"nom":"Lignières-sur-Aire","code":"55290","codesPostaux":["55260"],"centre":{"type":"Point","coordinates":[5.3905,48.8125]},"surface":930.77,"population":49,"departement":{"code":"55","nom":"Meuse"},"region":{"code":"44","nom":"Grand Est"}},{"nom":"Ligny-en-Barrois","code":"55291","codesPostaux":["55500"],"centre":{"type":"Point","coordinates":[5.2986,48.6569]},"surface":3242.45,"population":3677,"departement":{"code":"55","nom":"Meuse"},"region":{"code":"44","nom":"Grand Est"}},{"nom":"Liny-devant-Dun","code":"55292","codesPostaux":["55110"],"centre":{"type":"Point","coordinates":[5.2116,49.3531]},"surface":1125.16,"population":185,"departement":{"code":"55","nom":"Meuse"},"region":{"code":"44","nom":"Grand Est"}},{"nom":"Lion-devant-Dun","code":"55293","codesPostaux":["55110"],"centre":{"type":"Point","coordinates":[5.2557,49.4164]},"surface":1560.89,"population":181,"departement":{"code":"55","nom":"Meuse"},"region":{"code":"44","nom":"Grand Est"}},{"nom":"Lisle-en-Barrois","code":"55295","codesPostaux":["55250"],"centre":{"type":"Point","coordinates":[5.0816,48.921]},"surface":2900.33,"population":27,"departement":{"code":"55","nom":"Meuse"},"region":{"code":"44","nom":"Grand Est"}},{"nom":"L'Isle-en-Rigault","code":"55296","codesPostaux":["55000"],"centre":{"type":"Point","coordinates":[5.0302,48.7103]},"surface":1054.4,"population":460,"departement":{"code":"55","nom":"Meuse"},"region":{"code":"44","nom":"Grand Est"}},{"nom":"Lissey","code":"55297","codesPostaux":["55150"],"centre":{"type":"Point","coordinates":[5.3599,49.3813]},"surface":996.03,"population":101,"departement":{"code":"55","nom":"Meuse"},"region":{"code":"44","nom":"Grand Est"}},{"nom":"Loisey","code":"55298","codesPostaux":["55000"],"centre":{"type":"Point","coordinates":[5.3,48.7709]},"surface":1346.6,"population":270,"departement":{"code":"55","nom":"Meuse"},"region":{"code":"44","nom":"Grand Est"}},{"nom":"Loison","code":"55299","codesPostaux":["55230"],"centre":{"type":"Point","coordinates":[5.5908,49.3046]},"surface":1425.6,"population":116,"departement":{"code":"55","nom":"Meuse"},"region":{"code":"44","nom":"Grand Est"}},{"nom":"Longeaux","code":"55300","codesPostaux":["55500"],"centre":{"type":"Point","coordinates":[5.3274,48.6405]},"surface":748.44,"population":219,"departement":{"code":"55","nom":"Meuse"},"region":{"code":"44","nom":"Grand Est"}},{"nom":"Longchamps-sur-Aire","code":"55301","codesPostaux":["55260"],"centre":{"type":"Point","coordinates":[5.3095,48.913]},"surface":1575.74,"population":121,"departement":{"code":"55","nom":"Meuse"},"region":{"code":"44","nom":"Grand Est"}},{"nom":"Longeville-en-Barrois","code":"55302","codesPostaux":["55000"],"centre":{"type":"Point","coordinates":[5.2051,48.7387]},"surface":1537.74,"population":1081,"departement":{"code":"55","nom":"Meuse"},"region":{"code":"44","nom":"Grand Est"}},{"nom":"Loupmont","code":"55303","codesPostaux":["55300"],"centre":{"type":"Point","coordinates":[5.6783,48.8663]},"surface":1031.05,"population":75,"departement":{"code":"55","nom":"Meuse"},"region":{"code":"44","nom":"Grand Est"}},{"nom":"Louppy-le-Château","code":"55304","codesPostaux":["55800"],"centre":{"type":"Point","coordinates":[5.0736,48.8668]},"surface":1889.32,"population":155,"departement":{"code":"55","nom":"Meuse"},"region":{"code":"44","nom":"Grand Est"}},{"nom":"Louppy-sur-Loison","code":"55306","codesPostaux":["55600"],"centre":{"type":"Point","coordinates":[5.3388,49.4393]},"surface":1439.28,"population":124,"departement":{"code":"55","nom":"Meuse"},"region":{"code":"44","nom":"Grand Est"}},{"nom":"Louvemont-Côte-du-Poivre","code":"55307","codesPostaux":["55100"],"centre":{"type":"Point","coordinates":[5.3996,49.2373]},"surface":835.42,"population":0,"departement":{"code":"55","nom":"Meuse"},"region":{"code":"44","nom":"Grand Est"}},{"nom":"Luzy-Saint-Martin","code":"55310","codesPostaux":["55700"],"centre":{"type":"Point","coordinates":[5.1418,49.5292]},"surface":727.24,"population":115,"departement":{"code":"55","nom":"Meuse"},"region":{"code":"44","nom":"Grand Est"}},{"nom":"Maizeray","code":"55311","codesPostaux":["55160"],"centre":{"type":"Point","coordinates":[5.7009,49.1037]},"surface":387.02,"population":26,"departement":{"code":"55","nom":"Meuse"},"region":{"code":"44","nom":"Grand Est"}},{"nom":"Maizey","code":"55312","codesPostaux":["55300"],"centre":{"type":"Point","coordinates":[5.5418,48.924]},"surface":1501.51,"population":155,"departement":{"code":"55","nom":"Meuse"},"region":{"code":"44","nom":"Grand Est"}},{"nom":"Malancourt","code":"55313","codesPostaux":["55270"],"centre":{"type":"Point","coordinates":[5.1766,49.2375]},"surface":1655.32,"population":65,"departement":{"code":"55","nom":"Meuse"},"region":{"code":"44","nom":"Grand Est"}},{"nom":"Mandres-en-Barrois","code":"55315","codesPostaux":["55290"],"centre":{"type":"Point","coordinates":[5.3988,48.5028]},"surface":1774.37,"population":110,"departement":{"code":"55","nom":"Meuse"},"region":{"code":"44","nom":"Grand Est"}},{"nom":"Mangiennes","code":"55316","codesPostaux":["55150"],"centre":{"type":"Point","coordinates":[5.5379,49.3454]},"surface":1849.16,"population":397,"departement":{"code":"55","nom":"Meuse"},"region":{"code":"44","nom":"Grand Est"}},{"nom":"Manheulles","code":"55317","codesPostaux":["55160"],"centre":{"type":"Point","coordinates":[5.5956,49.1229]},"surface":1046.9,"population":156,"departement":{"code":"55","nom":"Meuse"},"region":{"code":"44","nom":"Grand Est"}},{"nom":"Marchéville-en-Woëvre","code":"55320","codesPostaux":["55160"],"centre":{"type":"Point","coordinates":[5.679,49.0895]},"surface":561.34,"population":69,"departement":{"code":"55","nom":"Meuse"},"region":{"code":"44","nom":"Grand Est"}},{"nom":"Marre","code":"55321","codesPostaux":["55100"],"centre":{"type":"Point","coordinates":[5.2975,49.2029]},"surface":1018.55,"population":183,"departement":{"code":"55","nom":"Meuse"},"region":{"code":"44","nom":"Grand Est"}},{"nom":"Marson-sur-Barboure","code":"55322","codesPostaux":["55190"],"centre":{"type":"Point","coordinates":[5.4445,48.6335]},"surface":581.98,"population":59,"departement":{"code":"55","nom":"Meuse"},"region":{"code":"44","nom":"Grand Est"}},{"nom":"Martincourt-sur-Meuse","code":"55323","codesPostaux":["55700"],"centre":{"type":"Point","coordinates":[5.1788,49.5348]},"surface":590.51,"population":66,"departement":{"code":"55","nom":"Meuse"},"region":{"code":"44","nom":"Grand Est"}},{"nom":"Marville","code":"55324","codesPostaux":["55600"],"centre":{"type":"Point","coordinates":[5.439,49.4423]},"surface":1953.87,"population":522,"departement":{"code":"55","nom":"Meuse"},"region":{"code":"44","nom":"Grand Est"}},{"nom":"Maucourt-sur-Orne","code":"55325","codesPostaux":["55400"],"centre":{"type":"Point","coordinates":[5.5136,49.253]},"surface":643.13,"population":51,"departement":{"code":"55","nom":"Meuse"},"region":{"code":"44","nom":"Grand Est"}},{"nom":"Maulan","code":"55326","codesPostaux":["55500"],"centre":{"type":"Point","coordinates":[5.2588,48.667]},"surface":420.02,"population":107,"departement":{"code":"55","nom":"Meuse"},"region":{"code":"44","nom":"Grand Est"}},{"nom":"Mauvages","code":"55327","codesPostaux":["55190"],"centre":{"type":"Point","coordinates":[5.5512,48.5932]},"surface":2120.3,"population":236,"departement":{"code":"55","nom":"Meuse"},"region":{"code":"44","nom":"Grand Est"}},{"nom":"Maxey-sur-Vaise","code":"55328","codesPostaux":["55140"],"centre":{"type":"Point","coordinates":[5.6577,48.5321]},"surface":1089.79,"population":279,"departement":{"code":"55","nom":"Meuse"},"region":{"code":"44","nom":"Grand Est"}},{"nom":"Mécrin","code":"55329","codesPostaux":["55300"],"centre":{"type":"Point","coordinates":[5.5466,48.8288]},"surface":1021.95,"population":183,"departement":{"code":"55","nom":"Meuse"},"region":{"code":"44","nom":"Grand Est"}},{"nom":"Méligny-le-Grand","code":"55330","codesPostaux":["55190"],"centre":{"type":"Point","coordinates":[5.4942,48.6746]},"surface":1152.52,"population":88,"departement":{"code":"55","nom":"Meuse"},"region":{"code":"44","nom":"Grand Est"}},{"nom":"Méligny-le-Petit","code":"55331","codesPostaux":["55190"],"centre":{"type":"Point","coordinates":[5.4688,48.6574]},"surface":840.37,"population":73,"departement":{"code":"55","nom":"Meuse"},"region":{"code":"44","nom":"Grand Est"}},{"nom":"Menaucourt","code":"55332","codesPostaux":["55500"],"centre":{"type":"Point","coordinates":[5.3618,48.6545]},"surface":635.72,"population":221,"departement":{"code":"55","nom":"Meuse"},"region":{"code":"44","nom":"Grand Est"}},{"nom":"Ménil-aux-Bois","code":"55333","codesPostaux":["55260"],"centre":{"type":"Point","coordinates":[5.4413,48.8037]},"surface":662.44,"population":48,"departement":{"code":"55","nom":"Meuse"},"region":{"code":"44","nom":"Grand Est"}},{"nom":"Ménil-la-Horgne","code":"55334","codesPostaux":["55190"],"centre":{"type":"Point","coordinates":[5.5397,48.7035]},"surface":1646.87,"population":180,"departement":{"code":"55","nom":"Meuse"},"region":{"code":"44","nom":"Grand Est"}},{"nom":"Ménil-sur-Saulx","code":"55335","codesPostaux":["55500"],"centre":{"type":"Point","coordinates":[5.2065,48.618]},"surface":1188.33,"population":243,"departement":{"code":"55","nom":"Meuse"},"region":{"code":"44","nom":"Grand Est"}},{"nom":"Merles-sur-Loison","code":"55336","codesPostaux":["55150"],"centre":{"type":"Point","coordinates":[5.4715,49.3658]},"surface":1141.93,"population":144,"departement":{"code":"55","nom":"Meuse"},"region":{"code":"44","nom":"Grand Est"}},{"nom":"Milly-sur-Bradon","code":"55338","codesPostaux":["55110"],"centre":{"type":"Point","coordinates":[5.2175,49.3991]},"surface":1056.03,"population":148,"departement":{"code":"55","nom":"Meuse"},"region":{"code":"44","nom":"Grand Est"}},{"nom":"Mogeville","code":"55339","codesPostaux":["55400"],"centre":{"type":"Point","coordinates":[5.5402,49.2459]},"surface":634.7,"population":73,"departement":{"code":"55","nom":"Meuse"},"region":{"code":"44","nom":"Grand Est"}},{"nom":"Mognéville","code":"55340","codesPostaux":["55800"],"centre":{"type":"Point","coordinates":[4.9881,48.775]},"surface":1849.77,"population":358,"departement":{"code":"55","nom":"Meuse"},"region":{"code":"44","nom":"Grand Est"}},{"nom":"Moirey-Flabas-Crépion","code":"55341","codesPostaux":["55150"],"centre":{"type":"Point","coordinates":[5.3847,49.3013]},"surface":1455.33,"population":109,"departement":{"code":"55","nom":"Meuse"},"region":{"code":"44","nom":"Grand Est"}},{"nom":"Montblainville","code":"55343","codesPostaux":["55270"],"centre":{"type":"Point","coordinates":[4.9902,49.2405]},"surface":1219.34,"population":58,"departement":{"code":"55","nom":"Meuse"},"region":{"code":"44","nom":"Grand Est"}},{"nom":"Montbras","code":"55344","codesPostaux":["55140"],"centre":{"type":"Point","coordinates":[5.6948,48.5154]},"surface":547.36,"population":20,"departement":{"code":"55","nom":"Meuse"},"region":{"code":"44","nom":"Grand Est"}},{"nom":"Mont-devant-Sassey","code":"55345","codesPostaux":["55110"],"centre":{"type":"Point","coordinates":[5.1637,49.4147]},"surface":827.48,"population":103,"departement":{"code":"55","nom":"Meuse"},"region":{"code":"44","nom":"Grand Est"}},{"nom":"Montfaucon-d'Argonne","code":"55346","codesPostaux":["55270"],"centre":{"type":"Point","coordinates":[5.1353,49.2551]},"surface":2358.09,"population":261,"departement":{"code":"55","nom":"Meuse"},"region":{"code":"44","nom":"Grand Est"}},{"nom":"Les Monthairons","code":"55347","codesPostaux":["55320"],"centre":{"type":"Point","coordinates":[5.3861,49.0451]},"surface":1231.32,"population":324,"departement":{"code":"55","nom":"Meuse"},"region":{"code":"44","nom":"Grand Est"}},{"nom":"Montiers-sur-Saulx","code":"55348","codesPostaux":["55290"],"centre":{"type":"Point","coordinates":[5.2607,48.5413]},"surface":4457.09,"population":365,"departement":{"code":"55","nom":"Meuse"},"region":{"code":"44","nom":"Grand Est"}},{"nom":"Montigny-devant-Sassey","code":"55349","codesPostaux":["55110"],"centre":{"type":"Point","coordinates":[5.1343,49.4272]},"surface":978.06,"population":132,"departement":{"code":"55","nom":"Meuse"},"region":{"code":"44","nom":"Grand Est"}},{"nom":"Montigny-lès-Vaucouleurs","code":"55350","codesPostaux":["55140"],"centre":{"type":"Point","coordinates":[5.6041,48.5784]},"surface":1189.16,"population":74,"departement":{"code":"55","nom":"Meuse"},"region":{"code":"44","nom":"Grand Est"}},{"nom":"Montmédy","code":"55351","codesPostaux":["55600"],"centre":{"type":"Point","coordinates":[5.3671,49.5164]},"surface":2346.56,"population":2052,"departement":{"code":"55","nom":"Meuse"},"region":{"code":"44","nom":"Grand Est"}},{"nom":"Montplonne","code":"55352","codesPostaux":["55000"],"centre":{"type":"Point","coordinates":[5.1659,48.6983]},"surface":2075.64,"population":131,"departement":{"code":"55","nom":"Meuse"},"region":{"code":"44","nom":"Grand Est"}},{"nom":"Montsec","code":"55353","codesPostaux":["55300"],"centre":{"type":"Point","coordinates":[5.7254,48.8902]},"surface":588.99,"population":75,"departement":{"code":"55","nom":"Meuse"},"region":{"code":"44","nom":"Grand Est"}},{"nom":"Montzéville","code":"55355","codesPostaux":["55100"],"centre":{"type":"Point","coordinates":[5.2123,49.1881]},"surface":1768.37,"population":152,"departement":{"code":"55","nom":"Meuse"},"region":{"code":"44","nom":"Grand Est"}},{"nom":"Moranville","code":"55356","codesPostaux":["55400"],"centre":{"type":"Point","coordinates":[5.5415,49.1779]},"surface":675.25,"population":103,"departement":{"code":"55","nom":"Meuse"},"region":{"code":"44","nom":"Grand Est"}},{"nom":"Morgemoulin","code":"55357","codesPostaux":["55400"],"centre":{"type":"Point","coordinates":[5.5693,49.2304]},"surface":684.32,"population":109,"departement":{"code":"55","nom":"Meuse"},"region":{"code":"44","nom":"Grand Est"}},{"nom":"Chanteraine","code":"55358","codesPostaux":["55500"],"centre":{"type":"Point","coordinates":[5.389,48.6754]},"surface":2234.01,"population":187,"departement":{"code":"55","nom":"Meuse"},"region":{"code":"44","nom":"Grand Est"}},{"nom":"Morley","code":"55359","codesPostaux":["55290"],"centre":{"type":"Point","coordinates":[5.2247,48.5743]},"surface":2476.15,"population":204,"departement":{"code":"55","nom":"Meuse"},"region":{"code":"44","nom":"Grand Est"}},{"nom":"Mouilly","code":"55360","codesPostaux":["55320"],"centre":{"type":"Point","coordinates":[5.5366,49.0566]},"surface":1112.65,"population":105,"departement":{"code":"55","nom":"Meuse"},"region":{"code":"44","nom":"Grand Est"}},{"nom":"Moulainville","code":"55361","codesPostaux":["55400"],"centre":{"type":"Point","coordinates":[5.4792,49.1587]},"surface":1123.13,"population":139,"departement":{"code":"55","nom":"Meuse"},"region":{"code":"44","nom":"Grand Est"}},{"nom":"Moulins-Saint-Hubert","code":"55362","codesPostaux":["55700"],"centre":{"type":"Point","coordinates":[5.1289,49.5773]},"surface":810.55,"population":175,"departement":{"code":"55","nom":"Meuse"},"region":{"code":"44","nom":"Grand Est"}},{"nom":"Moulotte","code":"55363","codesPostaux":["55160"],"centre":{"type":"Point","coordinates":[5.7505,49.1009]},"surface":548.28,"population":87,"departement":{"code":"55","nom":"Meuse"},"region":{"code":"44","nom":"Grand Est"}},{"nom":"Mouzay","code":"55364","codesPostaux":["55700"],"centre":{"type":"Point","coordinates":[5.2435,49.4531]},"surface":3581.7,"population":651,"departement":{"code":"55","nom":"Meuse"},"region":{"code":"44","nom":"Grand Est"}},{"nom":"Murvaux","code":"55365","codesPostaux":["55110"],"centre":{"type":"Point","coordinates":[5.2769,49.3973]},"surface":1413.82,"population":139,"departement":{"code":"55","nom":"Meuse"},"region":{"code":"44","nom":"Grand Est"}},{"nom":"Val-d'Ornain","code":"55366","codesPostaux":["55000"],"centre":{"type":"Point","coordinates":[5.0886,48.8131]},"surface":2415.06,"population":952,"departement":{"code":"55","nom":"Meuse"},"region":{"code":"44","nom":"Grand Est"}},{"nom":"Muzeray","code":"55367","codesPostaux":["55230"],"centre":{"type":"Point","coordinates":[5.6228,49.3385]},"surface":826.1,"population":133,"departement":{"code":"55","nom":"Meuse"},"region":{"code":"44","nom":"Grand Est"}},{"nom":"Naives-en-Blois","code":"55368","codesPostaux":["55190"],"centre":{"type":"Point","coordinates":[5.5508,48.6665]},"surface":1577.31,"population":155,"departement":{"code":"55","nom":"Meuse"},"region":{"code":"44","nom":"Grand Est"}},{"nom":"Naives-Rosières","code":"55369","codesPostaux":["55000"],"centre":{"type":"Point","coordinates":[5.2309,48.8031]},"surface":1594.7,"population":809,"departement":{"code":"55","nom":"Meuse"},"region":{"code":"44","nom":"Grand Est"}},{"nom":"Naix-aux-Forges","code":"55370","codesPostaux":["55500"],"centre":{"type":"Point","coordinates":[5.3704,48.6312]},"surface":632.32,"population":179,"departement":{"code":"55","nom":"Meuse"},"region":{"code":"44","nom":"Grand Est"}},{"nom":"Nançois-le-Grand","code":"55371","codesPostaux":["55500"],"centre":{"type":"Point","coordinates":[5.3927,48.7129]},"surface":930.81,"population":70,"departement":{"code":"55","nom":"Meuse"},"region":{"code":"44","nom":"Grand Est"}},{"nom":"Nançois-sur-Ornain","code":"55372","codesPostaux":["55500"],"centre":{"type":"Point","coordinates":[5.3179,48.722]},"surface":807.58,"population":359,"departement":{"code":"55","nom":"Meuse"},"region":{"code":"44","nom":"Grand Est"}},{"nom":"Nant-le-Grand","code":"55373","codesPostaux":["55500"],"centre":{"type":"Point","coordinates":[5.2323,48.6809]},"surface":1113.14,"population":82,"departement":{"code":"55","nom":"Meuse"},"region":{"code":"44","nom":"Grand Est"}},{"nom":"Nant-le-Petit","code":"55374","codesPostaux":["55500"],"centre":{"type":"Point","coordinates":[5.2277,48.6514]},"surface":915.62,"population":81,"departement":{"code":"55","nom":"Meuse"},"region":{"code":"44","nom":"Grand Est"}},{"nom":"Nantillois","code":"55375","codesPostaux":["55270"],"centre":{"type":"Point","coordinates":[5.1327,49.3026]},"surface":764.06,"population":63,"departement":{"code":"55","nom":"Meuse"},"region":{"code":"44","nom":"Grand Est"}},{"nom":"Nantois","code":"55376","codesPostaux":["55500"],"centre":{"type":"Point","coordinates":[5.3418,48.6278]},"surface":592.4,"population":73,"departement":{"code":"55","nom":"Meuse"},"region":{"code":"44","nom":"Grand Est"}},{"nom":"Nepvant","code":"55377","codesPostaux":["55700"],"centre":{"type":"Point","coordinates":[5.223,49.5364]},"surface":509.79,"population":87,"departement":{"code":"55","nom":"Meuse"},"region":{"code":"44","nom":"Grand Est"}},{"nom":"Nettancourt","code":"55378","codesPostaux":["55800"],"centre":{"type":"Point","coordinates":[4.936,48.874]},"surface":1139.56,"population":242,"departement":{"code":"55","nom":"Meuse"},"region":{"code":"44","nom":"Grand Est"}},{"nom":"Le Neufour","code":"55379","codesPostaux":["55120"],"centre":{"type":"Point","coordinates":[4.9839,49.129]},"surface":91.83,"population":52,"departement":{"code":"55","nom":"Meuse"},"region":{"code":"44","nom":"Grand Est"}},{"nom":"Neuville-en-Verdunois","code":"55380","codesPostaux":["55260"],"centre":{"type":"Point","coordinates":[5.306,48.9489]},"surface":1346.22,"population":48,"departement":{"code":"55","nom":"Meuse"},"region":{"code":"44","nom":"Grand Est"}},{"nom":"Neuville-lès-Vaucouleurs","code":"55381","codesPostaux":["55140"],"centre":{"type":"Point","coordinates":[5.6573,48.5772]},"surface":834.6,"population":143,"departement":{"code":"55","nom":"Meuse"},"region":{"code":"44","nom":"Grand Est"}},{"nom":"Neuville-sur-Ornain","code":"55382","codesPostaux":["55800"],"centre":{"type":"Point","coordinates":[5.0497,48.8235]},"surface":1167.28,"population":365,"departement":{"code":"55","nom":"Meuse"},"region":{"code":"44","nom":"Grand Est"}},{"nom":"Neuvilly-en-Argonne","code":"55383","codesPostaux":["55120"],"centre":{"type":"Point","coordinates":[5.0328,49.1613]},"surface":1826.75,"population":232,"departement":{"code":"55","nom":"Meuse"},"region":{"code":"44","nom":"Grand Est"}},{"nom":"Nicey-sur-Aire","code":"55384","codesPostaux":["55260"],"centre":{"type":"Point","coordinates":[5.3505,48.8943]},"surface":1096.21,"population":130,"departement":{"code":"55","nom":"Meuse"},"region":{"code":"44","nom":"Grand Est"}},{"nom":"Nixéville-Blercourt","code":"55385","codesPostaux":["55120"],"centre":{"type":"Point","coordinates":[5.2555,49.1115]},"surface":1972,"population":506,"departement":{"code":"55","nom":"Meuse"},"region":{"code":"44","nom":"Grand Est"}},{"nom":"Nonsard-Lamarche","code":"55386","codesPostaux":["55210"],"centre":{"type":"Point","coordinates":[5.7618,48.9367]},"surface":1828.2,"population":219,"departement":{"code":"55","nom":"Meuse"},"region":{"code":"44","nom":"Grand Est"}},{"nom":"Nouillonpont","code":"55387","codesPostaux":["55230"],"centre":{"type":"Point","coordinates":[5.6658,49.3571]},"surface":1011.83,"population":243,"departement":{"code":"55","nom":"Meuse"},"region":{"code":"44","nom":"Grand Est"}},{"nom":"Noyers-Auzécourt","code":"55388","codesPostaux":["55800"],"centre":{"type":"Point","coordinates":[4.9834,48.8852]},"surface":1731.02,"population":273,"departement":{"code":"55","nom":"Meuse"},"region":{"code":"44","nom":"Grand Est"}},{"nom":"Nubécourt","code":"55389","codesPostaux":["55250"],"centre":{"type":"Point","coordinates":[5.1756,49.0062]},"surface":2752.77,"population":253,"departement":{"code":"55","nom":"Meuse"},"region":{"code":"44","nom":"Grand Est"}},{"nom":"Olizy-sur-Chiers","code":"55391","codesPostaux":["55700"],"centre":{"type":"Point","coordinates":[5.2069,49.5573]},"surface":899.07,"population":188,"departement":{"code":"55","nom":"Meuse"},"region":{"code":"44","nom":"Grand Est"}},{"nom":"Ornes","code":"55394","codesPostaux":["55150"],"centre":{"type":"Point","coordinates":[5.4816,49.2577]},"surface":1854.82,"population":9,"departement":{"code":"55","nom":"Meuse"},"region":{"code":"44","nom":"Grand Est"}},{"nom":"Osches","code":"55395","codesPostaux":["55220"],"centre":{"type":"Point","coordinates":[5.2504,49.0453]},"surface":917.09,"population":60,"departement":{"code":"55","nom":"Meuse"},"region":{"code":"44","nom":"Grand Est"}},{"nom":"Ourches-sur-Meuse","code":"55396","codesPostaux":["55190"],"centre":{"type":"Point","coordinates":[5.693,48.6672]},"surface":1030.41,"population":218,"departement":{"code":"55","nom":"Meuse"},"region":{"code":"44","nom":"Grand Est"}},{"nom":"Pagny-la-Blanche-Côte","code":"55397","codesPostaux":["55140"],"centre":{"type":"Point","coordinates":[5.74,48.5376]},"surface":1239.96,"population":226,"departement":{"code":"55","nom":"Meuse"},"region":{"code":"44","nom":"Grand Est"}},{"nom":"Pagny-sur-Meuse","code":"55398","codesPostaux":["55190"],"centre":{"type":"Point","coordinates":[5.732,48.6904]},"surface":1881.28,"population":1036,"departement":{"code":"55","nom":"Meuse"},"region":{"code":"44","nom":"Grand Est"}},{"nom":"Pareid","code":"55399","codesPostaux":["55160"],"centre":{"type":"Point","coordinates":[5.7073,49.1274]},"surface":707.51,"population":110,"departement":{"code":"55","nom":"Meuse"},"region":{"code":"44","nom":"Grand Est"}},{"nom":"Parfondrupt","code":"55400","codesPostaux":["55400"],"centre":{"type":"Point","coordinates":[5.7236,49.1491]},"surface":847.97,"population":40,"departement":{"code":"55","nom":"Meuse"},"region":{"code":"44","nom":"Grand Est"}},{"nom":"Les Paroches","code":"55401","codesPostaux":["55300"],"centre":{"type":"Point","coordinates":[5.482,48.9105]},"surface":1027.11,"population":413,"departement":{"code":"55","nom":"Meuse"},"region":{"code":"44","nom":"Grand Est"}},{"nom":"Peuvillers","code":"55403","codesPostaux":["55150"],"centre":{"type":"Point","coordinates":[5.403,49.3678]},"surface":482.93,"population":60,"departement":{"code":"55","nom":"Meuse"},"region":{"code":"44","nom":"Grand Est"}},{"nom":"Pierrefitte-sur-Aire","code":"55404","codesPostaux":["55260"],"centre":{"type":"Point","coordinates":[5.3455,48.9051]},"surface":1759.03,"population":304,"departement":{"code":"55","nom":"Meuse"},"region":{"code":"44","nom":"Grand Est"}},{"nom":"Pillon","code":"55405","codesPostaux":["55230"],"centre":{"type":"Point","coordinates":[5.5848,49.3712]},"surface":1546.81,"population":251,"departement":{"code":"55","nom":"Meuse"},"region":{"code":"44","nom":"Grand Est"}},{"nom":"Pintheville","code":"55406","codesPostaux":["55160"],"centre":{"type":"Point","coordinates":[5.6685,49.1162]},"surface":523.22,"population":101,"departement":{"code":"55","nom":"Meuse"},"region":{"code":"44","nom":"Grand Est"}},{"nom":"Pont-sur-Meuse","code":"55407","codesPostaux":["55200"],"centre":{"type":"Point","coordinates":[5.5531,48.811]},"surface":361.74,"population":131,"departement":{"code":"55","nom":"Meuse"},"region":{"code":"44","nom":"Grand Est"}},{"nom":"Pouilly-sur-Meuse","code":"55408","codesPostaux":["55700"],"centre":{"type":"Point","coordinates":[5.1227,49.5387]},"surface":1189.32,"population":171,"departement":{"code":"55","nom":"Meuse"},"region":{"code":"44","nom":"Grand Est"}},{"nom":"Pretz-en-Argonne","code":"55409","codesPostaux":["55250"],"centre":{"type":"Point","coordinates":[5.1453,48.9585]},"surface":988.18,"population":64,"departement":{"code":"55","nom":"Meuse"},"region":{"code":"44","nom":"Grand Est"}},{"nom":"Quincy-Landzécourt","code":"55410","codesPostaux":["55600"],"centre":{"type":"Point","coordinates":[5.2947,49.4892]},"surface":1252.08,"population":146,"departement":{"code":"55","nom":"Meuse"},"region":{"code":"44","nom":"Grand Est"}},{"nom":"Rambluzin-et-Benoite-Vaux","code":"55411","codesPostaux":["55220"],"centre":{"type":"Point","coordinates":[5.338,48.9865]},"surface":1836.25,"population":86,"departement":{"code":"55","nom":"Meuse"},"region":{"code":"44","nom":"Grand Est"}},{"nom":"Rambucourt","code":"55412","codesPostaux":["55300"],"centre":{"type":"Point","coordinates":[5.7533,48.8305]},"surface":1479.35,"population":194,"departement":{"code":"55","nom":"Meuse"},"region":{"code":"44","nom":"Grand Est"}},{"nom":"Rancourt-sur-Ornain","code":"55414","codesPostaux":["55800"],"centre":{"type":"Point","coordinates":[4.9162,48.8191]},"surface":990.75,"population":180,"departement":{"code":"55","nom":"Meuse"},"region":{"code":"44","nom":"Grand Est"}},{"nom":"Ranzières","code":"55415","codesPostaux":["55300"],"centre":{"type":"Point","coordinates":[5.5025,49.0244]},"surface":1392.45,"population":87,"departement":{"code":"55","nom":"Meuse"},"region":{"code":"44","nom":"Grand Est"}},{"nom":"Rarécourt","code":"55416","codesPostaux":["55120"],"centre":{"type":"Point","coordinates":[5.0885,49.0764]},"surface":1536.06,"population":195,"departement":{"code":"55","nom":"Meuse"},"region":{"code":"44","nom":"Grand Est"}},{"nom":"Récicourt","code":"55419","codesPostaux":["55120"],"centre":{"type":"Point","coordinates":[5.1615,49.1542]},"surface":1346.85,"population":149,"departement":{"code":"55","nom":"Meuse"},"region":{"code":"44","nom":"Grand Est"}},{"nom":"Récourt-le-Creux","code":"55420","codesPostaux":["55220"],"centre":{"type":"Point","coordinates":[5.3773,48.9978]},"surface":1436.69,"population":64,"departement":{"code":"55","nom":"Meuse"},"region":{"code":"44","nom":"Grand Est"}},{"nom":"Reffroy","code":"55421","codesPostaux":["55190"],"centre":{"type":"Point","coordinates":[5.4696,48.6266]},"surface":949.53,"population":72,"departement":{"code":"55","nom":"Meuse"},"region":{"code":"44","nom":"Grand Est"}},{"nom":"Regnéville-sur-Meuse","code":"55422","codesPostaux":["55110"],"centre":{"type":"Point","coordinates":[5.3159,49.2541]},"surface":379.56,"population":50,"departement":{"code":"55","nom":"Meuse"},"region":{"code":"44","nom":"Grand Est"}},{"nom":"Rembercourt-Sommaisne","code":"55423","codesPostaux":["55250"],"centre":{"type":"Point","coordinates":[5.1813,48.9207]},"surface":2227.11,"population":309,"departement":{"code":"55","nom":"Meuse"},"region":{"code":"44","nom":"Grand Est"}},{"nom":"Remennecourt","code":"55424","codesPostaux":["55800"],"centre":{"type":"Point","coordinates":[4.9141,48.799]},"surface":279.23,"population":43,"departement":{"code":"55","nom":"Meuse"},"region":{"code":"44","nom":"Grand Est"}},{"nom":"Remoiville","code":"55425","codesPostaux":["55600"],"centre":{"type":"Point","coordinates":[5.3808,49.4413]},"surface":972.21,"population":128,"departement":{"code":"55","nom":"Meuse"},"region":{"code":"44","nom":"Grand Est"}},{"nom":"Resson","code":"55426","codesPostaux":["55000"],"centre":{"type":"Point","coordinates":[5.2304,48.7725]},"surface":841.97,"population":361,"departement":{"code":"55","nom":"Meuse"},"region":{"code":"44","nom":"Grand Est"}},{"nom":"Revigny-sur-Ornain","code":"55427","codesPostaux":["55800"],"centre":{"type":"Point","coordinates":[4.9769,48.8268]},"surface":1935.59,"population":2499,"departement":{"code":"55","nom":"Meuse"},"region":{"code":"44","nom":"Grand Est"}},{"nom":"Réville-aux-Bois","code":"55428","codesPostaux":["55150"],"centre":{"type":"Point","coordinates":[5.3437,49.3378]},"surface":1111.58,"population":133,"departement":{"code":"55","nom":"Meuse"},"region":{"code":"44","nom":"Grand Est"}},{"nom":"Riaville","code":"55429","codesPostaux":["55160"],"centre":{"type":"Point","coordinates":[5.6671,49.096]},"surface":339.85,"population":51,"departement":{"code":"55","nom":"Meuse"},"region":{"code":"44","nom":"Grand Est"}},{"nom":"Ribeaucourt","code":"55430","codesPostaux":["55290"],"centre":{"type":"Point","coordinates":[5.3551,48.5422]},"surface":1248.22,"population":72,"departement":{"code":"55","nom":"Meuse"},"region":{"code":"44","nom":"Grand Est"}},{"nom":"Richecourt","code":"55431","codesPostaux":["55300"],"centre":{"type":"Point","coordinates":[5.7545,48.8944]},"surface":626.34,"population":57,"departement":{"code":"55","nom":"Meuse"},"region":{"code":"44","nom":"Grand Est"}},{"nom":"Rigny-la-Salle","code":"55433","codesPostaux":["55140"],"centre":{"type":"Point","coordinates":[5.721,48.6254]},"surface":1032.07,"population":371,"departement":{"code":"55","nom":"Meuse"},"region":{"code":"44","nom":"Grand Est"}},{"nom":"Rigny-Saint-Martin","code":"55434","codesPostaux":["55140"],"centre":{"type":"Point","coordinates":[5.752,48.6101]},"surface":1604.92,"population":50,"departement":{"code":"55","nom":"Meuse"},"region":{"code":"44","nom":"Grand Est"}},{"nom":"Robert-Espagne","code":"55435","codesPostaux":["55000"],"centre":{"type":"Point","coordinates":[5.0253,48.7293]},"surface":748.24,"population":756,"departement":{"code":"55","nom":"Meuse"},"region":{"code":"44","nom":"Grand Est"}},{"nom":"Les Roises","code":"55436","codesPostaux":["55130"],"centre":{"type":"Point","coordinates":[5.6327,48.4521]},"surface":378.12,"population":27,"departement":{"code":"55","nom":"Meuse"},"region":{"code":"44","nom":"Grand Est"}},{"nom":"Romagne-sous-les-Côtes","code":"55437","codesPostaux":["55150"],"centre":{"type":"Point","coordinates":[5.4682,49.3303]},"surface":1424.99,"population":123,"departement":{"code":"55","nom":"Meuse"},"region":{"code":"44","nom":"Grand Est"}},{"nom":"Romagne-sous-Montfaucon","code":"55438","codesPostaux":["55110"],"centre":{"type":"Point","coordinates":[5.0682,49.3275]},"surface":1560.52,"population":170,"departement":{"code":"55","nom":"Meuse"},"region":{"code":"44","nom":"Grand Est"}},{"nom":"Ronvaux","code":"55439","codesPostaux":["55160"],"centre":{"type":"Point","coordinates":[5.5596,49.1315]},"surface":262.98,"population":105,"departement":{"code":"55","nom":"Meuse"},"region":{"code":"44","nom":"Grand Est"}},{"nom":"Raival","code":"55442","codesPostaux":["55260"],"centre":{"type":"Point","coordinates":[5.2492,48.8847]},"surface":1911.56,"population":236,"departement":{"code":"55","nom":"Meuse"},"region":{"code":"44","nom":"Grand Est"}},{"nom":"Rouvres-en-Woëvre","code":"55443","codesPostaux":["55400"],"centre":{"type":"Point","coordinates":[5.7012,49.2232]},"surface":1685.41,"population":598,"departement":{"code":"55","nom":"Meuse"},"region":{"code":"44","nom":"Grand Est"}},{"nom":"Rouvrois-sur-Meuse","code":"55444","codesPostaux":["55300"],"centre":{"type":"Point","coordinates":[5.5252,48.9495]},"surface":617.25,"population":194,"departement":{"code":"55","nom":"Meuse"},"region":{"code":"44","nom":"Grand Est"}},{"nom":"Rouvrois-sur-Othain","code":"55445","codesPostaux":["55230"],"centre":{"type":"Point","coordinates":[5.6319,49.3883]},"surface":1226.57,"population":199,"departement":{"code":"55","nom":"Meuse"},"region":{"code":"44","nom":"Grand Est"}},{"nom":"Rumont","code":"55446","codesPostaux":["55000"],"centre":{"type":"Point","coordinates":[5.2781,48.8281]},"surface":635.07,"population":83,"departement":{"code":"55","nom":"Meuse"},"region":{"code":"44","nom":"Grand Est"}},{"nom":"Rupt-aux-Nonains","code":"55447","codesPostaux":["55170"],"centre":{"type":"Point","coordinates":[5.0896,48.6697]},"surface":2049.74,"population":365,"departement":{"code":"55","nom":"Meuse"},"region":{"code":"44","nom":"Grand Est"}},{"nom":"Rupt-devant-Saint-Mihiel","code":"55448","codesPostaux":["55260"],"centre":{"type":"Point","coordinates":[5.3981,48.8872]},"surface":630.37,"population":39,"departement":{"code":"55","nom":"Meuse"},"region":{"code":"44","nom":"Grand Est"}},{"nom":"Rupt-en-Woëvre","code":"55449","codesPostaux":["55320"],"centre":{"type":"Point","coordinates":[5.4973,49.0648]},"surface":1711.94,"population":280,"departement":{"code":"55","nom":"Meuse"},"region":{"code":"44","nom":"Grand Est"}},{"nom":"Rupt-sur-Othain","code":"55450","codesPostaux":["55150"],"centre":{"type":"Point","coordinates":[5.4777,49.4158]},"surface":551.31,"population":51,"departement":{"code":"55","nom":"Meuse"},"region":{"code":"44","nom":"Grand Est"}},{"nom":"Saint-Amand-sur-Ornain","code":"55452","codesPostaux":["55500"],"centre":{"type":"Point","coordinates":[5.3928,48.6263]},"surface":606.39,"population":60,"departement":{"code":"55","nom":"Meuse"},"region":{"code":"44","nom":"Grand Est"}},{"nom":"Saint-André-en-Barrois","code":"55453","codesPostaux":["55220"],"centre":{"type":"Point","coordinates":[5.2321,49.0096]},"surface":929.59,"population":59,"departement":{"code":"55","nom":"Meuse"},"region":{"code":"44","nom":"Grand Est"}},{"nom":"Saint-Aubin-sur-Aire","code":"55454","codesPostaux":["55500"],"centre":{"type":"Point","coordinates":[5.4499,48.7171]},"surface":1424.51,"population":178,"departement":{"code":"55","nom":"Meuse"},"region":{"code":"44","nom":"Grand Est"}},{"nom":"Saint-Germain-sur-Meuse","code":"55456","codesPostaux":["55140"],"centre":{"type":"Point","coordinates":[5.7169,48.6473]},"surface":769.77,"population":224,"departement":{"code":"55","nom":"Meuse"},"region":{"code":"44","nom":"Grand Est"}},{"nom":"Saint-Hilaire-en-Woëvre","code":"55457","codesPostaux":["55160"],"centre":{"type":"Point","coordinates":[5.7022,49.075]},"surface":1111.72,"population":179,"departement":{"code":"55","nom":"Meuse"},"region":{"code":"44","nom":"Grand Est"}},{"nom":"Saint-Jean-lès-Buzy","code":"55458","codesPostaux":["55400"],"centre":{"type":"Point","coordinates":[5.7408,49.1703]},"surface":1037.49,"population":368,"departement":{"code":"55","nom":"Meuse"},"region":{"code":"44","nom":"Grand Est"}},{"nom":"Saint-Joire","code":"55459","codesPostaux":["55130"],"centre":{"type":"Point","coordinates":[5.4092,48.5822]},"surface":1822.39,"population":230,"departement":{"code":"55","nom":"Meuse"},"region":{"code":"44","nom":"Grand Est"}},{"nom":"Saint-Julien-sous-les-Côtes","code":"55460","codesPostaux":["55200"],"centre":{"type":"Point","coordinates":[5.6205,48.8212]},"surface":500.49,"population":138,"departement":{"code":"55","nom":"Meuse"},"region":{"code":"44","nom":"Grand Est"}},{"nom":"Saint-Laurent-sur-Othain","code":"55461","codesPostaux":["55150"],"centre":{"type":"Point","coordinates":[5.5287,49.3975]},"surface":1684.82,"population":435,"departement":{"code":"55","nom":"Meuse"},"region":{"code":"44","nom":"Grand Est"}},{"nom":"Saint-Maurice-sous-les-Côtes","code":"55462","codesPostaux":["55210"],"centre":{"type":"Point","coordinates":[5.6693,49.0115]},"surface":935.89,"population":371,"departement":{"code":"55","nom":"Meuse"},"region":{"code":"44","nom":"Grand Est"}},{"nom":"Saint-Mihiel","code":"55463","codesPostaux":["55300"],"centre":{"type":"Point","coordinates":[5.5745,48.8941]},"surface":3292.67,"population":3772,"departement":{"code":"55","nom":"Meuse"},"region":{"code":"44","nom":"Grand Est"}},{"nom":"Saint-Pierrevillers","code":"55464","codesPostaux":["55230"],"centre":{"type":"Point","coordinates":[5.6851,49.3736]},"surface":1116.36,"population":149,"departement":{"code":"55","nom":"Meuse"},"region":{"code":"44","nom":"Grand Est"}},{"nom":"Saint-Remy-la-Calonne","code":"55465","codesPostaux":["55160"],"centre":{"type":"Point","coordinates":[5.5878,49.0387]},"surface":807.29,"population":97,"departement":{"code":"55","nom":"Meuse"},"region":{"code":"44","nom":"Grand Est"}},{"nom":"Salmagne","code":"55466","codesPostaux":["55000"],"centre":{"type":"Point","coordinates":[5.3314,48.7587]},"surface":1669.93,"population":281,"departement":{"code":"55","nom":"Meuse"},"region":{"code":"44","nom":"Grand Est"}},{"nom":"Sampigny","code":"55467","codesPostaux":["55300"],"centre":{"type":"Point","coordinates":[5.4869,48.8198]},"surface":2049.03,"population":692,"departement":{"code":"55","nom":"Meuse"},"region":{"code":"44","nom":"Grand Est"}},{"nom":"Samogneux","code":"55468","codesPostaux":["55100"],"centre":{"type":"Point","coordinates":[5.3515,49.258]},"surface":615.43,"population":97,"departement":{"code":"55","nom":"Meuse"},"region":{"code":"44","nom":"Grand Est"}},{"nom":"Sassey-sur-Meuse","code":"55469","codesPostaux":["55110"],"centre":{"type":"Point","coordinates":[5.1799,49.4132]},"surface":441.28,"population":93,"departement":{"code":"55","nom":"Meuse"},"region":{"code":"44","nom":"Grand Est"}},{"nom":"Saudrupt","code":"55470","codesPostaux":["55000"],"centre":{"type":"Point","coordinates":[5.0549,48.694]},"surface":770.23,"population":190,"departement":{"code":"55","nom":"Meuse"},"region":{"code":"44","nom":"Grand Est"}},{"nom":"Saulmory-Villefranche","code":"55471","codesPostaux":["55110"],"centre":{"type":"Point","coordinates":[5.1713,49.4384]},"surface":689.57,"population":82,"departement":{"code":"55","nom":"Meuse"},"region":{"code":"44","nom":"Grand Est"}},{"nom":"Saulvaux","code":"55472","codesPostaux":["55500"],"centre":{"type":"Point","coordinates":[5.4627,48.6922]},"surface":2233.19,"population":111,"departement":{"code":"55","nom":"Meuse"},"region":{"code":"44","nom":"Grand Est"}},{"nom":"Saulx-lès-Champlon","code":"55473","codesPostaux":["55160"],"centre":{"type":"Point","coordinates":[5.6573,49.0739]},"surface":782.51,"population":116,"departement":{"code":"55","nom":"Meuse"},"region":{"code":"44","nom":"Grand Est"}},{"nom":"Sauvigny","code":"55474","codesPostaux":["55140"],"centre":{"type":"Point","coordinates":[5.7322,48.5006]},"surface":1748.66,"population":229,"departement":{"code":"55","nom":"Meuse"},"region":{"code":"44","nom":"Grand Est"}},{"nom":"Sauvoy","code":"55475","codesPostaux":["55190"],"centre":{"type":"Point","coordinates":[5.6053,48.6384]},"surface":781.06,"population":71,"departement":{"code":"55","nom":"Meuse"},"region":{"code":"44","nom":"Grand Est"}},{"nom":"Savonnières-devant-Bar","code":"55476","codesPostaux":["55000"],"centre":{"type":"Point","coordinates":[5.1758,48.7491]},"surface":517.73,"population":430,"departement":{"code":"55","nom":"Meuse"},"region":{"code":"44","nom":"Grand Est"}},{"nom":"Savonnières-en-Perthois","code":"55477","codesPostaux":["55170"],"centre":{"type":"Point","coordinates":[5.1429,48.6023]},"surface":993.14,"population":398,"departement":{"code":"55","nom":"Meuse"},"region":{"code":"44","nom":"Grand Est"}},{"nom":"Seigneulles","code":"55479","codesPostaux":["55000"],"centre":{"type":"Point","coordinates":[5.2325,48.8522]},"surface":1168.7,"population":153,"departement":{"code":"55","nom":"Meuse"},"region":{"code":"44","nom":"Grand Est"}},{"nom":"Senon","code":"55481","codesPostaux":["55230"],"centre":{"type":"Point","coordinates":[5.62,49.2805]},"surface":2052.97,"population":300,"departement":{"code":"55","nom":"Meuse"},"region":{"code":"44","nom":"Grand Est"}},{"nom":"Senoncourt-les-Maujouy","code":"55482","codesPostaux":["55220"],"centre":{"type":"Point","coordinates":[5.3459,49.0586]},"surface":1487.74,"population":98,"departement":{"code":"55","nom":"Meuse"},"region":{"code":"44","nom":"Grand Est"}},{"nom":"Septsarges","code":"55484","codesPostaux":["55270"],"centre":{"type":"Point","coordinates":[5.1775,49.2875]},"surface":887.97,"population":47,"departement":{"code":"55","nom":"Meuse"},"region":{"code":"44","nom":"Grand Est"}},{"nom":"Sepvigny","code":"55485","codesPostaux":["55140"],"centre":{"type":"Point","coordinates":[5.6938,48.5642]},"surface":637.86,"population":80,"departement":{"code":"55","nom":"Meuse"},"region":{"code":"44","nom":"Grand Est"}},{"nom":"Seuzey","code":"55487","codesPostaux":["55300"],"centre":{"type":"Point","coordinates":[5.5613,48.99]},"surface":463.11,"population":83,"departement":{"code":"55","nom":"Meuse"},"region":{"code":"44","nom":"Grand Est"}},{"nom":"Silmont","code":"55488","codesPostaux":["55000"],"centre":{"type":"Point","coordinates":[5.2463,48.7358]},"surface":378.37,"population":141,"departement":{"code":"55","nom":"Meuse"},"region":{"code":"44","nom":"Grand Est"}},{"nom":"Sivry-la-Perche","code":"55489","codesPostaux":["55100"],"centre":{"type":"Point","coordinates":[5.2553,49.138]},"surface":1213.71,"population":279,"departement":{"code":"55","nom":"Meuse"},"region":{"code":"44","nom":"Grand Est"}},{"nom":"Sivry-sur-Meuse","code":"55490","codesPostaux":["55110"],"centre":{"type":"Point","coordinates":[5.2858,49.3302]},"surface":2221.91,"population":341,"departement":{"code":"55","nom":"Meuse"},"region":{"code":"44","nom":"Grand Est"}},{"nom":"Sommedieue","code":"55492","codesPostaux":["55320"],"centre":{"type":"Point","coordinates":[5.4782,49.0984]},"surface":3341.53,"population":944,"departement":{"code":"55","nom":"Meuse"},"region":{"code":"44","nom":"Grand Est"}},{"nom":"Sommeilles","code":"55493","codesPostaux":["55800"],"centre":{"type":"Point","coordinates":[4.9659,48.9153]},"surface":1870.73,"population":181,"departement":{"code":"55","nom":"Meuse"},"region":{"code":"44","nom":"Grand Est"}},